{
  "metadata": {
    "path": "/v3/location/areas?limit=1000&page=16",
    "http_status_code": 200,
    "http_status": "OK",
    "timestamp": 1647334777
  },
  "data": [
    {
      "suburb": {
        "id": 1464,
        "name": "Jumapolo",
        "lat": -7.7146179,
        "lng": 110.9625854
      },
      "city": {
        "id": 88,
        "name": "Karanganyar",
        "lat": -7.6387228,
        "lng": 111.0460407
      },
      "province": {
        "id": 10,
        "name": "Jawa Tengah",
        "lat": -7.150975,
        "lng": 110.1402594
      },
      "country": {
        "id": 228,
        "name": "INDONESIA",
        "code": "ID"
      },
      "id": 15001,
      "name": "Kedawung",
      "postcode": "57783",
      "lat": -7.6932013,
      "lng": 111.0311377
    },
    {
      "suburb": {
        "id": 1464,
        "name": "Jumapolo",
        "lat": -7.7146179,
        "lng": 110.9625854
      },
      "city": {
        "id": 88,
        "name": "Karanganyar",
        "lat": -7.6387228,
        "lng": 111.0460407
      },
      "province": {
        "id": 10,
        "name": "Jawa Tengah",
        "lat": -7.150975,
        "lng": 110.1402594
      },
      "country": {
        "id": 228,
        "name": "INDONESIA",
        "code": "ID"
      },
      "id": 15002,
      "name": "Kwangsan",
      "postcode": "57783",
      "lat": -7.6962377,
      "lng": 110.9715269
    },
    {
      "suburb": {
        "id": 1464,
        "name": "Jumapolo",
        "lat": -7.7146179,
        "lng": 110.9625854
      },
      "city": {
        "id": 88,
        "name": "Karanganyar",
        "lat": -7.6387228,
        "lng": 111.0460407
      },
      "province": {
        "id": 10,
        "name": "Jawa Tengah",
        "lat": -7.150975,
        "lng": 110.1402594
      },
      "country": {
        "id": 228,
        "name": "INDONESIA",
        "code": "ID"
      },
      "id": 15003,
      "name": "Jumantoro",
      "postcode": "57783",
      "lat": -7.6868667,
      "lng": 111.0549826
    },
    {
      "suburb": {
        "id": 1464,
        "name": "Jumapolo",
        "lat": -7.7146179,
        "lng": 110.9625854
      },
      "city": {
        "id": 88,
        "name": "Karanganyar",
        "lat": -7.6387228,
        "lng": 111.0460407
      },
      "province": {
        "id": 10,
        "name": "Jawa Tengah",
        "lat": -7.150975,
        "lng": 110.1402594
      },
      "country": {
        "id": 228,
        "name": "INDONESIA",
        "code": "ID"
      },
      "id": 15004,
      "name": "Jumapolo",
      "postcode": "57783",
      "lat": -7.7049605,
      "lng": 111.001332
    },
    {
      "suburb": {
        "id": 1464,
        "name": "Jumapolo",
        "lat": -7.7146179,
        "lng": 110.9625854
      },
      "city": {
        "id": 88,
        "name": "Karanganyar",
        "lat": -7.6387228,
        "lng": 111.0460407
      },
      "province": {
        "id": 10,
        "name": "Jawa Tengah",
        "lat": -7.150975,
        "lng": 110.1402594
      },
      "country": {
        "id": 228,
        "name": "INDONESIA",
        "code": "ID"
      },
      "id": 15005,
      "name": "Karangbangun",
      "postcode": "57783",
      "lat": -7.7257499,
      "lng": 110.995371
    },
    {
      "suburb": {
        "id": 1464,
        "name": "Jumapolo",
        "lat": -7.7146179,
        "lng": 110.9625854
      },
      "city": {
        "id": 88,
        "name": "Karanganyar",
        "lat": -7.6387228,
        "lng": 111.0460407
      },
      "province": {
        "id": 10,
        "name": "Jawa Tengah",
        "lat": -7.150975,
        "lng": 110.1402594
      },
      "country": {
        "id": 228,
        "name": "INDONESIA",
        "code": "ID"
      },
      "id": 15006,
      "name": "Giriwondo",
      "postcode": "57783",
      "lat": -7.705542,
      "lng": 111.0400795
    },
    {
      "suburb": {
        "id": 1464,
        "name": "Jumapolo",
        "lat": -7.7146179,
        "lng": 110.9625854
      },
      "city": {
        "id": 88,
        "name": "Karanganyar",
        "lat": -7.6387228,
        "lng": 111.0460407
      },
      "province": {
        "id": 10,
        "name": "Jawa Tengah",
        "lat": -7.150975,
        "lng": 110.1402594
      },
      "country": {
        "id": 228,
        "name": "INDONESIA",
        "code": "ID"
      },
      "id": 15007,
      "name": "Jatirejo",
      "postcode": "57783",
      "lat": -7.7070867,
      "lng": 110.959605
    },
    {
      "suburb": {
        "id": 1464,
        "name": "Jumapolo",
        "lat": -7.7146179,
        "lng": 110.9625854
      },
      "city": {
        "id": 88,
        "name": "Karanganyar",
        "lat": -7.6387228,
        "lng": 111.0460407
      },
      "province": {
        "id": 10,
        "name": "Jawa Tengah",
        "lat": -7.150975,
        "lng": 110.1402594
      },
      "country": {
        "id": 228,
        "name": "INDONESIA",
        "code": "ID"
      },
      "id": 15008,
      "name": "Bakalan",
      "postcode": "57783",
      "lat": -7.6896012,
      "lng": 111.001332
    },
    {
      "suburb": {
        "id": 1465,
        "name": "Jumantono",
        "lat": -7.6724431,
        "lng": 110.9864294
      },
      "city": {
        "id": 88,
        "name": "Karanganyar",
        "lat": -7.6387228,
        "lng": 111.0460407
      },
      "province": {
        "id": 10,
        "name": "Jawa Tengah",
        "lat": -7.150975,
        "lng": 110.1402594
      },
      "country": {
        "id": 228,
        "name": "INDONESIA",
        "code": "ID"
      },
      "id": 15009,
      "name": "Tunggulrejo",
      "postcode": "57782",
      "lat": -7.6667037,
      "lng": 111.0490213
    },
    {
      "suburb": {
        "id": 1465,
        "name": "Jumantono",
        "lat": -7.6724431,
        "lng": 110.9864294
      },
      "city": {
        "id": 88,
        "name": "Karanganyar",
        "lat": -7.6387228,
        "lng": 111.0460407
      },
      "province": {
        "id": 10,
        "name": "Jawa Tengah",
        "lat": -7.150975,
        "lng": 110.1402594
      },
      "country": {
        "id": 228,
        "name": "INDONESIA",
        "code": "ID"
      },
      "id": 15010,
      "name": "Tugu",
      "postcode": "57782",
      "lat": -7.6558891,
      "lng": 110.959605
    },
    {
      "suburb": {
        "id": 1465,
        "name": "Jumantono",
        "lat": -7.6724431,
        "lng": 110.9864294
      },
      "city": {
        "id": 88,
        "name": "Karanganyar",
        "lat": -7.6387228,
        "lng": 111.0460407
      },
      "province": {
        "id": 10,
        "name": "Jawa Tengah",
        "lat": -7.150975,
        "lng": 110.1402594
      },
      "country": {
        "id": 228,
        "name": "INDONESIA",
        "code": "ID"
      },
      "id": 15011,
      "name": "Sukosari",
      "postcode": "57782",
      "lat": -7.6357219,
      "lng": 110.953644
    },
    {
      "suburb": {
        "id": 1465,
        "name": "Jumantono",
        "lat": -7.6724431,
        "lng": 110.9864294
      },
      "city": {
        "id": 88,
        "name": "Karanganyar",
        "lat": -7.6387228,
        "lng": 111.0460407
      },
      "province": {
        "id": 10,
        "name": "Jawa Tengah",
        "lat": -7.150975,
        "lng": 110.1402594
      },
      "country": {
        "id": 228,
        "name": "INDONESIA",
        "code": "ID"
      },
      "id": 15012,
      "name": "Sedayu",
      "postcode": "57782",
      "lat": -7.6784695,
      "lng": 110.9685464
    },
    {
      "suburb": {
        "id": 1465,
        "name": "Jumantono",
        "lat": -7.6724431,
        "lng": 110.9864294
      },
      "city": {
        "id": 88,
        "name": "Karanganyar",
        "lat": -7.6387228,
        "lng": 111.0460407
      },
      "province": {
        "id": 10,
        "name": "Jawa Tengah",
        "lat": -7.150975,
        "lng": 110.1402594
      },
      "country": {
        "id": 228,
        "name": "INDONESIA",
        "code": "ID"
      },
      "id": 15013,
      "name": "Sringin",
      "postcode": "57782",
      "lat": -7.6489006,
      "lng": 111.0113866
    },
    {
      "suburb": {
        "id": 1465,
        "name": "Jumantono",
        "lat": -7.6724431,
        "lng": 110.9864294
      },
      "city": {
        "id": 88,
        "name": "Karanganyar",
        "lat": -7.6387228,
        "lng": 111.0460407
      },
      "province": {
        "id": 10,
        "name": "Jawa Tengah",
        "lat": -7.150975,
        "lng": 110.1402594
      },
      "country": {
        "id": 228,
        "name": "INDONESIA",
        "code": "ID"
      },
      "id": 15014,
      "name": "Ngunut",
      "postcode": "57782",
      "lat": -7.6546825,
      "lng": 110.9834489
    },
    {
      "suburb": {
        "id": 1465,
        "name": "Jumantono",
        "lat": -7.6724431,
        "lng": 110.9864294
      },
      "city": {
        "id": 88,
        "name": "Karanganyar",
        "lat": -7.6387228,
        "lng": 111.0460407
      },
      "province": {
        "id": 10,
        "name": "Jawa Tengah",
        "lat": -7.150975,
        "lng": 110.1402594
      },
      "country": {
        "id": 228,
        "name": "INDONESIA",
        "code": "ID"
      },
      "id": 15015,
      "name": "Sambirejo",
      "postcode": "57782",
      "lat": -7.6351205,
      "lng": 110.9655659
    },
    {
      "suburb": {
        "id": 1465,
        "name": "Jumantono",
        "lat": -7.6724431,
        "lng": 110.9864294
      },
      "city": {
        "id": 88,
        "name": "Karanganyar",
        "lat": -7.6387228,
        "lng": 111.0460407
      },
      "province": {
        "id": 10,
        "name": "Jawa Tengah",
        "lat": -7.150975,
        "lng": 110.1402594
      },
      "country": {
        "id": 228,
        "name": "INDONESIA",
        "code": "ID"
      },
      "id": 15016,
      "name": "Gemantar",
      "postcode": "57782",
      "lat": -7.6778473,
      "lng": 111.0311377
    },
    {
      "suburb": {
        "id": 1465,
        "name": "Jumantono",
        "lat": -7.6724431,
        "lng": 110.9864294
      },
      "city": {
        "id": 88,
        "name": "Karanganyar",
        "lat": -7.6387228,
        "lng": 111.0460407
      },
      "province": {
        "id": 10,
        "name": "Jawa Tengah",
        "lat": -7.150975,
        "lng": 110.1402594
      },
      "country": {
        "id": 228,
        "name": "INDONESIA",
        "code": "ID"
      },
      "id": 15017,
      "name": "Genengan",
      "postcode": "57782",
      "lat": -7.6634052,
      "lng": 111.0132542
    },
    {
      "suburb": {
        "id": 1465,
        "name": "Jumantono",
        "lat": -7.6724431,
        "lng": 110.9864294
      },
      "city": {
        "id": 88,
        "name": "Karanganyar",
        "lat": -7.6387228,
        "lng": 111.0460407
      },
      "province": {
        "id": 10,
        "name": "Jawa Tengah",
        "lat": -7.150975,
        "lng": 110.1402594
      },
      "country": {
        "id": 228,
        "name": "INDONESIA",
        "code": "ID"
      },
      "id": 15018,
      "name": "Kebak",
      "postcode": "57782",
      "lat": -7.6772588,
      "lng": 110.9923904
    },
    {
      "suburb": {
        "id": 1466,
        "name": "Matesih",
        "lat": -7.6441393,
        "lng": 111.0400795
      },
      "city": {
        "id": 88,
        "name": "Karanganyar",
        "lat": -7.6387228,
        "lng": 111.0460407
      },
      "province": {
        "id": 10,
        "name": "Jawa Tengah",
        "lat": -7.150975,
        "lng": 110.1402594
      },
      "country": {
        "id": 228,
        "name": "INDONESIA",
        "code": "ID"
      },
      "id": 15019,
      "name": "Plosorejo",
      "postcode": "57781",
      "lat": -7.6315052,
      "lng": 111.0370989
    },
    {
      "suburb": {
        "id": 1465,
        "name": "Jumantono",
        "lat": -7.6724431,
        "lng": 110.9864294
      },
      "city": {
        "id": 88,
        "name": "Karanganyar",
        "lat": -7.6387228,
        "lng": 111.0460407
      },
      "province": {
        "id": 10,
        "name": "Jawa Tengah",
        "lat": -7.150975,
        "lng": 110.1402594
      },
      "country": {
        "id": 228,
        "name": "INDONESIA",
        "code": "ID"
      },
      "id": 15020,
      "name": "Blorong",
      "postcode": "57782",
      "lat": -7.6441479,
      "lng": 110.9894099
    },
    {
      "suburb": {
        "id": 1466,
        "name": "Matesih",
        "lat": -7.6441393,
        "lng": 111.0400795
      },
      "city": {
        "id": 88,
        "name": "Karanganyar",
        "lat": -7.6387228,
        "lng": 111.0460407
      },
      "province": {
        "id": 10,
        "name": "Jawa Tengah",
        "lat": -7.150975,
        "lng": 110.1402594
      },
      "country": {
        "id": 228,
        "name": "INDONESIA",
        "code": "ID"
      },
      "id": 15021,
      "name": "Ngadiluwih",
      "postcode": "57781",
      "lat": -7.6333144,
      "lng": 111.001332
    },
    {
      "suburb": {
        "id": 1466,
        "name": "Matesih",
        "lat": -7.6441393,
        "lng": 111.0400795
      },
      "city": {
        "id": 88,
        "name": "Karanganyar",
        "lat": -7.6387228,
        "lng": 111.0460407
      },
      "province": {
        "id": 10,
        "name": "Jawa Tengah",
        "lat": -7.150975,
        "lng": 110.1402594
      },
      "country": {
        "id": 228,
        "name": "INDONESIA",
        "code": "ID"
      },
      "id": 15022,
      "name": "Pablengan",
      "postcode": "57781",
      "lat": -7.6354104,
      "lng": 111.0609438
    },
    {
      "suburb": {
        "id": 1466,
        "name": "Matesih",
        "lat": -7.6441393,
        "lng": 111.0400795
      },
      "city": {
        "id": 88,
        "name": "Karanganyar",
        "lat": -7.6387228,
        "lng": 111.0460407
      },
      "province": {
        "id": 10,
        "name": "Jawa Tengah",
        "lat": -7.150975,
        "lng": 110.1402594
      },
      "country": {
        "id": 228,
        "name": "INDONESIA",
        "code": "ID"
      },
      "id": 15023,
      "name": "Koripan",
      "postcode": "57781",
      "lat": -7.6606781,
      "lng": 111.0669051
    },
    {
      "suburb": {
        "id": 1466,
        "name": "Matesih",
        "lat": -7.6441393,
        "lng": 111.0400795
      },
      "city": {
        "id": 88,
        "name": "Karanganyar",
        "lat": -7.6387228,
        "lng": 111.0460407
      },
      "province": {
        "id": 10,
        "name": "Jawa Tengah",
        "lat": -7.150975,
        "lng": 110.1402594
      },
      "country": {
        "id": 228,
        "name": "INDONESIA",
        "code": "ID"
      },
      "id": 15024,
      "name": "Matesih",
      "postcode": "57781",
      "lat": -7.6465454,
      "lng": 111.0430601
    },
    {
      "suburb": {
        "id": 1466,
        "name": "Matesih",
        "lat": -7.6441393,
        "lng": 111.0400795
      },
      "city": {
        "id": 88,
        "name": "Karanganyar",
        "lat": -7.6387228,
        "lng": 111.0460407
      },
      "province": {
        "id": 10,
        "name": "Jawa Tengah",
        "lat": -7.150975,
        "lng": 110.1402594
      },
      "country": {
        "id": 228,
        "name": "INDONESIA",
        "code": "ID"
      },
      "id": 15025,
      "name": "Karangbangun",
      "postcode": "57781",
      "lat": -7.6504489,
      "lng": 111.0669051
    },
    {
      "suburb": {
        "id": 1466,
        "name": "Matesih",
        "lat": -7.6441393,
        "lng": 111.0400795
      },
      "city": {
        "id": 88,
        "name": "Karanganyar",
        "lat": -7.6387228,
        "lng": 111.0460407
      },
      "province": {
        "id": 10,
        "name": "Jawa Tengah",
        "lat": -7.150975,
        "lng": 110.1402594
      },
      "country": {
        "id": 228,
        "name": "INDONESIA",
        "code": "ID"
      },
      "id": 15026,
      "name": "Girilayu",
      "postcode": "57781",
      "lat": -7.6498428,
      "lng": 111.0788277
    },
    {
      "suburb": {
        "id": 1466,
        "name": "Matesih",
        "lat": -7.6441393,
        "lng": 111.0400795
      },
      "city": {
        "id": 88,
        "name": "Karanganyar",
        "lat": -7.6387228,
        "lng": 111.0460407
      },
      "province": {
        "id": 10,
        "name": "Jawa Tengah",
        "lat": -7.150975,
        "lng": 110.1402594
      },
      "country": {
        "id": 228,
        "name": "INDONESIA",
        "code": "ID"
      },
      "id": 15027,
      "name": "Dawung",
      "postcode": "57781",
      "lat": -7.646098,
      "lng": 111.0266668
    },
    {
      "suburb": {
        "id": 1466,
        "name": "Matesih",
        "lat": -7.6441393,
        "lng": 111.0400795
      },
      "city": {
        "id": 88,
        "name": "Karanganyar",
        "lat": -7.6387228,
        "lng": 111.0460407
      },
      "province": {
        "id": 10,
        "name": "Jawa Tengah",
        "lat": -7.150975,
        "lng": 110.1402594
      },
      "country": {
        "id": 228,
        "name": "INDONESIA",
        "code": "ID"
      },
      "id": 15028,
      "name": "Gantiwarno",
      "postcode": "57781",
      "lat": -7.6244393,
      "lng": 110.9998418
    },
    {
      "suburb": {
        "id": 1467,
        "name": "Kebakkramat",
        "lat": -7.5124123,
        "lng": 110.9148985
      },
      "city": {
        "id": 88,
        "name": "Karanganyar",
        "lat": -7.6387228,
        "lng": 111.0460407
      },
      "province": {
        "id": 10,
        "name": "Jawa Tengah",
        "lat": -7.150975,
        "lng": 110.1402594
      },
      "country": {
        "id": 228,
        "name": "INDONESIA",
        "code": "ID"
      },
      "id": 15029,
      "name": "Pulosari",
      "postcode": "57762",
      "lat": -7.5148185,
      "lng": 110.9178789
    },
    {
      "suburb": {
        "id": 1467,
        "name": "Kebakkramat",
        "lat": -7.5124123,
        "lng": 110.9148985
      },
      "city": {
        "id": 88,
        "name": "Karanganyar",
        "lat": -7.6387228,
        "lng": 111.0460407
      },
      "province": {
        "id": 10,
        "name": "Jawa Tengah",
        "lat": -7.150975,
        "lng": 110.1402594
      },
      "country": {
        "id": 228,
        "name": "INDONESIA",
        "code": "ID"
      },
      "id": 15030,
      "name": "Waru",
      "postcode": "57762",
      "lat": -7.5000861,
      "lng": 110.9059574
    },
    {
      "suburb": {
        "id": 1467,
        "name": "Kebakkramat",
        "lat": -7.5124123,
        "lng": 110.9148985
      },
      "city": {
        "id": 88,
        "name": "Karanganyar",
        "lat": -7.6387228,
        "lng": 111.0460407
      },
      "province": {
        "id": 10,
        "name": "Jawa Tengah",
        "lat": -7.150975,
        "lng": 110.1402594
      },
      "country": {
        "id": 228,
        "name": "INDONESIA",
        "code": "ID"
      },
      "id": 15031,
      "name": "Macanan",
      "postcode": "57762",
      "lat": -7.5400667,
      "lng": 110.9238397
    },
    {
      "suburb": {
        "id": 1467,
        "name": "Kebakkramat",
        "lat": -7.5124123,
        "lng": 110.9148985
      },
      "city": {
        "id": 88,
        "name": "Karanganyar",
        "lat": -7.6387228,
        "lng": 111.0460407
      },
      "province": {
        "id": 10,
        "name": "Jawa Tengah",
        "lat": -7.150975,
        "lng": 110.1402594
      },
      "country": {
        "id": 228,
        "name": "INDONESIA",
        "code": "ID"
      },
      "id": 15032,
      "name": "Malanggaten",
      "postcode": "57762",
      "lat": -7.5190395,
      "lng": 110.9357614
    },
    {
      "suburb": {
        "id": 1467,
        "name": "Kebakkramat",
        "lat": -7.5124123,
        "lng": 110.9148985
      },
      "city": {
        "id": 88,
        "name": "Karanganyar",
        "lat": -7.6387228,
        "lng": 111.0460407
      },
      "province": {
        "id": 10,
        "name": "Jawa Tengah",
        "lat": -7.150975,
        "lng": 110.1402594
      },
      "country": {
        "id": 228,
        "name": "INDONESIA",
        "code": "ID"
      },
      "id": 15033,
      "name": "Nangsri",
      "postcode": "57762",
      "lat": -7.53044,
      "lng": 110.9119181
    },
    {
      "suburb": {
        "id": 1467,
        "name": "Kebakkramat",
        "lat": -7.5124123,
        "lng": 110.9148985
      },
      "city": {
        "id": 88,
        "name": "Karanganyar",
        "lat": -7.6387228,
        "lng": 111.0460407
      },
      "province": {
        "id": 10,
        "name": "Jawa Tengah",
        "lat": -7.150975,
        "lng": 110.1402594
      },
      "country": {
        "id": 228,
        "name": "INDONESIA",
        "code": "ID"
      },
      "id": 15034,
      "name": "Kemiri",
      "postcode": "57762",
      "lat": -7.5262177,
      "lng": 110.894036
    },
    {
      "suburb": {
        "id": 1467,
        "name": "Kebakkramat",
        "lat": -7.5124123,
        "lng": 110.9148985
      },
      "city": {
        "id": 88,
        "name": "Karanganyar",
        "lat": -7.6387228,
        "lng": 111.0460407
      },
      "province": {
        "id": 10,
        "name": "Jawa Tengah",
        "lat": -7.150975,
        "lng": 110.1402594
      },
      "country": {
        "id": 228,
        "name": "INDONESIA",
        "code": "ID"
      },
      "id": 15035,
      "name": "Kaliwuluh",
      "postcode": "57762",
      "lat": -7.5058283,
      "lng": 110.9447027
    },
    {
      "suburb": {
        "id": 1467,
        "name": "Kebakkramat",
        "lat": -7.5124123,
        "lng": 110.9148985
      },
      "city": {
        "id": 88,
        "name": "Karanganyar",
        "lat": -7.6387228,
        "lng": 111.0460407
      },
      "province": {
        "id": 10,
        "name": "Jawa Tengah",
        "lat": -7.150975,
        "lng": 110.1402594
      },
      "country": {
        "id": 228,
        "name": "INDONESIA",
        "code": "ID"
      },
      "id": 15036,
      "name": "Kebak",
      "postcode": "57762",
      "lat": -7.5157044,
      "lng": 110.8999967
    },
    {
      "suburb": {
        "id": 1467,
        "name": "Kebakkramat",
        "lat": -7.5124123,
        "lng": 110.9148985
      },
      "city": {
        "id": 88,
        "name": "Karanganyar",
        "lat": -7.6387228,
        "lng": 111.0460407
      },
      "province": {
        "id": 10,
        "name": "Jawa Tengah",
        "lat": -7.150975,
        "lng": 110.1402594
      },
      "country": {
        "id": 228,
        "name": "INDONESIA",
        "code": "ID"
      },
      "id": 15037,
      "name": "Banjarharjo",
      "postcode": "57762",
      "lat": -7.5348261,
      "lng": 110.9521538
    },
    {
      "suburb": {
        "id": 1467,
        "name": "Kebakkramat",
        "lat": -7.5124123,
        "lng": 110.9148985
      },
      "city": {
        "id": 88,
        "name": "Karanganyar",
        "lat": -7.6387228,
        "lng": 111.0460407
      },
      "province": {
        "id": 10,
        "name": "Jawa Tengah",
        "lat": -7.150975,
        "lng": 110.1402594
      },
      "country": {
        "id": 228,
        "name": "INDONESIA",
        "code": "ID"
      },
      "id": 15038,
      "name": "Alastuwo",
      "postcode": "57762",
      "lat": -7.5394736,
      "lng": 110.9357614
    },
    {
      "suburb": {
        "id": 1468,
        "name": "Kerjo",
        "lat": -7.5407351,
        "lng": 111.0639245
      },
      "city": {
        "id": 88,
        "name": "Karanganyar",
        "lat": -7.6387228,
        "lng": 111.0460407
      },
      "province": {
        "id": 10,
        "name": "Jawa Tengah",
        "lat": -7.150975,
        "lng": 110.1402594
      },
      "country": {
        "id": 228,
        "name": "INDONESIA",
        "code": "ID"
      },
      "id": 15039,
      "name": "Tawangsari",
      "postcode": "57753",
      "lat": -7.5071103,
      "lng": 111.0728664
    },
    {
      "suburb": {
        "id": 1468,
        "name": "Kerjo",
        "lat": -7.5407351,
        "lng": 111.0639245
      },
      "city": {
        "id": 88,
        "name": "Karanganyar",
        "lat": -7.6387228,
        "lng": 111.0460407
      },
      "province": {
        "id": 10,
        "name": "Jawa Tengah",
        "lat": -7.150975,
        "lng": 110.1402594
      },
      "country": {
        "id": 228,
        "name": "INDONESIA",
        "code": "ID"
      },
      "id": 15040,
      "name": "Plosorejo",
      "postcode": "57753",
      "lat": -7.5521534,
      "lng": 111.0907504
    },
    {
      "suburb": {
        "id": 1468,
        "name": "Kerjo",
        "lat": -7.5407351,
        "lng": 111.0639245
      },
      "city": {
        "id": 88,
        "name": "Karanganyar",
        "lat": -7.6387228,
        "lng": 111.0460407
      },
      "province": {
        "id": 10,
        "name": "Jawa Tengah",
        "lat": -7.150975,
        "lng": 110.1402594
      },
      "country": {
        "id": 228,
        "name": "INDONESIA",
        "code": "ID"
      },
      "id": 15041,
      "name": "Sumberejo",
      "postcode": "57753",
      "lat": -7.5203155,
      "lng": 111.0639245
    },
    {
      "suburb": {
        "id": 1468,
        "name": "Kerjo",
        "lat": -7.5407351,
        "lng": 111.0639245
      },
      "city": {
        "id": 88,
        "name": "Karanganyar",
        "lat": -7.6387228,
        "lng": 111.0460407
      },
      "province": {
        "id": 10,
        "name": "Jawa Tengah",
        "lat": -7.150975,
        "lng": 110.1402594
      },
      "country": {
        "id": 228,
        "name": "INDONESIA",
        "code": "ID"
      },
      "id": 15042,
      "name": "Tamansari",
      "postcode": "57753",
      "lat": -7.5703244,
      "lng": 111.0594535
    },
    {
      "suburb": {
        "id": 1468,
        "name": "Kerjo",
        "lat": -7.5407351,
        "lng": 111.0639245
      },
      "city": {
        "id": 88,
        "name": "Karanganyar",
        "lat": -7.6387228,
        "lng": 111.0460407
      },
      "province": {
        "id": 10,
        "name": "Jawa Tengah",
        "lat": -7.150975,
        "lng": 110.1402594
      },
      "country": {
        "id": 228,
        "name": "INDONESIA",
        "code": "ID"
      },
      "id": 15043,
      "name": "Kuto",
      "postcode": "57753",
      "lat": -7.5446317,
      "lng": 111.0370989
    },
    {
      "suburb": {
        "id": 1468,
        "name": "Kerjo",
        "lat": -7.5407351,
        "lng": 111.0639245
      },
      "city": {
        "id": 88,
        "name": "Karanganyar",
        "lat": -7.6387228,
        "lng": 111.0460407
      },
      "province": {
        "id": 10,
        "name": "Jawa Tengah",
        "lat": -7.150975,
        "lng": 110.1402594
      },
      "country": {
        "id": 228,
        "name": "INDONESIA",
        "code": "ID"
      },
      "id": 15044,
      "name": "Kwadungan",
      "postcode": "57753",
      "lat": -7.5399812,
      "lng": 111.0534923
    },
    {
      "suburb": {
        "id": 1468,
        "name": "Kerjo",
        "lat": -7.5407351,
        "lng": 111.0639245
      },
      "city": {
        "id": 88,
        "name": "Karanganyar",
        "lat": -7.6387228,
        "lng": 111.0460407
      },
      "province": {
        "id": 10,
        "name": "Jawa Tengah",
        "lat": -7.150975,
        "lng": 110.1402594
      },
      "country": {
        "id": 228,
        "name": "INDONESIA",
        "code": "ID"
      },
      "id": 15045,
      "name": "Botok",
      "postcode": "57753",
      "lat": -7.5134035,
      "lng": 111.0490213
    },
    {
      "suburb": {
        "id": 1468,
        "name": "Kerjo",
        "lat": -7.5407351,
        "lng": 111.0639245
      },
      "city": {
        "id": 88,
        "name": "Karanganyar",
        "lat": -7.6387228,
        "lng": 111.0460407
      },
      "province": {
        "id": 10,
        "name": "Jawa Tengah",
        "lat": -7.150975,
        "lng": 110.1402594
      },
      "country": {
        "id": 228,
        "name": "INDONESIA",
        "code": "ID"
      },
      "id": 15046,
      "name": "Ganten",
      "postcode": "57753",
      "lat": -7.5686726,
      "lng": 111.0669051
    },
    {
      "suburb": {
        "id": 1468,
        "name": "Kerjo",
        "lat": -7.5407351,
        "lng": 111.0639245
      },
      "city": {
        "id": 88,
        "name": "Karanganyar",
        "lat": -7.6387228,
        "lng": 111.0460407
      },
      "province": {
        "id": 10,
        "name": "Jawa Tengah",
        "lat": -7.150975,
        "lng": 110.1402594
      },
      "country": {
        "id": 228,
        "name": "INDONESIA",
        "code": "ID"
      },
      "id": 15047,
      "name": "Gempolan",
      "postcode": "57753",
      "lat": -7.5677728,
      "lng": 111.0847891
    },
    {
      "suburb": {
        "id": 1469,
        "name": "Mojogedang",
        "lat": -7.5497197,
        "lng": 110.9864294
      },
      "city": {
        "id": 88,
        "name": "Karanganyar",
        "lat": -7.6387228,
        "lng": 111.0460407
      },
      "province": {
        "id": 10,
        "name": "Jawa Tengah",
        "lat": -7.150975,
        "lng": 110.1402594
      },
      "country": {
        "id": 228,
        "name": "INDONESIA",
        "code": "ID"
      },
      "id": 15048,
      "name": "Pojok",
      "postcode": "57752",
      "lat": -7.5665572,
      "lng": 111.0072931
    },
    {
      "suburb": {
        "id": 1469,
        "name": "Mojogedang",
        "lat": -7.5497197,
        "lng": 110.9864294
      },
      "city": {
        "id": 88,
        "name": "Karanganyar",
        "lat": -7.6387228,
        "lng": 111.0460407
      },
      "province": {
        "id": 10,
        "name": "Jawa Tengah",
        "lat": -7.150975,
        "lng": 110.1402594
      },
      "country": {
        "id": 228,
        "name": "INDONESIA",
        "code": "ID"
      },
      "id": 15049,
      "name": "Sewurejo",
      "postcode": "57752",
      "lat": -7.5863986,
      "lng": 111.0192154
    },
    {
      "suburb": {
        "id": 1469,
        "name": "Mojogedang",
        "lat": -7.5497197,
        "lng": 110.9864294
      },
      "city": {
        "id": 88,
        "name": "Karanganyar",
        "lat": -7.6387228,
        "lng": 111.0460407
      },
      "province": {
        "id": 10,
        "name": "Jawa Tengah",
        "lat": -7.150975,
        "lng": 110.1402594
      },
      "country": {
        "id": 228,
        "name": "INDONESIA",
        "code": "ID"
      },
      "id": 15050,
      "name": "Ngadirejo",
      "postcode": "57752",
      "lat": -7.5749801,
      "lng": 111.0430601
    },
    {
      "suburb": {
        "id": 1469,
        "name": "Mojogedang",
        "lat": -7.5497197,
        "lng": 110.9864294
      },
      "city": {
        "id": 88,
        "name": "Karanganyar",
        "lat": -7.6387228,
        "lng": 111.0460407
      },
      "province": {
        "id": 10,
        "name": "Jawa Tengah",
        "lat": -7.150975,
        "lng": 110.1402594
      },
      "country": {
        "id": 228,
        "name": "INDONESIA",
        "code": "ID"
      },
      "id": 15051,
      "name": "Pendem",
      "postcode": "57752",
      "lat": -7.5554436,
      "lng": 111.0251765
    },
    {
      "suburb": {
        "id": 1469,
        "name": "Mojogedang",
        "lat": -7.5497197,
        "lng": 110.9864294
      },
      "city": {
        "id": 88,
        "name": "Karanganyar",
        "lat": -7.6387228,
        "lng": 111.0460407
      },
      "province": {
        "id": 10,
        "name": "Jawa Tengah",
        "lat": -7.150975,
        "lng": 110.1402594
      },
      "country": {
        "id": 228,
        "name": "INDONESIA",
        "code": "ID"
      },
      "id": 15052,
      "name": "Pereng",
      "postcode": "57752",
      "lat": -7.5356104,
      "lng": 111.0132542
    },
    {
      "suburb": {
        "id": 1469,
        "name": "Mojogedang",
        "lat": -7.5497197,
        "lng": 110.9864294
      },
      "city": {
        "id": 88,
        "name": "Karanganyar",
        "lat": -7.6387228,
        "lng": 111.0460407
      },
      "province": {
        "id": 10,
        "name": "Jawa Tengah",
        "lat": -7.150975,
        "lng": 110.1402594
      },
      "country": {
        "id": 228,
        "name": "INDONESIA",
        "code": "ID"
      },
      "id": 15053,
      "name": "Mojogedang",
      "postcode": "57752",
      "lat": -7.5704701,
      "lng": 111.0311377
    },
    {
      "suburb": {
        "id": 1469,
        "name": "Mojogedang",
        "lat": -7.5497197,
        "lng": 110.9864294
      },
      "city": {
        "id": 88,
        "name": "Karanganyar",
        "lat": -7.6387228,
        "lng": 111.0460407
      },
      "province": {
        "id": 10,
        "name": "Jawa Tengah",
        "lat": -7.150975,
        "lng": 110.1402594
      },
      "country": {
        "id": 228,
        "name": "INDONESIA",
        "code": "ID"
      },
      "id": 15054,
      "name": "Mojoroto",
      "postcode": "57752",
      "lat": -7.5569358,
      "lng": 110.995371
    },
    {
      "suburb": {
        "id": 1469,
        "name": "Mojogedang",
        "lat": -7.5497197,
        "lng": 110.9864294
      },
      "city": {
        "id": 88,
        "name": "Karanganyar",
        "lat": -7.6387228,
        "lng": 111.0460407
      },
      "province": {
        "id": 10,
        "name": "Jawa Tengah",
        "lat": -7.150975,
        "lng": 110.1402594
      },
      "country": {
        "id": 228,
        "name": "INDONESIA",
        "code": "ID"
      },
      "id": 15055,
      "name": "Kedungjeruk",
      "postcode": "57752",
      "lat": -7.5226661,
      "lng": 110.9655659
    },
    {
      "suburb": {
        "id": 1469,
        "name": "Mojogedang",
        "lat": -7.5497197,
        "lng": 110.9864294
      },
      "city": {
        "id": 88,
        "name": "Karanganyar",
        "lat": -7.6387228,
        "lng": 111.0460407
      },
      "province": {
        "id": 10,
        "name": "Jawa Tengah",
        "lat": -7.150975,
        "lng": 110.1402594
      },
      "country": {
        "id": 228,
        "name": "INDONESIA",
        "code": "ID"
      },
      "id": 15056,
      "name": "Kaliboto",
      "postcode": "57752",
      "lat": -7.5530186,
      "lng": 110.9715269
    },
    {
      "suburb": {
        "id": 1469,
        "name": "Mojogedang",
        "lat": -7.5497197,
        "lng": 110.9864294
      },
      "city": {
        "id": 88,
        "name": "Karanganyar",
        "lat": -7.6387228,
        "lng": 111.0460407
      },
      "province": {
        "id": 10,
        "name": "Jawa Tengah",
        "lat": -7.150975,
        "lng": 110.1402594
      },
      "country": {
        "id": 228,
        "name": "INDONESIA",
        "code": "ID"
      },
      "id": 15057,
      "name": "Gebyok",
      "postcode": "57752",
      "lat": -7.5419083,
      "lng": 110.9894099
    },
    {
      "suburb": {
        "id": 1469,
        "name": "Mojogedang",
        "lat": -7.5497197,
        "lng": 110.9864294
      },
      "city": {
        "id": 88,
        "name": "Karanganyar",
        "lat": -7.6387228,
        "lng": 111.0460407
      },
      "province": {
        "id": 10,
        "name": "Jawa Tengah",
        "lat": -7.150975,
        "lng": 110.1402594
      },
      "country": {
        "id": 228,
        "name": "INDONESIA",
        "code": "ID"
      },
      "id": 15058,
      "name": "Gentungan",
      "postcode": "57752",
      "lat": -7.5461228,
      "lng": 111.0072931
    },
    {
      "suburb": {
        "id": 1470,
        "name": "Jaten",
        "lat": -7.559883,
        "lng": 110.8850949
      },
      "city": {
        "id": 88,
        "name": "Karanganyar",
        "lat": -7.6387228,
        "lng": 111.0460407
      },
      "province": {
        "id": 10,
        "name": "Jawa Tengah",
        "lat": -7.150975,
        "lng": 110.1402594
      },
      "country": {
        "id": 228,
        "name": "INDONESIA",
        "code": "ID"
      },
      "id": 15059,
      "name": "Suruhkalang",
      "postcode": "57731",
      "lat": -7.607125,
      "lng": 110.9119181
    },
    {
      "suburb": {
        "id": 1469,
        "name": "Mojogedang",
        "lat": -7.5497197,
        "lng": 110.9864294
      },
      "city": {
        "id": 88,
        "name": "Karanganyar",
        "lat": -7.6387228,
        "lng": 111.0460407
      },
      "province": {
        "id": 10,
        "name": "Jawa Tengah",
        "lat": -7.150975,
        "lng": 110.1402594
      },
      "country": {
        "id": 228,
        "name": "INDONESIA",
        "code": "ID"
      },
      "id": 15060,
      "name": "Buntar",
      "postcode": "57752",
      "lat": -7.5382864,
      "lng": 110.959605
    },
    {
      "suburb": {
        "id": 1470,
        "name": "Jaten",
        "lat": -7.559883,
        "lng": 110.8850949
      },
      "city": {
        "id": 88,
        "name": "Karanganyar",
        "lat": -7.6387228,
        "lng": 111.0460407
      },
      "province": {
        "id": 10,
        "name": "Jawa Tengah",
        "lat": -7.150975,
        "lng": 110.1402594
      },
      "country": {
        "id": 228,
        "name": "INDONESIA",
        "code": "ID"
      },
      "id": 15061,
      "name": "Jetis",
      "postcode": "57731",
      "lat": -7.556882,
      "lng": 110.894036
    },
    {
      "suburb": {
        "id": 1470,
        "name": "Jaten",
        "lat": -7.559883,
        "lng": 110.8850949
      },
      "city": {
        "id": 88,
        "name": "Karanganyar",
        "lat": -7.6387228,
        "lng": 111.0460407
      },
      "province": {
        "id": 10,
        "name": "Jawa Tengah",
        "lat": -7.150975,
        "lng": 110.1402594
      },
      "country": {
        "id": 228,
        "name": "INDONESIA",
        "code": "ID"
      },
      "id": 15062,
      "name": "Ngringo",
      "postcode": "57731",
      "lat": -7.5577715,
      "lng": 110.876154
    },
    {
      "suburb": {
        "id": 1470,
        "name": "Jaten",
        "lat": -7.559883,
        "lng": 110.8850949
      },
      "city": {
        "id": 88,
        "name": "Karanganyar",
        "lat": -7.6387228,
        "lng": 111.0460407
      },
      "province": {
        "id": 10,
        "name": "Jawa Tengah",
        "lat": -7.150975,
        "lng": 110.1402594
      },
      "country": {
        "id": 228,
        "name": "INDONESIA",
        "code": "ID"
      },
      "id": 15063,
      "name": "Sroyo",
      "postcode": "57731",
      "lat": -7.5394366,
      "lng": 110.8850949
    },
    {
      "suburb": {
        "id": 1470,
        "name": "Jaten",
        "lat": -7.559883,
        "lng": 110.8850949
      },
      "city": {
        "id": 88,
        "name": "Karanganyar",
        "lat": -7.6387228,
        "lng": 111.0460407
      },
      "province": {
        "id": 10,
        "name": "Jawa Tengah",
        "lat": -7.150975,
        "lng": 110.1402594
      },
      "country": {
        "id": 228,
        "name": "INDONESIA",
        "code": "ID"
      },
      "id": 15064,
      "name": "Jaten",
      "postcode": "57731",
      "lat": -7.5719222,
      "lng": 110.8999967
    },
    {
      "suburb": {
        "id": 1470,
        "name": "Jaten",
        "lat": -7.559883,
        "lng": 110.8850949
      },
      "city": {
        "id": 88,
        "name": "Karanganyar",
        "lat": -7.6387228,
        "lng": 111.0460407
      },
      "province": {
        "id": 10,
        "name": "Jawa Tengah",
        "lat": -7.150975,
        "lng": 110.1402594
      },
      "country": {
        "id": 228,
        "name": "INDONESIA",
        "code": "ID"
      },
      "id": 15065,
      "name": "Jati",
      "postcode": "57731",
      "lat": -7.596298,
      "lng": 110.9238397
    },
    {
      "suburb": {
        "id": 1470,
        "name": "Jaten",
        "lat": -7.559883,
        "lng": 110.8850949
      },
      "city": {
        "id": 88,
        "name": "Karanganyar",
        "lat": -7.6387228,
        "lng": 111.0460407
      },
      "province": {
        "id": 10,
        "name": "Jawa Tengah",
        "lat": -7.150975,
        "lng": 110.1402594
      },
      "country": {
        "id": 228,
        "name": "INDONESIA",
        "code": "ID"
      },
      "id": 15066,
      "name": "Dagen",
      "postcode": "57731",
      "lat": -7.5677005,
      "lng": 110.8821146
    },
    {
      "suburb": {
        "id": 1459,
        "name": "Ngargoyoso",
        "lat": -7.6050323,
        "lng": 111.1056539
      },
      "city": {
        "id": 88,
        "name": "Karanganyar",
        "lat": -7.6387228,
        "lng": 111.0460407
      },
      "province": {
        "id": 10,
        "name": "Jawa Tengah",
        "lat": -7.150975,
        "lng": 110.1402594
      },
      "country": {
        "id": 228,
        "name": "INDONESIA",
        "code": "ID"
      },
      "id": 15067,
      "name": "Dukuh",
      "postcode": "57731",
      "lat": -7.5885057,
      "lng": 111.0788277
    },
    {
      "suburb": {
        "id": 1471,
        "name": "Tasikmadu",
        "lat": -7.5725438,
        "lng": 110.9387418
      },
      "city": {
        "id": 88,
        "name": "Karanganyar",
        "lat": -7.6387228,
        "lng": 111.0460407
      },
      "province": {
        "id": 10,
        "name": "Jawa Tengah",
        "lat": -7.150975,
        "lng": 110.1402594
      },
      "country": {
        "id": 228,
        "name": "INDONESIA",
        "code": "ID"
      },
      "id": 15068,
      "name": "Wonolopo",
      "postcode": "57722",
      "lat": -7.5584134,
      "lng": 110.940232
    },
    {
      "suburb": {
        "id": 1470,
        "name": "Jaten",
        "lat": -7.559883,
        "lng": 110.8850949
      },
      "city": {
        "id": 88,
        "name": "Karanganyar",
        "lat": -7.6387228,
        "lng": 111.0460407
      },
      "province": {
        "id": 10,
        "name": "Jawa Tengah",
        "lat": -7.150975,
        "lng": 110.1402594
      },
      "country": {
        "id": 228,
        "name": "INDONESIA",
        "code": "ID"
      },
      "id": 15069,
      "name": "Brujul",
      "postcode": "57731",
      "lat": -7.5460663,
      "lng": 110.9059574
    },
    {
      "suburb": {
        "id": 1471,
        "name": "Tasikmadu",
        "lat": -7.5725438,
        "lng": 110.9387418
      },
      "city": {
        "id": 88,
        "name": "Karanganyar",
        "lat": -7.6387228,
        "lng": 111.0460407
      },
      "province": {
        "id": 10,
        "name": "Jawa Tengah",
        "lat": -7.150975,
        "lng": 110.1402594
      },
      "country": {
        "id": 228,
        "name": "INDONESIA",
        "code": "ID"
      },
      "id": 15070,
      "name": "Suruh",
      "postcode": "57722",
      "lat": -7.5746526,
      "lng": 110.9476831
    },
    {
      "suburb": {
        "id": 1471,
        "name": "Tasikmadu",
        "lat": -7.5725438,
        "lng": 110.9387418
      },
      "city": {
        "id": 88,
        "name": "Karanganyar",
        "lat": -7.6387228,
        "lng": 111.0460407
      },
      "province": {
        "id": 10,
        "name": "Jawa Tengah",
        "lat": -7.150975,
        "lng": 110.1402594
      },
      "country": {
        "id": 228,
        "name": "INDONESIA",
        "code": "ID"
      },
      "id": 15071,
      "name": "Papahan",
      "postcode": "57722",
      "lat": -7.5857723,
      "lng": 110.9298005
    },
    {
      "suburb": {
        "id": 1471,
        "name": "Tasikmadu",
        "lat": -7.5725438,
        "lng": 110.9387418
      },
      "city": {
        "id": 88,
        "name": "Karanganyar",
        "lat": -7.6387228,
        "lng": 111.0460407
      },
      "province": {
        "id": 10,
        "name": "Jawa Tengah",
        "lat": -7.150975,
        "lng": 110.1402594
      },
      "country": {
        "id": 228,
        "name": "INDONESIA",
        "code": "ID"
      },
      "id": 15072,
      "name": "Kaling",
      "postcode": "57722",
      "lat": -7.550287,
      "lng": 110.9238397
    },
    {
      "suburb": {
        "id": 1471,
        "name": "Tasikmadu",
        "lat": -7.5725438,
        "lng": 110.9387418
      },
      "city": {
        "id": 88,
        "name": "Karanganyar",
        "lat": -7.6387228,
        "lng": 111.0460407
      },
      "province": {
        "id": 10,
        "name": "Jawa Tengah",
        "lat": -7.150975,
        "lng": 110.1402594
      },
      "country": {
        "id": 228,
        "name": "INDONESIA",
        "code": "ID"
      },
      "id": 15073,
      "name": "Karangmojo",
      "postcode": "57722",
      "lat": -7.5611032,
      "lng": 110.9119181
    },
    {
      "suburb": {
        "id": 1471,
        "name": "Tasikmadu",
        "lat": -7.5725438,
        "lng": 110.9387418
      },
      "city": {
        "id": 88,
        "name": "Karanganyar",
        "lat": -7.6387228,
        "lng": 111.0460407
      },
      "province": {
        "id": 10,
        "name": "Jawa Tengah",
        "lat": -7.150975,
        "lng": 110.1402594
      },
      "country": {
        "id": 228,
        "name": "INDONESIA",
        "code": "ID"
      },
      "id": 15074,
      "name": "Pandeyan",
      "postcode": "57722",
      "lat": -7.5653229,
      "lng": 110.9298005
    },
    {
      "suburb": {
        "id": 1471,
        "name": "Tasikmadu",
        "lat": -7.5725438,
        "lng": 110.9387418
      },
      "city": {
        "id": 88,
        "name": "Karanganyar",
        "lat": -7.6387228,
        "lng": 111.0460407
      },
      "province": {
        "id": 10,
        "name": "Jawa Tengah",
        "lat": -7.150975,
        "lng": 110.1402594
      },
      "country": {
        "id": 228,
        "name": "INDONESIA",
        "code": "ID"
      },
      "id": 15075,
      "name": "Buran",
      "postcode": "57722",
      "lat": -7.5723824,
      "lng": 110.9163887
    },
    {
      "suburb": {
        "id": 1471,
        "name": "Tasikmadu",
        "lat": -7.5725438,
        "lng": 110.9387418
      },
      "city": {
        "id": 88,
        "name": "Karanganyar",
        "lat": -7.6387228,
        "lng": 111.0460407
      },
      "province": {
        "id": 10,
        "name": "Jawa Tengah",
        "lat": -7.150975,
        "lng": 110.1402594
      },
      "country": {
        "id": 228,
        "name": "INDONESIA",
        "code": "ID"
      },
      "id": 15076,
      "name": "Gaum",
      "postcode": "57722",
      "lat": -7.5842796,
      "lng": 110.959605
    },
    {
      "suburb": {
        "id": 1471,
        "name": "Tasikmadu",
        "lat": -7.5725438,
        "lng": 110.9387418
      },
      "city": {
        "id": 88,
        "name": "Karanganyar",
        "lat": -7.6387228,
        "lng": 111.0460407
      },
      "province": {
        "id": 10,
        "name": "Jawa Tengah",
        "lat": -7.150975,
        "lng": 110.1402594
      },
      "country": {
        "id": 228,
        "name": "INDONESIA",
        "code": "ID"
      },
      "id": 15077,
      "name": "Kalijirak",
      "postcode": "57722",
      "lat": -7.5638342,
      "lng": 110.959605
    },
    {
      "suburb": {
        "id": 1471,
        "name": "Tasikmadu",
        "lat": -7.5725438,
        "lng": 110.9387418
      },
      "city": {
        "id": 88,
        "name": "Karanganyar",
        "lat": -7.6387228,
        "lng": 111.0460407
      },
      "province": {
        "id": 10,
        "name": "Jawa Tengah",
        "lat": -7.150975,
        "lng": 110.1402594
      },
      "country": {
        "id": 228,
        "name": "INDONESIA",
        "code": "ID"
      },
      "id": 15078,
      "name": "Ngijo",
      "postcode": "57721",
      "lat": -7.5791576,
      "lng": 110.9342712
    },
    {
      "suburb": {
        "id": 1469,
        "name": "Mojogedang",
        "lat": -7.5497197,
        "lng": 110.9864294
      },
      "city": {
        "id": 88,
        "name": "Karanganyar",
        "lat": -7.6387228,
        "lng": 111.0460407
      },
      "province": {
        "id": 10,
        "name": "Jawa Tengah",
        "lat": -7.150975,
        "lng": 110.1402594
      },
      "country": {
        "id": 228,
        "name": "INDONESIA",
        "code": "ID"
      },
      "id": 15079,
      "name": "Munggur",
      "postcode": "57716",
      "lat": -7.5265862,
      "lng": 110.9894099
    },
    {
      "suburb": {
        "id": 1472,
        "name": "Karanganyar",
        "lat": -7.6062393,
        "lng": 110.9804684
      },
      "city": {
        "id": 88,
        "name": "Karanganyar",
        "lat": -7.6387228,
        "lng": 111.0460407
      },
      "province": {
        "id": 10,
        "name": "Jawa Tengah",
        "lat": -7.150975,
        "lng": 110.1402594
      },
      "country": {
        "id": 228,
        "name": "INDONESIA",
        "code": "ID"
      },
      "id": 15080,
      "name": "Lalung",
      "postcode": "57716",
      "lat": -7.611343,
      "lng": 110.9298005
    },
    {
      "suburb": {
        "id": 1464,
        "name": "Jumapolo",
        "lat": -7.7146179,
        "lng": 110.9625854
      },
      "city": {
        "id": 88,
        "name": "Karanganyar",
        "lat": -7.6387228,
        "lng": 111.0460407
      },
      "province": {
        "id": 10,
        "name": "Jawa Tengah",
        "lat": -7.150975,
        "lng": 110.1402594
      },
      "country": {
        "id": 228,
        "name": "INDONESIA",
        "code": "ID"
      },
      "id": 15081,
      "name": "Kadipiro",
      "postcode": "57716",
      "lat": -7.7175783,
      "lng": 111.0549826
    },
    {
      "suburb": {
        "id": 1472,
        "name": "Karanganyar",
        "lat": -7.6062393,
        "lng": 110.9804684
      },
      "city": {
        "id": 88,
        "name": "Karanganyar",
        "lat": -7.6387228,
        "lng": 111.0460407
      },
      "province": {
        "id": 10,
        "name": "Jawa Tengah",
        "lat": -7.150975,
        "lng": 110.1402594
      },
      "country": {
        "id": 228,
        "name": "INDONESIA",
        "code": "ID"
      },
      "id": 15082,
      "name": "Gedong",
      "postcode": "57716",
      "lat": -7.5779729,
      "lng": 110.9834489
    },
    {
      "suburb": {
        "id": 1472,
        "name": "Karanganyar",
        "lat": -7.6062393,
        "lng": 110.9804684
      },
      "city": {
        "id": 88,
        "name": "Karanganyar",
        "lat": -7.6387228,
        "lng": 111.0460407
      },
      "province": {
        "id": 10,
        "name": "Jawa Tengah",
        "lat": -7.150975,
        "lng": 110.1402594
      },
      "country": {
        "id": 228,
        "name": "INDONESIA",
        "code": "ID"
      },
      "id": 15083,
      "name": "Jantiharjo",
      "postcode": "57716",
      "lat": -7.6206778,
      "lng": 110.9730171
    },
    {
      "suburb": {
        "id": 1472,
        "name": "Karanganyar",
        "lat": -7.6062393,
        "lng": 110.9804684
      },
      "city": {
        "id": 88,
        "name": "Karanganyar",
        "lat": -7.6387228,
        "lng": 111.0460407
      },
      "province": {
        "id": 10,
        "name": "Jawa Tengah",
        "lat": -7.150975,
        "lng": 110.1402594
      },
      "country": {
        "id": 228,
        "name": "INDONESIA",
        "code": "ID"
      },
      "id": 15084,
      "name": "Bolong",
      "postcode": "57716",
      "lat": -7.6235355,
      "lng": 110.9670561
    },
    {
      "suburb": {
        "id": 1472,
        "name": "Karanganyar",
        "lat": -7.6062393,
        "lng": 110.9804684
      },
      "city": {
        "id": 88,
        "name": "Karanganyar",
        "lat": -7.6387228,
        "lng": 111.0460407
      },
      "province": {
        "id": 10,
        "name": "Jawa Tengah",
        "lat": -7.150975,
        "lng": 110.1402594
      },
      "country": {
        "id": 228,
        "name": "INDONESIA",
        "code": "ID"
      },
      "id": 15085,
      "name": "Delingan",
      "postcode": "57716",
      "lat": -7.5972207,
      "lng": 111.0072931
    },
    {
      "suburb": {
        "id": 1472,
        "name": "Karanganyar",
        "lat": -7.6062393,
        "lng": 110.9804684
      },
      "city": {
        "id": 88,
        "name": "Karanganyar",
        "lat": -7.6387228,
        "lng": 111.0460407
      },
      "province": {
        "id": 10,
        "name": "Jawa Tengah",
        "lat": -7.150975,
        "lng": 110.1402594
      },
      "country": {
        "id": 228,
        "name": "INDONESIA",
        "code": "ID"
      },
      "id": 15086,
      "name": "Gayamdompo",
      "postcode": "57716",
      "lat": -7.6176711,
      "lng": 111.0072931
    },
    {
      "suburb": {
        "id": 1472,
        "name": "Karanganyar",
        "lat": -7.6062393,
        "lng": 110.9804684
      },
      "city": {
        "id": 88,
        "name": "Karanganyar",
        "lat": -7.6387228,
        "lng": 111.0460407
      },
      "province": {
        "id": 10,
        "name": "Jawa Tengah",
        "lat": -7.150975,
        "lng": 110.1402594
      },
      "country": {
        "id": 228,
        "name": "INDONESIA",
        "code": "ID"
      },
      "id": 15087,
      "name": "Popongan",
      "postcode": "57715",
      "lat": -7.6086459,
      "lng": 110.9834489
    },
    {
      "suburb": {
        "id": 1472,
        "name": "Karanganyar",
        "lat": -7.6062393,
        "lng": 110.9804684
      },
      "city": {
        "id": 88,
        "name": "Karanganyar",
        "lat": -7.6387228,
        "lng": 111.0460407
      },
      "province": {
        "id": 10,
        "name": "Jawa Tengah",
        "lat": -7.150975,
        "lng": 110.1402594
      },
      "country": {
        "id": 228,
        "name": "INDONESIA",
        "code": "ID"
      },
      "id": 15088,
      "name": "Bejen",
      "postcode": "57716",
      "lat": -7.5942056,
      "lng": 110.9655659
    },
    {
      "suburb": {
        "id": 1472,
        "name": "Karanganyar",
        "lat": -7.6062393,
        "lng": 110.9804684
      },
      "city": {
        "id": 88,
        "name": "Karanganyar",
        "lat": -7.6387228,
        "lng": 111.0460407
      },
      "province": {
        "id": 10,
        "name": "Jawa Tengah",
        "lat": -7.150975,
        "lng": 110.1402594
      },
      "country": {
        "id": 228,
        "name": "INDONESIA",
        "code": "ID"
      },
      "id": 15089,
      "name": "Tegalgede",
      "postcode": "57714",
      "lat": -7.6095457,
      "lng": 110.9655659
    },
    {
      "suburb": {
        "id": 1461,
        "name": "Karangpandan",
        "lat": -7.6122543,
        "lng": 111.0639245
      },
      "city": {
        "id": 88,
        "name": "Karanganyar",
        "lat": -7.6387228,
        "lng": 111.0460407
      },
      "province": {
        "id": 10,
        "name": "Jawa Tengah",
        "lat": -7.150975,
        "lng": 110.1402594
      },
      "country": {
        "id": 228,
        "name": "INDONESIA",
        "code": "ID"
      },
      "id": 15090,
      "name": "Harjosari",
      "postcode": "57715",
      "lat": -7.608945,
      "lng": 111.0788277
    },
    {
      "suburb": {
        "id": 1472,
        "name": "Karanganyar",
        "lat": -7.6062393,
        "lng": 110.9804684
      },
      "city": {
        "id": 88,
        "name": "Karanganyar",
        "lat": -7.6387228,
        "lng": 111.0460407
      },
      "province": {
        "id": 10,
        "name": "Jawa Tengah",
        "lat": -7.150975,
        "lng": 110.1402594
      },
      "country": {
        "id": 228,
        "name": "INDONESIA",
        "code": "ID"
      },
      "id": 15091,
      "name": "Jungke",
      "postcode": "57713",
      "lat": -7.6018688,
      "lng": 110.940232
    },
    {
      "suburb": {
        "id": 1472,
        "name": "Karanganyar",
        "lat": -7.6062393,
        "lng": 110.9804684
      },
      "city": {
        "id": 88,
        "name": "Karanganyar",
        "lat": -7.6387228,
        "lng": 111.0460407
      },
      "province": {
        "id": 10,
        "name": "Jawa Tengah",
        "lat": -7.150975,
        "lng": 110.1402594
      },
      "country": {
        "id": 228,
        "name": "INDONESIA",
        "code": "ID"
      },
      "id": 15092,
      "name": "Cangakan",
      "postcode": "57712",
      "lat": -7.5943475,
      "lng": 110.9372516
    },
    {
      "suburb": {
        "id": 1468,
        "name": "Kerjo",
        "lat": -7.5407351,
        "lng": 111.0639245
      },
      "city": {
        "id": 88,
        "name": "Karanganyar",
        "lat": -7.6387228,
        "lng": 111.0460407
      },
      "province": {
        "id": 10,
        "name": "Jawa Tengah",
        "lat": -7.150975,
        "lng": 110.1402594
      },
      "country": {
        "id": 228,
        "name": "INDONESIA",
        "code": "ID"
      },
      "id": 15093,
      "name": "Karangrejo",
      "postcode": "57711",
      "lat": -7.5377343,
      "lng": 111.0728664
    },
    {
      "suburb": {
        "id": 1472,
        "name": "Karanganyar",
        "lat": -7.6062393,
        "lng": 110.9804684
      },
      "city": {
        "id": 88,
        "name": "Karanganyar",
        "lat": -7.6387228,
        "lng": 111.0460407
      },
      "province": {
        "id": 10,
        "name": "Jawa Tengah",
        "lat": -7.150975,
        "lng": 110.1402594
      },
      "country": {
        "id": 228,
        "name": "INDONESIA",
        "code": "ID"
      },
      "id": 15094,
      "name": "Karanganyar",
      "postcode": "57711",
      "lat": -7.6070727,
      "lng": 110.9866942
    },
    {
      "suburb": {
        "id": 1473,
        "name": "Puhpelem",
        "lat": -7.7600794,
        "lng": 111.2725789
      },
      "city": {
        "id": 89,
        "name": "Wonogiri",
        "lat": -7.8846484,
        "lng": 111.0460407
      },
      "province": {
        "id": 10,
        "name": "Jawa Tengah",
        "lat": -7.150975,
        "lng": 110.1402594
      },
      "country": {
        "id": 228,
        "name": "INDONESIA",
        "code": "ID"
      },
      "id": 15095,
      "name": "Tengger",
      "postcode": "57698",
      "lat": -7.7634141,
      "lng": 111.2576745
    },
    {
      "suburb": {
        "id": 1473,
        "name": "Puhpelem",
        "lat": -7.7600794,
        "lng": 111.2725789
      },
      "city": {
        "id": 89,
        "name": "Wonogiri",
        "lat": -7.8846484,
        "lng": 111.0460407
      },
      "province": {
        "id": 10,
        "name": "Jawa Tengah",
        "lat": -7.150975,
        "lng": 110.1402594
      },
      "country": {
        "id": 228,
        "name": "INDONESIA",
        "code": "ID"
      },
      "id": 15096,
      "name": "Nguneng",
      "postcode": "57698",
      "lat": -7.7648855,
      "lng": 111.2785407
    },
    {
      "suburb": {
        "id": 1473,
        "name": "Puhpelem",
        "lat": -7.7600794,
        "lng": 111.2725789
      },
      "city": {
        "id": 89,
        "name": "Wonogiri",
        "lat": -7.8846484,
        "lng": 111.0460407
      },
      "province": {
        "id": 10,
        "name": "Jawa Tengah",
        "lat": -7.150975,
        "lng": 110.1402594
      },
      "country": {
        "id": 228,
        "name": "INDONESIA",
        "code": "ID"
      },
      "id": 15097,
      "name": "Puhpelem",
      "postcode": "57698",
      "lat": -7.8031172,
      "lng": 111.2815216
    },
    {
      "suburb": {
        "id": 1473,
        "name": "Puhpelem",
        "lat": -7.7600794,
        "lng": 111.2725789
      },
      "city": {
        "id": 89,
        "name": "Wonogiri",
        "lat": -7.8846484,
        "lng": 111.0460407
      },
      "province": {
        "id": 10,
        "name": "Jawa Tengah",
        "lat": -7.150975,
        "lng": 110.1402594
      },
      "country": {
        "id": 228,
        "name": "INDONESIA",
        "code": "ID"
      },
      "id": 15098,
      "name": "Sukorejo",
      "postcode": "57698",
      "lat": -7.7471338,
      "lng": 111.2755598
    },
    {
      "suburb": {
        "id": 1473,
        "name": "Puhpelem",
        "lat": -7.7600794,
        "lng": 111.2725789
      },
      "city": {
        "id": 89,
        "name": "Wonogiri",
        "lat": -7.8846484,
        "lng": 111.0460407
      },
      "province": {
        "id": 10,
        "name": "Jawa Tengah",
        "lat": -7.150975,
        "lng": 110.1402594
      },
      "country": {
        "id": 228,
        "name": "INDONESIA",
        "code": "ID"
      },
      "id": 15099,
      "name": "Giriharjo",
      "postcode": "57698",
      "lat": -7.788383,
      "lng": 111.2695981
    },
    {
      "suburb": {
        "id": 1473,
        "name": "Puhpelem",
        "lat": -7.7600794,
        "lng": 111.2725789
      },
      "city": {
        "id": 89,
        "name": "Wonogiri",
        "lat": -7.8846484,
        "lng": 111.0460407
      },
      "province": {
        "id": 10,
        "name": "Jawa Tengah",
        "lat": -7.150975,
        "lng": 110.1402594
      },
      "country": {
        "id": 228,
        "name": "INDONESIA",
        "code": "ID"
      },
      "id": 15100,
      "name": "Golo",
      "postcode": "57698",
      "lat": -7.7565135,
      "lng": 111.2427701
    },
    {
      "suburb": {
        "id": 1474,
        "name": "Bulukerto",
        "lat": -7.7830373,
        "lng": 111.224885
      },
      "city": {
        "id": 89,
        "name": "Wonogiri",
        "lat": -7.8846484,
        "lng": 111.0460407
      },
      "province": {
        "id": 10,
        "name": "Jawa Tengah",
        "lat": -7.150975,
        "lng": 110.1402594
      },
      "country": {
        "id": 228,
        "name": "INDONESIA",
        "code": "ID"
      },
      "id": 15101,
      "name": "Ngaglik",
      "postcode": "57697",
      "lat": -7.8001807,
      "lng": 111.2397893
    },
    {
      "suburb": {
        "id": 1474,
        "name": "Bulukerto",
        "lat": -7.7830373,
        "lng": 111.224885
      },
      "city": {
        "id": 89,
        "name": "Wonogiri",
        "lat": -7.8846484,
        "lng": 111.0460407
      },
      "province": {
        "id": 10,
        "name": "Jawa Tengah",
        "lat": -7.150975,
        "lng": 110.1402594
      },
      "country": {
        "id": 228,
        "name": "INDONESIA",
        "code": "ID"
      },
      "id": 15102,
      "name": "Sugihan",
      "postcode": "57697",
      "lat": -7.7815639,
      "lng": 111.2040191
    },
    {
      "suburb": {
        "id": 1474,
        "name": "Bulukerto",
        "lat": -7.7830373,
        "lng": 111.224885
      },
      "city": {
        "id": 89,
        "name": "Wonogiri",
        "lat": -7.8846484,
        "lng": 111.0460407
      },
      "province": {
        "id": 10,
        "name": "Jawa Tengah",
        "lat": -7.150975,
        "lng": 110.1402594
      },
      "country": {
        "id": 228,
        "name": "INDONESIA",
        "code": "ID"
      },
      "id": 15103,
      "name": "Tanjung",
      "postcode": "57697",
      "lat": -7.771014,
      "lng": 111.2099808
    },
    {
      "suburb": {
        "id": 1474,
        "name": "Bulukerto",
        "lat": -7.7830373,
        "lng": 111.224885
      },
      "city": {
        "id": 89,
        "name": "Wonogiri",
        "lat": -7.8846484,
        "lng": 111.0460407
      },
      "province": {
        "id": 10,
        "name": "Jawa Tengah",
        "lat": -7.150975,
        "lng": 110.1402594
      },
      "country": {
        "id": 228,
        "name": "INDONESIA",
        "code": "ID"
      },
      "id": 15104,
      "name": "Geneng",
      "postcode": "57697",
      "lat": -7.745422,
      "lng": 111.2099808
    },
    {
      "suburb": {
        "id": 1474,
        "name": "Bulukerto",
        "lat": -7.7830373,
        "lng": 111.224885
      },
      "city": {
        "id": 89,
        "name": "Wonogiri",
        "lat": -7.8846484,
        "lng": 111.0460407
      },
      "province": {
        "id": 10,
        "name": "Jawa Tengah",
        "lat": -7.150975,
        "lng": 110.1402594
      },
      "country": {
        "id": 228,
        "name": "INDONESIA",
        "code": "ID"
      },
      "id": 15105,
      "name": "Krandegan",
      "postcode": "57697",
      "lat": -7.7700838,
      "lng": 111.2278658
    },
    {
      "suburb": {
        "id": 1474,
        "name": "Bulukerto",
        "lat": -7.7830373,
        "lng": 111.224885
      },
      "city": {
        "id": 89,
        "name": "Wonogiri",
        "lat": -7.8846484,
        "lng": 111.0460407
      },
      "province": {
        "id": 10,
        "name": "Jawa Tengah",
        "lat": -7.150975,
        "lng": 110.1402594
      },
      "country": {
        "id": 228,
        "name": "INDONESIA",
        "code": "ID"
      },
      "id": 15106,
      "name": "Nadi",
      "postcode": "57697",
      "lat": -7.7970407,
      "lng": 111.2263754
    },
    {
      "suburb": {
        "id": 1474,
        "name": "Bulukerto",
        "lat": -7.7830373,
        "lng": 111.224885
      },
      "city": {
        "id": 89,
        "name": "Wonogiri",
        "lat": -7.8846484,
        "lng": 111.0460407
      },
      "province": {
        "id": 10,
        "name": "Jawa Tengah",
        "lat": -7.150975,
        "lng": 110.1402594
      },
      "country": {
        "id": 228,
        "name": "INDONESIA",
        "code": "ID"
      },
      "id": 15107,
      "name": "Conto",
      "postcode": "57697",
      "lat": -7.7361133,
      "lng": 111.1920959
    },
    {
      "suburb": {
        "id": 1474,
        "name": "Bulukerto",
        "lat": -7.7830373,
        "lng": 111.224885
      },
      "city": {
        "id": 89,
        "name": "Wonogiri",
        "lat": -7.8846484,
        "lng": 111.0460407
      },
      "province": {
        "id": 10,
        "name": "Jawa Tengah",
        "lat": -7.150975,
        "lng": 110.1402594
      },
      "country": {
        "id": 228,
        "name": "INDONESIA",
        "code": "ID"
      },
      "id": 15108,
      "name": "Domas",
      "postcode": "57697",
      "lat": -7.7963049,
      "lng": 111.2159425
    },
    {
      "suburb": {
        "id": 1474,
        "name": "Bulukerto",
        "lat": -7.7830373,
        "lng": 111.224885
      },
      "city": {
        "id": 89,
        "name": "Wonogiri",
        "lat": -7.8846484,
        "lng": 111.0460407
      },
      "province": {
        "id": 10,
        "name": "Jawa Tengah",
        "lat": -7.150975,
        "lng": 110.1402594
      },
      "country": {
        "id": 228,
        "name": "INDONESIA",
        "code": "ID"
      },
      "id": 15109,
      "name": "Bulukerto",
      "postcode": "57697",
      "lat": -7.77939,
      "lng": 111.245751
    },
    {
      "suburb": {
        "id": 1474,
        "name": "Bulukerto",
        "lat": -7.7830373,
        "lng": 111.224885
      },
      "city": {
        "id": 89,
        "name": "Wonogiri",
        "lat": -7.8846484,
        "lng": 111.0460407
      },
      "province": {
        "id": 10,
        "name": "Jawa Tengah",
        "lat": -7.150975,
        "lng": 110.1402594
      },
      "country": {
        "id": 228,
        "name": "INDONESIA",
        "code": "ID"
      },
      "id": 15110,
      "name": "Bulurejo",
      "postcode": "57697",
      "lat": -7.7893174,
      "lng": 111.2517127
    },
    {
      "suburb": {
        "id": 1475,
        "name": "Kismantoro",
        "lat": -7.9047658,
        "lng": 111.2487319
      },
      "city": {
        "id": 89,
        "name": "Wonogiri",
        "lat": -7.8846484,
        "lng": 111.0460407
      },
      "province": {
        "id": 10,
        "name": "Jawa Tengah",
        "lat": -7.150975,
        "lng": 110.1402594
      },
      "country": {
        "id": 228,
        "name": "INDONESIA",
        "code": "ID"
      },
      "id": 15111,
      "name": "Plosorejo",
      "postcode": "57696",
      "lat": -7.9186949,
      "lng": 111.2278658
    },
    {
      "suburb": {
        "id": 1475,
        "name": "Kismantoro",
        "lat": -7.9047658,
        "lng": 111.2487319
      },
      "city": {
        "id": 89,
        "name": "Wonogiri",
        "lat": -7.8846484,
        "lng": 111.0460407
      },
      "province": {
        "id": 10,
        "name": "Jawa Tengah",
        "lat": -7.150975,
        "lng": 110.1402594
      },
      "country": {
        "id": 228,
        "name": "INDONESIA",
        "code": "ID"
      },
      "id": 15112,
      "name": "Pucung",
      "postcode": "57696",
      "lat": -7.940358,
      "lng": 111.2546936
    },
    {
      "suburb": {
        "id": 1475,
        "name": "Kismantoro",
        "lat": -7.9047658,
        "lng": 111.2487319
      },
      "city": {
        "id": 89,
        "name": "Wonogiri",
        "lat": -7.8846484,
        "lng": 111.0460407
      },
      "province": {
        "id": 10,
        "name": "Jawa Tengah",
        "lat": -7.150975,
        "lng": 110.1402594
      },
      "country": {
        "id": 228,
        "name": "INDONESIA",
        "code": "ID"
      },
      "id": 15113,
      "name": "Lemahbang",
      "postcode": "57696",
      "lat": -7.9113522,
      "lng": 111.2695981
    },
    {
      "suburb": {
        "id": 1475,
        "name": "Kismantoro",
        "lat": -7.9047658,
        "lng": 111.2487319
      },
      "city": {
        "id": 89,
        "name": "Wonogiri",
        "lat": -7.8846484,
        "lng": 111.0460407
      },
      "province": {
        "id": 10,
        "name": "Jawa Tengah",
        "lat": -7.150975,
        "lng": 110.1402594
      },
      "country": {
        "id": 228,
        "name": "INDONESIA",
        "code": "ID"
      },
      "id": 15114,
      "name": "Miri",
      "postcode": "57696",
      "lat": -7.9095785,
      "lng": 111.2546936
    },
    {
      "suburb": {
        "id": 1475,
        "name": "Kismantoro",
        "lat": -7.9047658,
        "lng": 111.2487319
      },
      "city": {
        "id": 89,
        "name": "Wonogiri",
        "lat": -7.8846484,
        "lng": 111.0460407
      },
      "province": {
        "id": 10,
        "name": "Jawa Tengah",
        "lat": -7.150975,
        "lng": 110.1402594
      },
      "country": {
        "id": 228,
        "name": "INDONESIA",
        "code": "ID"
      },
      "id": 15115,
      "name": "Ngroto",
      "postcode": "57696",
      "lat": -7.8909568,
      "lng": 111.2189233
    },
    {
      "suburb": {
        "id": 1475,
        "name": "Kismantoro",
        "lat": -7.9047658,
        "lng": 111.2487319
      },
      "city": {
        "id": 89,
        "name": "Wonogiri",
        "lat": -7.8846484,
        "lng": 111.0460407
      },
      "province": {
        "id": 10,
        "name": "Jawa Tengah",
        "lat": -7.150975,
        "lng": 110.1402594
      },
      "country": {
        "id": 228,
        "name": "INDONESIA",
        "code": "ID"
      },
      "id": 15116,
      "name": "Gedawung",
      "postcode": "57696",
      "lat": -7.8712812,
      "lng": 111.2517127
    },
    {
      "suburb": {
        "id": 1475,
        "name": "Kismantoro",
        "lat": -7.9047658,
        "lng": 111.2487319
      },
      "city": {
        "id": 89,
        "name": "Wonogiri",
        "lat": -7.8846484,
        "lng": 111.0460407
      },
      "province": {
        "id": 10,
        "name": "Jawa Tengah",
        "lat": -7.150975,
        "lng": 110.1402594
      },
      "country": {
        "id": 228,
        "name": "INDONESIA",
        "code": "ID"
      },
      "id": 15117,
      "name": "Gesing",
      "postcode": "57696",
      "lat": -7.8878049,
      "lng": 111.2785407
    },
    {
      "suburb": {
        "id": 1475,
        "name": "Kismantoro",
        "lat": -7.9047658,
        "lng": 111.2487319
      },
      "city": {
        "id": 89,
        "name": "Wonogiri",
        "lat": -7.8846484,
        "lng": 111.0460407
      },
      "province": {
        "id": 10,
        "name": "Jawa Tengah",
        "lat": -7.150975,
        "lng": 110.1402594
      },
      "country": {
        "id": 228,
        "name": "INDONESIA",
        "code": "ID"
      },
      "id": 15118,
      "name": "Kismantoro",
      "postcode": "57696",
      "lat": -7.889697,
      "lng": 111.2427701
    },
    {
      "suburb": {
        "id": 1475,
        "name": "Kismantoro",
        "lat": -7.9047658,
        "lng": 111.2487319
      },
      "city": {
        "id": 89,
        "name": "Wonogiri",
        "lat": -7.8846484,
        "lng": 111.0460407
      },
      "province": {
        "id": 10,
        "name": "Jawa Tengah",
        "lat": -7.150975,
        "lng": 110.1402594
      },
      "country": {
        "id": 228,
        "name": "INDONESIA",
        "code": "ID"
      },
      "id": 15119,
      "name": "Bugelan",
      "postcode": "57696",
      "lat": -7.9202737,
      "lng": 111.1980575
    },
    {
      "suburb": {
        "id": 1475,
        "name": "Kismantoro",
        "lat": -7.9047658,
        "lng": 111.2487319
      },
      "city": {
        "id": 89,
        "name": "Wonogiri",
        "lat": -7.8846484,
        "lng": 111.0460407
      },
      "province": {
        "id": 10,
        "name": "Jawa Tengah",
        "lat": -7.150975,
        "lng": 110.1402594
      },
      "country": {
        "id": 228,
        "name": "INDONESIA",
        "code": "ID"
      },
      "id": 15120,
      "name": "Gambiranom",
      "postcode": "57696",
      "lat": -7.8703372,
      "lng": 111.2695981
    },
    {
      "suburb": {
        "id": 1476,
        "name": "Purwantoro",
        "lat": -7.8419972,
        "lng": 111.2725789
      },
      "city": {
        "id": 89,
        "name": "Wonogiri",
        "lat": -7.8846484,
        "lng": 111.0460407
      },
      "province": {
        "id": 10,
        "name": "Jawa Tengah",
        "lat": -7.150975,
        "lng": 110.1402594
      },
      "country": {
        "id": 228,
        "name": "INDONESIA",
        "code": "ID"
      },
      "id": 15121,
      "name": "Talesan",
      "postcode": "57695",
      "lat": -7.8110468,
      "lng": 111.2278658
    },
    {
      "suburb": {
        "id": 1476,
        "name": "Purwantoro",
        "lat": -7.8419972,
        "lng": 111.2725789
      },
      "city": {
        "id": 89,
        "name": "Wonogiri",
        "lat": -7.8846484,
        "lng": 111.0460407
      },
      "province": {
        "id": 10,
        "name": "Jawa Tengah",
        "lat": -7.150975,
        "lng": 110.1402594
      },
      "country": {
        "id": 228,
        "name": "INDONESIA",
        "code": "ID"
      },
      "id": 15122,
      "name": "Tegalrejo",
      "postcode": "57695",
      "lat": -7.8595028,
      "lng": 111.2746233
    },
    {
      "suburb": {
        "id": 1476,
        "name": "Purwantoro",
        "lat": -7.8419972,
        "lng": 111.2725789
      },
      "city": {
        "id": 89,
        "name": "Wonogiri",
        "lat": -7.8846484,
        "lng": 111.0460407
      },
      "province": {
        "id": 10,
        "name": "Jawa Tengah",
        "lat": -7.150975,
        "lng": 110.1402594
      },
      "country": {
        "id": 228,
        "name": "INDONESIA",
        "code": "ID"
      },
      "id": 15123,
      "name": "Sukomangu",
      "postcode": "57695",
      "lat": -7.8219157,
      "lng": 111.2159425
    },
    {
      "suburb": {
        "id": 1476,
        "name": "Purwantoro",
        "lat": -7.8419972,
        "lng": 111.2725789
      },
      "city": {
        "id": 89,
        "name": "Wonogiri",
        "lat": -7.8846484,
        "lng": 111.0460407
      },
      "province": {
        "id": 10,
        "name": "Jawa Tengah",
        "lat": -7.150975,
        "lng": 110.1402594
      },
      "country": {
        "id": 228,
        "name": "INDONESIA",
        "code": "ID"
      },
      "id": 15124,
      "name": "Sumber",
      "postcode": "57695",
      "lat": -7.8595663,
      "lng": 111.2308467
    },
    {
      "suburb": {
        "id": 1476,
        "name": "Purwantoro",
        "lat": -7.8419972,
        "lng": 111.2725789
      },
      "city": {
        "id": 89,
        "name": "Wonogiri",
        "lat": -7.8846484,
        "lng": 111.0460407
      },
      "province": {
        "id": 10,
        "name": "Jawa Tengah",
        "lat": -7.150975,
        "lng": 110.1402594
      },
      "country": {
        "id": 228,
        "name": "INDONESIA",
        "code": "ID"
      },
      "id": 15125,
      "name": "Purwantoro",
      "postcode": "57695",
      "lat": -7.841817,
      "lng": 111.256259
    },
    {
      "suburb": {
        "id": 1476,
        "name": "Purwantoro",
        "lat": -7.8419972,
        "lng": 111.2725789
      },
      "city": {
        "id": 89,
        "name": "Wonogiri",
        "lat": -7.8846484,
        "lng": 111.0460407
      },
      "province": {
        "id": 10,
        "name": "Jawa Tengah",
        "lat": -7.150975,
        "lng": 110.1402594
      },
      "country": {
        "id": 228,
        "name": "INDONESIA",
        "code": "ID"
      },
      "id": 15126,
      "name": "Sendang",
      "postcode": "57695",
      "lat": -7.8302867,
      "lng": 111.2517127
    },
    {
      "suburb": {
        "id": 1476,
        "name": "Purwantoro",
        "lat": -7.8419972,
        "lng": 111.2725789
      },
      "city": {
        "id": 89,
        "name": "Wonogiri",
        "lat": -7.8846484,
        "lng": 111.0460407
      },
      "province": {
        "id": 10,
        "name": "Jawa Tengah",
        "lat": -7.150975,
        "lng": 110.1402594
      },
      "country": {
        "id": 228,
        "name": "INDONESIA",
        "code": "ID"
      },
      "id": 15127,
      "name": "Miricinde",
      "postcode": "57695",
      "lat": -7.832115,
      "lng": 111.2412797
    },
    {
      "suburb": {
        "id": 1476,
        "name": "Purwantoro",
        "lat": -7.8419972,
        "lng": 111.2725789
      },
      "city": {
        "id": 89,
        "name": "Wonogiri",
        "lat": -7.8846484,
        "lng": 111.0460407
      },
      "province": {
        "id": 10,
        "name": "Jawa Tengah",
        "lat": -7.150975,
        "lng": 110.1402594
      },
      "country": {
        "id": 228,
        "name": "INDONESIA",
        "code": "ID"
      },
      "id": 15128,
      "name": "Ploso",
      "postcode": "57695",
      "lat": -7.804366,
      "lng": 111.2576745
    },
    {
      "suburb": {
        "id": 1476,
        "name": "Purwantoro",
        "lat": -7.8419972,
        "lng": 111.2725789
      },
      "city": {
        "id": 89,
        "name": "Wonogiri",
        "lat": -7.8846484,
        "lng": 111.0460407
      },
      "province": {
        "id": 10,
        "name": "Jawa Tengah",
        "lat": -7.150975,
        "lng": 110.1402594
      },
      "country": {
        "id": 228,
        "name": "INDONESIA",
        "code": "ID"
      },
      "id": 15129,
      "name": "Joho",
      "postcode": "57695",
      "lat": -7.8414726,
      "lng": 111.2338275
    },
    {
      "suburb": {
        "id": 1476,
        "name": "Purwantoro",
        "lat": -7.8419972,
        "lng": 111.2725789
      },
      "city": {
        "id": 89,
        "name": "Wonogiri",
        "lat": -7.8846484,
        "lng": 111.0460407
      },
      "province": {
        "id": 10,
        "name": "Jawa Tengah",
        "lat": -7.150975,
        "lng": 110.1402594
      },
      "country": {
        "id": 228,
        "name": "INDONESIA",
        "code": "ID"
      },
      "id": 15130,
      "name": "Kenteng",
      "postcode": "57695",
      "lat": -7.8197294,
      "lng": 111.2576745
    },
    {
      "suburb": {
        "id": 1476,
        "name": "Purwantoro",
        "lat": -7.8419972,
        "lng": 111.2725789
      },
      "city": {
        "id": 89,
        "name": "Wonogiri",
        "lat": -7.8846484,
        "lng": 111.0460407
      },
      "province": {
        "id": 10,
        "name": "Jawa Tengah",
        "lat": -7.150975,
        "lng": 110.1402594
      },
      "country": {
        "id": 228,
        "name": "INDONESIA",
        "code": "ID"
      },
      "id": 15131,
      "name": "Kepyar",
      "postcode": "57695",
      "lat": -7.8359334,
      "lng": 111.2904644
    },
    {
      "suburb": {
        "id": 1476,
        "name": "Purwantoro",
        "lat": -7.8419972,
        "lng": 111.2725789
      },
      "city": {
        "id": 89,
        "name": "Wonogiri",
        "lat": -7.8846484,
        "lng": 111.0460407
      },
      "province": {
        "id": 10,
        "name": "Jawa Tengah",
        "lat": -7.150975,
        "lng": 110.1402594
      },
      "country": {
        "id": 228,
        "name": "INDONESIA",
        "code": "ID"
      },
      "id": 15132,
      "name": "Biting",
      "postcode": "57695",
      "lat": -7.8533911,
      "lng": 111.2994071
    },
    {
      "suburb": {
        "id": 1476,
        "name": "Purwantoro",
        "lat": -7.8419972,
        "lng": 111.2725789
      },
      "city": {
        "id": 89,
        "name": "Wonogiri",
        "lat": -7.8846484,
        "lng": 111.0460407
      },
      "province": {
        "id": 10,
        "name": "Jawa Tengah",
        "lat": -7.150975,
        "lng": 110.1402594
      },
      "country": {
        "id": 228,
        "name": "INDONESIA",
        "code": "ID"
      },
      "id": 15133,
      "name": "Gondang",
      "postcode": "57695",
      "lat": -7.8293475,
      "lng": 111.2695981
    },
    {
      "suburb": {
        "id": 1476,
        "name": "Purwantoro",
        "lat": -7.8419972,
        "lng": 111.2725789
      },
      "city": {
        "id": 89,
        "name": "Wonogiri",
        "lat": -7.8846484,
        "lng": 111.0460407
      },
      "province": {
        "id": 10,
        "name": "Jawa Tengah",
        "lat": -7.150975,
        "lng": 110.1402594
      },
      "country": {
        "id": 228,
        "name": "INDONESIA",
        "code": "ID"
      },
      "id": 15134,
      "name": "Bakalan",
      "postcode": "57695",
      "lat": -7.8178522,
      "lng": 111.2934453
    },
    {
      "suburb": {
        "id": 1476,
        "name": "Purwantoro",
        "lat": -7.8419972,
        "lng": 111.2725789
      },
      "city": {
        "id": 89,
        "name": "Wonogiri",
        "lat": -7.8846484,
        "lng": 111.0460407
      },
      "province": {
        "id": 10,
        "name": "Jawa Tengah",
        "lat": -7.150975,
        "lng": 110.1402594
      },
      "country": {
        "id": 228,
        "name": "INDONESIA",
        "code": "ID"
      },
      "id": 15135,
      "name": "Bangsri",
      "postcode": "57695",
      "lat": -7.850467,
      "lng": 111.2576745
    },
    {
      "suburb": {
        "id": 1477,
        "name": "Slogohimo",
        "lat": -7.8457559,
        "lng": 111.2010383
      },
      "city": {
        "id": 89,
        "name": "Wonogiri",
        "lat": -7.8846484,
        "lng": 111.0460407
      },
      "province": {
        "id": 10,
        "name": "Jawa Tengah",
        "lat": -7.150975,
        "lng": 110.1402594
      },
      "country": {
        "id": 228,
        "name": "INDONESIA",
        "code": "ID"
      },
      "id": 15136,
      "name": "Waru",
      "postcode": "57694",
      "lat": -7.8334119,
      "lng": 111.1920959
    },
    {
      "suburb": {
        "id": 1477,
        "name": "Slogohimo",
        "lat": -7.8457559,
        "lng": 111.2010383
      },
      "city": {
        "id": 89,
        "name": "Wonogiri",
        "lat": -7.8846484,
        "lng": 111.0460407
      },
      "province": {
        "id": 10,
        "name": "Jawa Tengah",
        "lat": -7.150975,
        "lng": 110.1402594
      },
      "country": {
        "id": 228,
        "name": "INDONESIA",
        "code": "ID"
      },
      "id": 15137,
      "name": "Watusomo",
      "postcode": "57694",
      "lat": -7.8696081,
      "lng": 111.1861342
    },
    {
      "suburb": {
        "id": 1477,
        "name": "Slogohimo",
        "lat": -7.8457559,
        "lng": 111.2010383
      },
      "city": {
        "id": 89,
        "name": "Wonogiri",
        "lat": -7.8846484,
        "lng": 111.0460407
      },
      "province": {
        "id": 10,
        "name": "Jawa Tengah",
        "lat": -7.150975,
        "lng": 110.1402594
      },
      "country": {
        "id": 228,
        "name": "INDONESIA",
        "code": "ID"
      },
      "id": 15138,
      "name": "Soco",
      "postcode": "57694",
      "lat": -7.8228514,
      "lng": 111.1980575
    },
    {
      "suburb": {
        "id": 1477,
        "name": "Slogohimo",
        "lat": -7.8457559,
        "lng": 111.2010383
      },
      "city": {
        "id": 89,
        "name": "Wonogiri",
        "lat": -7.8846484,
        "lng": 111.0460407
      },
      "province": {
        "id": 10,
        "name": "Jawa Tengah",
        "lat": -7.150975,
        "lng": 110.1402594
      },
      "country": {
        "id": 228,
        "name": "INDONESIA",
        "code": "ID"
      },
      "id": 15139,
      "name": "Sokoboyo",
      "postcode": "57694",
      "lat": -7.7824943,
      "lng": 111.1861342
    },
    {
      "suburb": {
        "id": 1477,
        "name": "Slogohimo",
        "lat": -7.8457559,
        "lng": 111.2010383
      },
      "city": {
        "id": 89,
        "name": "Wonogiri",
        "lat": -7.8846484,
        "lng": 111.0460407
      },
      "province": {
        "id": 10,
        "name": "Jawa Tengah",
        "lat": -7.150975,
        "lng": 110.1402594
      },
      "country": {
        "id": 228,
        "name": "INDONESIA",
        "code": "ID"
      },
      "id": 15140,
      "name": "Tunggur",
      "postcode": "57694",
      "lat": -7.8372869,
      "lng": 111.2159425
    },
    {
      "suburb": {
        "id": 1477,
        "name": "Slogohimo",
        "lat": -7.8457559,
        "lng": 111.2010383
      },
      "city": {
        "id": 89,
        "name": "Wonogiri",
        "lat": -7.8846484,
        "lng": 111.0460407
      },
      "province": {
        "id": 10,
        "name": "Jawa Tengah",
        "lat": -7.150975,
        "lng": 110.1402594
      },
      "country": {
        "id": 228,
        "name": "INDONESIA",
        "code": "ID"
      },
      "id": 15141,
      "name": "Setren",
      "postcode": "57694",
      "lat": -7.7397509,
      "lng": 111.1712303
    },
    {
      "suburb": {
        "id": 1477,
        "name": "Slogohimo",
        "lat": -7.8457559,
        "lng": 111.2010383
      },
      "city": {
        "id": 89,
        "name": "Wonogiri",
        "lat": -7.8846484,
        "lng": 111.0460407
      },
      "province": {
        "id": 10,
        "name": "Jawa Tengah",
        "lat": -7.150975,
        "lng": 110.1402594
      },
      "country": {
        "id": 228,
        "name": "INDONESIA",
        "code": "ID"
      },
      "id": 15142,
      "name": "Slogohimo",
      "postcode": "57694",
      "lat": -7.8237864,
      "lng": 111.1801726
    },
    {
      "suburb": {
        "id": 1477,
        "name": "Slogohimo",
        "lat": -7.8457559,
        "lng": 111.2010383
      },
      "city": {
        "id": 89,
        "name": "Wonogiri",
        "lat": -7.8846484,
        "lng": 111.0460407
      },
      "province": {
        "id": 10,
        "name": "Jawa Tengah",
        "lat": -7.150975,
        "lng": 110.1402594
      },
      "country": {
        "id": 228,
        "name": "INDONESIA",
        "code": "ID"
      },
      "id": 15143,
      "name": "Sambirejo",
      "postcode": "57694",
      "lat": -7.8608206,
      "lng": 111.207
    },
    {
      "suburb": {
        "id": 1477,
        "name": "Slogohimo",
        "lat": -7.8457559,
        "lng": 111.2010383
      },
      "city": {
        "id": 89,
        "name": "Wonogiri",
        "lat": -7.8846484,
        "lng": 111.0460407
      },
      "province": {
        "id": 10,
        "name": "Jawa Tengah",
        "lat": -7.150975,
        "lng": 110.1402594
      },
      "country": {
        "id": 228,
        "name": "INDONESIA",
        "code": "ID"
      },
      "id": 15144,
      "name": "Sedayu",
      "postcode": "57694",
      "lat": -7.8081042,
      "lng": 111.1861342
    },
    {
      "suburb": {
        "id": 1477,
        "name": "Slogohimo",
        "lat": -7.8457559,
        "lng": 111.2010383
      },
      "city": {
        "id": 89,
        "name": "Wonogiri",
        "lat": -7.8846484,
        "lng": 111.0460407
      },
      "province": {
        "id": 10,
        "name": "Jawa Tengah",
        "lat": -7.150975,
        "lng": 110.1402594
      },
      "country": {
        "id": 228,
        "name": "INDONESIA",
        "code": "ID"
      },
      "id": 15145,
      "name": "Padarangin",
      "postcode": "57694",
      "lat": -7.8819576,
      "lng": 111.1950767
    },
    {
      "suburb": {
        "id": 1477,
        "name": "Slogohimo",
        "lat": -7.8457559,
        "lng": 111.2010383
      },
      "city": {
        "id": 89,
        "name": "Wonogiri",
        "lat": -7.8846484,
        "lng": 111.0460407
      },
      "province": {
        "id": 10,
        "name": "Jawa Tengah",
        "lat": -7.150975,
        "lng": 110.1402594
      },
      "country": {
        "id": 228,
        "name": "INDONESIA",
        "code": "ID"
      },
      "id": 15146,
      "name": "Pandan",
      "postcode": "57694",
      "lat": -7.8542268,
      "lng": 111.1861342
    },
    {
      "suburb": {
        "id": 1477,
        "name": "Slogohimo",
        "lat": -7.8457559,
        "lng": 111.2010383
      },
      "city": {
        "id": 89,
        "name": "Wonogiri",
        "lat": -7.8846484,
        "lng": 111.0460407
      },
      "province": {
        "id": 10,
        "name": "Jawa Tengah",
        "lat": -7.150975,
        "lng": 110.1402594
      },
      "country": {
        "id": 228,
        "name": "INDONESIA",
        "code": "ID"
      },
      "id": 15147,
      "name": "Randusari",
      "postcode": "57694",
      "lat": -7.7984404,
      "lng": 111.1995479
    },
    {
      "suburb": {
        "id": 1477,
        "name": "Slogohimo",
        "lat": -7.8457559,
        "lng": 111.2010383
      },
      "city": {
        "id": 89,
        "name": "Wonogiri",
        "lat": -7.8846484,
        "lng": 111.0460407
      },
      "province": {
        "id": 10,
        "name": "Jawa Tengah",
        "lat": -7.150975,
        "lng": 110.1402594
      },
      "country": {
        "id": 228,
        "name": "INDONESIA",
        "code": "ID"
      },
      "id": 15148,
      "name": "Klunggen",
      "postcode": "57694",
      "lat": -7.8071708,
      "lng": 111.2040191
    },
    {
      "suburb": {
        "id": 1477,
        "name": "Slogohimo",
        "lat": -7.8457559,
        "lng": 111.2010383
      },
      "city": {
        "id": 89,
        "name": "Wonogiri",
        "lat": -7.8846484,
        "lng": 111.0460407
      },
      "province": {
        "id": 10,
        "name": "Jawa Tengah",
        "lat": -7.150975,
        "lng": 110.1402594
      },
      "country": {
        "id": 228,
        "name": "INDONESIA",
        "code": "ID"
      },
      "id": 15149,
      "name": "Made",
      "postcode": "57694",
      "lat": -7.843037,
      "lng": 111.2040191
    },
    {
      "suburb": {
        "id": 1477,
        "name": "Slogohimo",
        "lat": -7.8457559,
        "lng": 111.2010383
      },
      "city": {
        "id": 89,
        "name": "Wonogiri",
        "lat": -7.8846484,
        "lng": 111.0460407
      },
      "province": {
        "id": 10,
        "name": "Jawa Tengah",
        "lat": -7.150975,
        "lng": 110.1402594
      },
      "country": {
        "id": 228,
        "name": "INDONESIA",
        "code": "ID"
      },
      "id": 15150,
      "name": "Gunan",
      "postcode": "57694",
      "lat": -7.8128019,
      "lng": 111.1697399
    },
    {
      "suburb": {
        "id": 1477,
        "name": "Slogohimo",
        "lat": -7.8457559,
        "lng": 111.2010383
      },
      "city": {
        "id": 89,
        "name": "Wonogiri",
        "lat": -7.8846484,
        "lng": 111.0460407
      },
      "province": {
        "id": 10,
        "name": "Jawa Tengah",
        "lat": -7.150975,
        "lng": 110.1402594
      },
      "country": {
        "id": 228,
        "name": "INDONESIA",
        "code": "ID"
      },
      "id": 15151,
      "name": "Karang",
      "postcode": "57694",
      "lat": -7.7984801,
      "lng": 111.1742111
    },
    {
      "suburb": {
        "id": 1477,
        "name": "Slogohimo",
        "lat": -7.8457559,
        "lng": 111.2010383
      },
      "city": {
        "id": 89,
        "name": "Wonogiri",
        "lat": -7.8846484,
        "lng": 111.0460407
      },
      "province": {
        "id": 10,
        "name": "Jawa Tengah",
        "lat": -7.150975,
        "lng": 110.1402594
      },
      "country": {
        "id": 228,
        "name": "INDONESIA",
        "code": "ID"
      },
      "id": 15152,
      "name": "Bulusari",
      "postcode": "57694",
      "lat": -7.8329885,
      "lng": 111.1757015
    },
    {
      "suburb": {
        "id": 1478,
        "name": "Jatipurno",
        "lat": -7.7867592,
        "lng": 111.1533456
      },
      "city": {
        "id": 89,
        "name": "Wonogiri",
        "lat": -7.8846484,
        "lng": 111.0460407
      },
      "province": {
        "id": 10,
        "name": "Jawa Tengah",
        "lat": -7.150975,
        "lng": 110.1402594
      },
      "country": {
        "id": 228,
        "name": "INDONESIA",
        "code": "ID"
      },
      "id": 15153,
      "name": "Mangunharjo",
      "postcode": "57693",
      "lat": -7.7807764,
      "lng": 111.1205574
    },
    {
      "suburb": {
        "id": 1478,
        "name": "Jatipurno",
        "lat": -7.7867592,
        "lng": 111.1533456
      },
      "city": {
        "id": 89,
        "name": "Wonogiri",
        "lat": -7.8846484,
        "lng": 111.0460407
      },
      "province": {
        "id": 10,
        "name": "Jawa Tengah",
        "lat": -7.150975,
        "lng": 110.1402594
      },
      "country": {
        "id": 228,
        "name": "INDONESIA",
        "code": "ID"
      },
      "id": 15154,
      "name": "Slogoretno",
      "postcode": "57693",
      "lat": -7.7888557,
      "lng": 111.1622879
    },
    {
      "suburb": {
        "id": 1478,
        "name": "Jatipurno",
        "lat": -7.7867592,
        "lng": 111.1533456
      },
      "city": {
        "id": 89,
        "name": "Wonogiri",
        "lat": -7.8846484,
        "lng": 111.0460407
      },
      "province": {
        "id": 10,
        "name": "Jawa Tengah",
        "lat": -7.150975,
        "lng": 110.1402594
      },
      "country": {
        "id": 228,
        "name": "INDONESIA",
        "code": "ID"
      },
      "id": 15155,
      "name": "Tawangrejo",
      "postcode": "57693",
      "lat": -7.7945981,
      "lng": 111.1503649
    },
    {
      "suburb": {
        "id": 1478,
        "name": "Jatipurno",
        "lat": -7.7867592,
        "lng": 111.1533456
      },
      "city": {
        "id": 89,
        "name": "Wonogiri",
        "lat": -7.8846484,
        "lng": 111.0460407
      },
      "province": {
        "id": 10,
        "name": "Jawa Tengah",
        "lat": -7.150975,
        "lng": 110.1402594
      },
      "country": {
        "id": 228,
        "name": "INDONESIA",
        "code": "ID"
      },
      "id": 15156,
      "name": "Kopen",
      "postcode": "57693",
      "lat": -7.8012707,
      "lng": 111.1205574
    },
    {
      "suburb": {
        "id": 1478,
        "name": "Jatipurno",
        "lat": -7.7867592,
        "lng": 111.1533456
      },
      "city": {
        "id": 89,
        "name": "Wonogiri",
        "lat": -7.8846484,
        "lng": 111.0460407
      },
      "province": {
        "id": 10,
        "name": "Jawa Tengah",
        "lat": -7.150975,
        "lng": 110.1402594
      },
      "country": {
        "id": 228,
        "name": "INDONESIA",
        "code": "ID"
      },
      "id": 15157,
      "name": "Kembang",
      "postcode": "57693",
      "lat": -7.7731816,
      "lng": 111.1682495
    },
    {
      "suburb": {
        "id": 1478,
        "name": "Jatipurno",
        "lat": -7.7867592,
        "lng": 111.1533456
      },
      "city": {
        "id": 89,
        "name": "Wonogiri",
        "lat": -7.8846484,
        "lng": 111.0460407
      },
      "province": {
        "id": 10,
        "name": "Jawa Tengah",
        "lat": -7.150975,
        "lng": 110.1402594
      },
      "country": {
        "id": 228,
        "name": "INDONESIA",
        "code": "ID"
      },
      "id": 15158,
      "name": "Jatipurno",
      "postcode": "57693",
      "lat": -7.8006511,
      "lng": 111.1324804
    },
    {
      "suburb": {
        "id": 1478,
        "name": "Jatipurno",
        "lat": -7.7867592,
        "lng": 111.1533456
      },
      "city": {
        "id": 89,
        "name": "Wonogiri",
        "lat": -7.8846484,
        "lng": 111.0460407
      },
      "province": {
        "id": 10,
        "name": "Jawa Tengah",
        "lat": -7.150975,
        "lng": 110.1402594
      },
      "country": {
        "id": 228,
        "name": "INDONESIA",
        "code": "ID"
      },
      "id": 15159,
      "name": "Jatipurwo",
      "postcode": "57693",
      "lat": -7.8096582,
      "lng": 111.1563264
    },
    {
      "suburb": {
        "id": 1478,
        "name": "Jatipurno",
        "lat": -7.7867592,
        "lng": 111.1533456
      },
      "city": {
        "id": 89,
        "name": "Wonogiri",
        "lat": -7.8846484,
        "lng": 111.0460407
      },
      "province": {
        "id": 10,
        "name": "Jawa Tengah",
        "lat": -7.150975,
        "lng": 110.1402594
      },
      "country": {
        "id": 228,
        "name": "INDONESIA",
        "code": "ID"
      },
      "id": 15160,
      "name": "Jeporo",
      "postcode": "57693",
      "lat": -7.7699145,
      "lng": 111.1324804
    },
    {
      "suburb": {
        "id": 1478,
        "name": "Jatipurno",
        "lat": -7.7867592,
        "lng": 111.1533456
      },
      "city": {
        "id": 89,
        "name": "Wonogiri",
        "lat": -7.8846484,
        "lng": 111.0460407
      },
      "province": {
        "id": 10,
        "name": "Jawa Tengah",
        "lat": -7.150975,
        "lng": 110.1402594
      },
      "country": {
        "id": 228,
        "name": "INDONESIA",
        "code": "ID"
      },
      "id": 15161,
      "name": "Girimulyo",
      "postcode": "57693",
      "lat": -7.7608441,
      "lng": 111.1593072
    },
    {
      "suburb": {
        "id": 1478,
        "name": "Jatipurno",
        "lat": -7.7867592,
        "lng": 111.1533456
      },