{
  "metadata": {
    "path": "/v3/location/areas?limit=1000&page=14",
    "http_status_code": 200,
    "http_status": "OK",
    "timestamp": 1647334670
  },
  "data": [
    {
      "suburb": {
        "id": 1339,
        "name": "Kemang",
        "lat": -6.502139,
        "lng": 106.7293611
      },
      "city": {
        "id": 79,
        "name": "Bogor, Kab.",
        "lat": -6.5517758,
        "lng": 106.6291304
      },
      "province": {
        "id": 9,
        "name": "Jawa Barat",
        "lat": -7.090911,
        "lng": 107.668887
      },
      "country": {
        "id": 228,
        "name": "INDONESIA",
        "code": "ID"
      },
      "id": 13001,
      "name": "Bojong",
      "postcode": "16316",
      "lat": -6.5245504,
      "lng": 106.7500025
    },
    {
      "suburb": {
        "id": 1340,
        "name": "Ranca Bungur",
        "lat": -6.5230828,
        "lng": 106.7175669
      },
      "city": {
        "id": 79,
        "name": "Bogor, Kab.",
        "lat": -6.5517758,
        "lng": 106.6291304
      },
      "province": {
        "id": 9,
        "name": "Jawa Barat",
        "lat": -7.090911,
        "lng": 107.668887
      },
      "country": {
        "id": 228,
        "name": "INDONESIA",
        "code": "ID"
      },
      "id": 13002,
      "name": "Bantarjaya",
      "postcode": "16253",
      "lat": -6.5302885,
      "lng": 106.7323097
    },
    {
      "suburb": {
        "id": 1339,
        "name": "Kemang",
        "lat": -6.502139,
        "lng": 106.7293611
      },
      "city": {
        "id": 79,
        "name": "Bogor, Kab.",
        "lat": -6.5517758,
        "lng": 106.6291304
      },
      "province": {
        "id": 9,
        "name": "Jawa Barat",
        "lat": -7.090911,
        "lng": 107.668887
      },
      "country": {
        "id": 228,
        "name": "INDONESIA",
        "code": "ID"
      },
      "id": 13003,
      "name": "Atang Senjaya",
      "postcode": "16315",
      "lat": -6.5408947,
      "lng": 106.7603239
    },
    {
      "suburb": {
        "id": 1341,
        "name": "Tanah Sereal",
        "lat": -6.5514982,
        "lng": 106.7883416
      },
      "city": {
        "id": 481,
        "name": "Bogor, Kota",
        "lat": -6.5517758,
        "lng": 106.6291304
      },
      "province": {
        "id": 9,
        "name": "Jawa Barat",
        "lat": -7.090911,
        "lng": 107.668887
      },
      "country": {
        "id": 228,
        "name": "INDONESIA",
        "code": "ID"
      },
      "id": 13004,
      "name": "Kayumanis",
      "postcode": "16169",
      "lat": -6.5277509,
      "lng": 106.7691712
    },
    {
      "suburb": {
        "id": 1341,
        "name": "Tanah Sereal",
        "lat": -6.5514982,
        "lng": 106.7883416
      },
      "city": {
        "id": 481,
        "name": "Bogor, Kota",
        "lat": -6.5517758,
        "lng": 106.6291304
      },
      "province": {
        "id": 9,
        "name": "Jawa Barat",
        "lat": -7.090911,
        "lng": 107.668887
      },
      "country": {
        "id": 228,
        "name": "INDONESIA",
        "code": "ID"
      },
      "id": 13005,
      "name": "Kencana",
      "postcode": "16167",
      "lat": -6.5245805,
      "lng": 106.7868669
    },
    {
      "suburb": {
        "id": 1341,
        "name": "Tanah Sereal",
        "lat": -6.5514982,
        "lng": 106.7883416
      },
      "city": {
        "id": 481,
        "name": "Bogor, Kota",
        "lat": -6.5517758,
        "lng": 106.6291304
      },
      "province": {
        "id": 9,
        "name": "Jawa Barat",
        "lat": -7.090911,
        "lng": 107.668887
      },
      "country": {
        "id": 228,
        "name": "INDONESIA",
        "code": "ID"
      },
      "id": 13006,
      "name": "Mekarwangi",
      "postcode": "16168",
      "lat": -6.5273493,
      "lng": 106.7809682
    },
    {
      "suburb": {
        "id": 1341,
        "name": "Tanah Sereal",
        "lat": -6.5514982,
        "lng": 106.7883416
      },
      "city": {
        "id": 481,
        "name": "Bogor, Kota",
        "lat": -6.5517758,
        "lng": 106.6291304
      },
      "province": {
        "id": 9,
        "name": "Jawa Barat",
        "lat": -7.090911,
        "lng": 107.668887
      },
      "country": {
        "id": 228,
        "name": "INDONESIA",
        "code": "ID"
      },
      "id": 13007,
      "name": "Cibadak",
      "postcode": "16166",
      "lat": -6.5492317,
      "lng": 106.7794935
    },
    {
      "suburb": {
        "id": 1341,
        "name": "Tanah Sereal",
        "lat": -6.5514982,
        "lng": 106.7883416
      },
      "city": {
        "id": 481,
        "name": "Bogor, Kota",
        "lat": -6.5517758,
        "lng": 106.6291304
      },
      "province": {
        "id": 9,
        "name": "Jawa Barat",
        "lat": -7.090911,
        "lng": 107.668887
      },
      "country": {
        "id": 228,
        "name": "INDONESIA",
        "code": "ID"
      },
      "id": 13008,
      "name": "Sukadamai",
      "postcode": "16165",
      "lat": -6.5502641,
      "lng": 106.7868669
    },
    {
      "suburb": {
        "id": 1341,
        "name": "Tanah Sereal",
        "lat": -6.5514982,
        "lng": 106.7883416
      },
      "city": {
        "id": 481,
        "name": "Bogor, Kota",
        "lat": -6.5517758,
        "lng": 106.6291304
      },
      "province": {
        "id": 9,
        "name": "Jawa Barat",
        "lat": -7.090911,
        "lng": 107.668887
      },
      "country": {
        "id": 228,
        "name": "INDONESIA",
        "code": "ID"
      },
      "id": 13009,
      "name": "Sukaresmi",
      "postcode": "16165",
      "lat": -6.5537644,
      "lng": 106.79719
    },
    {
      "suburb": {
        "id": 1341,
        "name": "Tanah Sereal",
        "lat": -6.5514982,
        "lng": 106.7883416
      },
      "city": {
        "id": 481,
        "name": "Bogor, Kota",
        "lat": -6.5517758,
        "lng": 106.6291304
      },
      "province": {
        "id": 9,
        "name": "Jawa Barat",
        "lat": -7.090911,
        "lng": 107.668887
      },
      "country": {
        "id": 228,
        "name": "INDONESIA",
        "code": "ID"
      },
      "id": 13010,
      "name": "Kedung Waringin",
      "postcode": "16163",
      "lat": -6.5658816,
      "lng": 106.7809682
    },
    {
      "suburb": {
        "id": 1341,
        "name": "Tanah Sereal",
        "lat": -6.5514982,
        "lng": 106.7883416
      },
      "city": {
        "id": 481,
        "name": "Bogor, Kota",
        "lat": -6.5517758,
        "lng": 106.6291304
      },
      "province": {
        "id": 9,
        "name": "Jawa Barat",
        "lat": -7.090911,
        "lng": 107.668887
      },
      "country": {
        "id": 228,
        "name": "INDONESIA",
        "code": "ID"
      },
      "id": 13011,
      "name": "Kedung Badak",
      "postcode": "16164",
      "lat": -6.5627057,
      "lng": 106.7986648
    },
    {
      "suburb": {
        "id": 1341,
        "name": "Tanah Sereal",
        "lat": -6.5514982,
        "lng": 106.7883416
      },
      "city": {
        "id": 481,
        "name": "Bogor, Kota",
        "lat": -6.5517758,
        "lng": 106.6291304
      },
      "province": {
        "id": 9,
        "name": "Jawa Barat",
        "lat": -7.090911,
        "lng": 107.668887
      },
      "country": {
        "id": 228,
        "name": "INDONESIA",
        "code": "ID"
      },
      "id": 13012,
      "name": "Kedung Jaya",
      "postcode": "16164",
      "lat": -6.5605406,
      "lng": 106.7868669
    },
    {
      "suburb": {
        "id": 1341,
        "name": "Tanah Sereal",
        "lat": -6.5514982,
        "lng": 106.7883416
      },
      "city": {
        "id": 481,
        "name": "Bogor, Kota",
        "lat": -6.5517758,
        "lng": 106.6291304
      },
      "province": {
        "id": 9,
        "name": "Jawa Barat",
        "lat": -7.090911,
        "lng": 107.668887
      },
      "country": {
        "id": 228,
        "name": "INDONESIA",
        "code": "ID"
      },
      "id": 13013,
      "name": "Kebon Pedes",
      "postcode": "16162",
      "lat": -6.5679457,
      "lng": 106.7957153
    },
    {
      "suburb": {
        "id": 1342,
        "name": "Bogor Utara - Kota",
        "lat": -6.5708377,
        "lng": 106.8237374
      },
      "city": {
        "id": 481,
        "name": "Bogor, Kota",
        "lat": -6.5517758,
        "lng": 106.6291304
      },
      "province": {
        "id": 9,
        "name": "Jawa Barat",
        "lat": -7.090911,
        "lng": 107.668887
      },
      "country": {
        "id": 228,
        "name": "INDONESIA",
        "code": "ID"
      },
      "id": 13014,
      "name": "Kedunghalang",
      "postcode": "16158",
      "lat": -6.5521265,
      "lng": 106.8075136
    },
    {
      "suburb": {
        "id": 1341,
        "name": "Tanah Sereal",
        "lat": -6.5514982,
        "lng": 106.7883416
      },
      "city": {
        "id": 481,
        "name": "Bogor, Kota",
        "lat": -6.5517758,
        "lng": 106.6291304
      },
      "province": {
        "id": 9,
        "name": "Jawa Barat",
        "lat": -7.090911,
        "lng": 107.668887
      },
      "country": {
        "id": 228,
        "name": "INDONESIA",
        "code": "ID"
      },
      "id": 13015,
      "name": "Tanah Sareal",
      "postcode": "16161",
      "lat": -6.5728825,
      "lng": 106.8016144
    },
    {
      "suburb": {
        "id": 1342,
        "name": "Bogor Utara - Kota",
        "lat": -6.5708377,
        "lng": 106.8237374
      },
      "city": {
        "id": 481,
        "name": "Bogor, Kota",
        "lat": -6.5517758,
        "lng": 106.6291304
      },
      "province": {
        "id": 9,
        "name": "Jawa Barat",
        "lat": -7.090911,
        "lng": 107.668887
      },
      "country": {
        "id": 228,
        "name": "INDONESIA",
        "code": "ID"
      },
      "id": 13016,
      "name": "Ciparigi",
      "postcode": "16157",
      "lat": -6.5480211,
      "lng": 106.8148879
    },
    {
      "suburb": {
        "id": 1342,
        "name": "Bogor Utara - Kota",
        "lat": -6.5708377,
        "lng": 106.8237374
      },
      "city": {
        "id": 481,
        "name": "Bogor, Kota",
        "lat": -6.5517758,
        "lng": 106.6291304
      },
      "province": {
        "id": 9,
        "name": "Jawa Barat",
        "lat": -7.090911,
        "lng": 107.668887
      },
      "country": {
        "id": 228,
        "name": "INDONESIA",
        "code": "ID"
      },
      "id": 13017,
      "name": "Cimahpar",
      "postcode": "16155",
      "lat": -6.5873882,
      "lng": 106.8281623
    },
    {
      "suburb": {
        "id": 1342,
        "name": "Bogor Utara - Kota",
        "lat": -6.5708377,
        "lng": 106.8237374
      },
      "city": {
        "id": 481,
        "name": "Bogor, Kota",
        "lat": -6.5517758,
        "lng": 106.6291304
      },
      "province": {
        "id": 9,
        "name": "Jawa Barat",
        "lat": -7.090911,
        "lng": 107.668887
      },
      "country": {
        "id": 228,
        "name": "INDONESIA",
        "code": "ID"
      },
      "id": 13018,
      "name": "Ciluar",
      "postcode": "16156",
      "lat": -6.5642627,
      "lng": 106.8281623
    },
    {
      "suburb": {
        "id": 1342,
        "name": "Bogor Utara - Kota",
        "lat": -6.5708377,
        "lng": 106.8237374
      },
      "city": {
        "id": 481,
        "name": "Bogor, Kota",
        "lat": -6.5517758,
        "lng": 106.6291304
      },
      "province": {
        "id": 9,
        "name": "Jawa Barat",
        "lat": -7.090911,
        "lng": 107.668887
      },
      "country": {
        "id": 228,
        "name": "INDONESIA",
        "code": "ID"
      },
      "id": 13019,
      "name": "Bantarjati",
      "postcode": "16153",
      "lat": -6.5778193,
      "lng": 106.8075136
    },
    {
      "suburb": {
        "id": 1342,
        "name": "Bogor Utara - Kota",
        "lat": -6.5708377,
        "lng": 106.8237374
      },
      "city": {
        "id": 481,
        "name": "Bogor, Kota",
        "lat": -6.5517758,
        "lng": 106.6291304
      },
      "province": {
        "id": 9,
        "name": "Jawa Barat",
        "lat": -7.090911,
        "lng": 107.668887
      },
      "country": {
        "id": 228,
        "name": "INDONESIA",
        "code": "ID"
      },
      "id": 13020,
      "name": "Tanah Baru",
      "postcode": "16154",
      "lat": -6.5798818,
      "lng": 106.8222625
    },
    {
      "suburb": {
        "id": 1342,
        "name": "Bogor Utara - Kota",
        "lat": -6.5708377,
        "lng": 106.8237374
      },
      "city": {
        "id": 481,
        "name": "Bogor, Kota",
        "lat": -6.5517758,
        "lng": 106.6291304
      },
      "province": {
        "id": 9,
        "name": "Jawa Barat",
        "lat": -7.090911,
        "lng": 107.668887
      },
      "country": {
        "id": 228,
        "name": "INDONESIA",
        "code": "ID"
      },
      "id": 13021,
      "name": "Cibuluh",
      "postcode": "16151",
      "lat": -6.5634339,
      "lng": 106.8148879
    },
    {
      "suburb": {
        "id": 1342,
        "name": "Bogor Utara - Kota",
        "lat": -6.5708377,
        "lng": 106.8237374
      },
      "city": {
        "id": 481,
        "name": "Bogor, Kota",
        "lat": -6.5517758,
        "lng": 106.6291304
      },
      "province": {
        "id": 9,
        "name": "Jawa Barat",
        "lat": -7.090911,
        "lng": 107.668887
      },
      "country": {
        "id": 228,
        "name": "INDONESIA",
        "code": "ID"
      },
      "id": 13022,
      "name": "Tegal Gundil",
      "postcode": "16152",
      "lat": -6.5788507,
      "lng": 106.8148879
    },
    {
      "suburb": {
        "id": 1343,
        "name": "Bogor Timur - Kota",
        "lat": -6.6119609,
        "lng": 106.8237374
      },
      "city": {
        "id": 481,
        "name": "Bogor, Kota",
        "lat": -6.5517758,
        "lng": 106.6291304
      },
      "province": {
        "id": 9,
        "name": "Jawa Barat",
        "lat": -7.090911,
        "lng": 107.668887
      },
      "country": {
        "id": 228,
        "name": "INDONESIA",
        "code": "ID"
      },
      "id": 13023,
      "name": "Sindangrasa",
      "postcode": "16145",
      "lat": -6.6359299,
      "lng": 106.8370122
    },
    {
      "suburb": {
        "id": 1343,
        "name": "Bogor Timur - Kota",
        "lat": -6.6119609,
        "lng": 106.8237374
      },
      "city": {
        "id": 481,
        "name": "Bogor, Kota",
        "lat": -6.5517758,
        "lng": 106.6291304
      },
      "province": {
        "id": 9,
        "name": "Jawa Barat",
        "lat": -7.090911,
        "lng": 107.668887
      },
      "country": {
        "id": 228,
        "name": "INDONESIA",
        "code": "ID"
      },
      "id": 13024,
      "name": "Sindangsari",
      "postcode": "16146",
      "lat": -6.6459104,
      "lng": 106.8458626
    },
    {
      "suburb": {
        "id": 1343,
        "name": "Bogor Timur - Kota",
        "lat": -6.6119609,
        "lng": 106.8237374
      },
      "city": {
        "id": 481,
        "name": "Bogor, Kota",
        "lat": -6.5517758,
        "lng": 106.6291304
      },
      "province": {
        "id": 9,
        "name": "Jawa Barat",
        "lat": -7.090911,
        "lng": 107.668887
      },
      "country": {
        "id": 228,
        "name": "INDONESIA",
        "code": "ID"
      },
      "id": 13025,
      "name": "Baranangsiang",
      "postcode": "16143",
      "lat": -6.6096958,
      "lng": 106.8148879
    },
    {
      "suburb": {
        "id": 1343,
        "name": "Bogor Timur - Kota",
        "lat": -6.6119609,
        "lng": 106.8237374
      },
      "city": {
        "id": 481,
        "name": "Bogor, Kota",
        "lat": -6.5517758,
        "lng": 106.6291304
      },
      "province": {
        "id": 9,
        "name": "Jawa Barat",
        "lat": -7.090911,
        "lng": 107.668887
      },
      "country": {
        "id": 228,
        "name": "INDONESIA",
        "code": "ID"
      },
      "id": 13026,
      "name": "Katulampa",
      "postcode": "16144",
      "lat": -6.61443,
      "lng": 106.8266873
    },
    {
      "suburb": {
        "id": 1343,
        "name": "Bogor Timur - Kota",
        "lat": -6.6119609,
        "lng": 106.8237374
      },
      "city": {
        "id": 481,
        "name": "Bogor, Kota",
        "lat": -6.5517758,
        "lng": 106.6291304
      },
      "province": {
        "id": 9,
        "name": "Jawa Barat",
        "lat": -7.090911,
        "lng": 107.668887
      },
      "country": {
        "id": 228,
        "name": "INDONESIA",
        "code": "ID"
      },
      "id": 13027,
      "name": "Tajur",
      "postcode": "16141",
      "lat": -6.6280066,
      "lng": 106.8244749
    },
    {
      "suburb": {
        "id": 1343,
        "name": "Bogor Timur - Kota",
        "lat": -6.6119609,
        "lng": 106.8237374
      },
      "city": {
        "id": 481,
        "name": "Bogor, Kota",
        "lat": -6.5517758,
        "lng": 106.6291304
      },
      "province": {
        "id": 9,
        "name": "Jawa Barat",
        "lat": -7.090911,
        "lng": 107.668887
      },
      "country": {
        "id": 228,
        "name": "INDONESIA",
        "code": "ID"
      },
      "id": 13028,
      "name": "Sukasari",
      "postcode": "16142",
      "lat": -6.6180778,
      "lng": 106.8141505
    },
    {
      "suburb": {
        "id": 1344,
        "name": "Bogor Selatan - Kota",
        "lat": -6.6428214,
        "lng": 106.8237374
      },
      "city": {
        "id": 481,
        "name": "Bogor, Kota",
        "lat": -6.5517758,
        "lng": 106.6291304
      },
      "province": {
        "id": 9,
        "name": "Jawa Barat",
        "lat": -7.090911,
        "lng": 107.668887
      },
      "country": {
        "id": 228,
        "name": "INDONESIA",
        "code": "ID"
      },
      "id": 13029,
      "name": "Bojongkerta",
      "postcode": "16139",
      "lat": -6.670609,
      "lng": 106.8384873
    },
    {
      "suburb": {
        "id": 1344,
        "name": "Bogor Selatan - Kota",
        "lat": -6.6428214,
        "lng": 106.8237374
      },
      "city": {
        "id": 481,
        "name": "Bogor, Kota",
        "lat": -6.5517758,
        "lng": 106.6291304
      },
      "province": {
        "id": 9,
        "name": "Jawa Barat",
        "lat": -7.090911,
        "lng": 107.668887
      },
      "country": {
        "id": 228,
        "name": "INDONESIA",
        "code": "ID"
      },
      "id": 13030,
      "name": "Rancamaya",
      "postcode": "16139",
      "lat": -6.6710208,
      "lng": 106.8266873
    },
    {
      "suburb": {
        "id": 1344,
        "name": "Bogor Selatan - Kota",
        "lat": -6.6428214,
        "lng": 106.8237374
      },
      "city": {
        "id": 481,
        "name": "Bogor, Kota",
        "lat": -6.5517758,
        "lng": 106.6291304
      },
      "province": {
        "id": 9,
        "name": "Jawa Barat",
        "lat": -7.090911,
        "lng": 107.668887
      },
      "country": {
        "id": 228,
        "name": "INDONESIA",
        "code": "ID"
      },
      "id": 13031,
      "name": "Harjasari",
      "postcode": "16138",
      "lat": -6.6537304,
      "lng": 106.8429124
    },
    {
      "suburb": {
        "id": 1344,
        "name": "Bogor Selatan - Kota",
        "lat": -6.6428214,
        "lng": 106.8237374
      },
      "city": {
        "id": 481,
        "name": "Bogor, Kota",
        "lat": -6.5517758,
        "lng": 106.6291304
      },
      "province": {
        "id": 9,
        "name": "Jawa Barat",
        "lat": -7.090911,
        "lng": 107.668887
      },
      "country": {
        "id": 228,
        "name": "INDONESIA",
        "code": "ID"
      },
      "id": 13032,
      "name": "Kertamaya",
      "postcode": "16138",
      "lat": -6.6555818,
      "lng": 106.8266873
    },
    {
      "suburb": {
        "id": 1344,
        "name": "Bogor Selatan - Kota",
        "lat": -6.6428214,
        "lng": 106.8237374
      },
      "city": {
        "id": 481,
        "name": "Bogor, Kota",
        "lat": -6.5517758,
        "lng": 106.6291304
      },
      "province": {
        "id": 9,
        "name": "Jawa Barat",
        "lat": -7.090911,
        "lng": 107.668887
      },
      "country": {
        "id": 228,
        "name": "INDONESIA",
        "code": "ID"
      },
      "id": 13033,
      "name": "Muarasari",
      "postcode": "16137",
      "lat": -6.6438513,
      "lng": 106.8311122
    },
    {
      "suburb": {
        "id": 1344,
        "name": "Bogor Selatan - Kota",
        "lat": -6.6428214,
        "lng": 106.8237374
      },
      "city": {
        "id": 481,
        "name": "Bogor, Kota",
        "lat": -6.5517758,
        "lng": 106.6291304
      },
      "province": {
        "id": 9,
        "name": "Jawa Barat",
        "lat": -7.090911,
        "lng": 107.668887
      },
      "country": {
        "id": 228,
        "name": "INDONESIA",
        "code": "ID"
      },
      "id": 13034,
      "name": "Ranggamekar",
      "postcode": "16136",
      "lat": -6.6242977,
      "lng": 106.8016144
    },
    {
      "suburb": {
        "id": 1344,
        "name": "Bogor Selatan - Kota",
        "lat": -6.6428214,
        "lng": 106.8237374
      },
      "city": {
        "id": 481,
        "name": "Bogor, Kota",
        "lat": -6.5517758,
        "lng": 106.6291304
      },
      "province": {
        "id": 9,
        "name": "Jawa Barat",
        "lat": -7.090911,
        "lng": 107.668887
      },
      "country": {
        "id": 228,
        "name": "INDONESIA",
        "code": "ID"
      },
      "id": 13035,
      "name": "Genteng",
      "postcode": "16137",
      "lat": -6.6508467,
      "lng": 106.8148879
    },
    {
      "suburb": {
        "id": 1344,
        "name": "Bogor Selatan - Kota",
        "lat": -6.6428214,
        "lng": 106.8237374
      },
      "city": {
        "id": 481,
        "name": "Bogor, Kota",
        "lat": -6.5517758,
        "lng": 106.6291304
      },
      "province": {
        "id": 9,
        "name": "Jawa Barat",
        "lat": -7.090911,
        "lng": 107.668887
      },
      "country": {
        "id": 228,
        "name": "INDONESIA",
        "code": "ID"
      },
      "id": 13036,
      "name": "Mulyaharja",
      "postcode": "16135",
      "lat": -6.6413749,
      "lng": 106.791291
    },
    {
      "suburb": {
        "id": 1344,
        "name": "Bogor Selatan - Kota",
        "lat": -6.6428214,
        "lng": 106.8237374
      },
      "city": {
        "id": 481,
        "name": "Bogor, Kota",
        "lat": -6.5517758,
        "lng": 106.6291304
      },
      "province": {
        "id": 9,
        "name": "Jawa Barat",
        "lat": -7.090911,
        "lng": 107.668887
      },
      "country": {
        "id": 228,
        "name": "INDONESIA",
        "code": "ID"
      },
      "id": 13037,
      "name": "Pamoyanan",
      "postcode": "16136",
      "lat": -6.6409658,
      "lng": 106.8030892
    },
    {
      "suburb": {
        "id": 1344,
        "name": "Bogor Selatan - Kota",
        "lat": -6.6428214,
        "lng": 106.8237374
      },
      "city": {
        "id": 481,
        "name": "Bogor, Kota",
        "lat": -6.5517758,
        "lng": 106.6291304
      },
      "province": {
        "id": 9,
        "name": "Jawa Barat",
        "lat": -7.090911,
        "lng": 107.668887
      },
      "country": {
        "id": 228,
        "name": "INDONESIA",
        "code": "ID"
      },
      "id": 13038,
      "name": "Lawang Gintung",
      "postcode": "16134",
      "lat": -6.6221539,
      "lng": 106.8131692
    },
    {
      "suburb": {
        "id": 1344,
        "name": "Bogor Selatan - Kota",
        "lat": -6.6428214,
        "lng": 106.8237374
      },
      "city": {
        "id": 481,
        "name": "Bogor, Kota",
        "lat": -6.5517758,
        "lng": 106.6291304
      },
      "province": {
        "id": 9,
        "name": "Jawa Barat",
        "lat": -7.090911,
        "lng": 107.668887
      },
      "country": {
        "id": 228,
        "name": "INDONESIA",
        "code": "ID"
      },
      "id": 13039,
      "name": "Pakuan",
      "postcode": "16134",
      "lat": -6.6312981,
      "lng": 106.8222625
    },
    {
      "suburb": {
        "id": 1344,
        "name": "Bogor Selatan - Kota",
        "lat": -6.6428214,
        "lng": 106.8237374
      },
      "city": {
        "id": 481,
        "name": "Bogor, Kota",
        "lat": -6.5517758,
        "lng": 106.6291304
      },
      "province": {
        "id": 9,
        "name": "Jawa Barat",
        "lat": -7.090911,
        "lng": 107.668887
      },
      "country": {
        "id": 228,
        "name": "INDONESIA",
        "code": "ID"
      },
      "id": 13040,
      "name": "Batutulis",
      "postcode": "16131",
      "lat": -6.6215219,
      "lng": 106.8075136
    },
    {
      "suburb": {
        "id": 1344,
        "name": "Bogor Selatan - Kota",
        "lat": -6.6428214,
        "lng": 106.8237374
      },
      "city": {
        "id": 481,
        "name": "Bogor, Kota",
        "lat": -6.5517758,
        "lng": 106.6291304
      },
      "province": {
        "id": 9,
        "name": "Jawa Barat",
        "lat": -7.090911,
        "lng": 107.668887
      },
      "country": {
        "id": 228,
        "name": "INDONESIA",
        "code": "ID"
      },
      "id": 13041,
      "name": "Cipaku",
      "postcode": "16133",
      "lat": -6.6340746,
      "lng": 106.8163628
    },
    {
      "suburb": {
        "id": 1344,
        "name": "Bogor Selatan - Kota",
        "lat": -6.6428214,
        "lng": 106.8237374
      },
      "city": {
        "id": 481,
        "name": "Bogor, Kota",
        "lat": -6.5517758,
        "lng": 106.6291304
      },
      "province": {
        "id": 9,
        "name": "Jawa Barat",
        "lat": -7.090911,
        "lng": 107.668887
      },
      "country": {
        "id": 228,
        "name": "INDONESIA",
        "code": "ID"
      },
      "id": 13042,
      "name": "Empang",
      "postcode": "16132",
      "lat": -6.6165827,
      "lng": 106.8016144
    },
    {
      "suburb": {
        "id": 1344,
        "name": "Bogor Selatan - Kota",
        "lat": -6.6428214,
        "lng": 106.8237374
      },
      "city": {
        "id": 481,
        "name": "Bogor, Kota",
        "lat": -6.5517758,
        "lng": 106.6291304
      },
      "province": {
        "id": 9,
        "name": "Jawa Barat",
        "lat": -7.090911,
        "lng": 107.668887
      },
      "country": {
        "id": 228,
        "name": "INDONESIA",
        "code": "ID"
      },
      "id": 13043,
      "name": "Bondongan",
      "postcode": "16131",
      "lat": -6.613241,
      "lng": 106.8053014
    },
    {
      "suburb": {
        "id": 1344,
        "name": "Bogor Selatan - Kota",
        "lat": -6.6428214,
        "lng": 106.8237374
      },
      "city": {
        "id": 481,
        "name": "Bogor, Kota",
        "lat": -6.5517758,
        "lng": 106.6291304
      },
      "province": {
        "id": 9,
        "name": "Jawa Barat",
        "lat": -7.090911,
        "lng": 107.668887
      },
      "country": {
        "id": 228,
        "name": "INDONESIA",
        "code": "ID"
      },
      "id": 13044,
      "name": "Cikaret",
      "postcode": "16132",
      "lat": -6.6145205,
      "lng": 106.7868669
    },
    {
      "suburb": {
        "id": 1345,
        "name": "Bogor Tengah - Kota",
        "lat": -6.5922089,
        "lng": 106.8001396
      },
      "city": {
        "id": 481,
        "name": "Bogor, Kota",
        "lat": -6.5517758,
        "lng": 106.6291304
      },
      "province": {
        "id": 9,
        "name": "Jawa Barat",
        "lat": -7.090911,
        "lng": 107.668887
      },
      "country": {
        "id": 228,
        "name": "INDONESIA",
        "code": "ID"
      },
      "id": 13045,
      "name": "Sempur",
      "postcode": "16129",
      "lat": -6.5909745,
      "lng": 106.7986648
    },
    {
      "suburb": {
        "id": 1345,
        "name": "Bogor Tengah - Kota",
        "lat": -6.5922089,
        "lng": 106.8001396
      },
      "city": {
        "id": 481,
        "name": "Bogor, Kota",
        "lat": -6.5517758,
        "lng": 106.6291304
      },
      "province": {
        "id": 9,
        "name": "Jawa Barat",
        "lat": -7.090911,
        "lng": 107.668887
      },
      "country": {
        "id": 228,
        "name": "INDONESIA",
        "code": "ID"
      },
      "id": 13046,
      "name": "Tegal Panjang",
      "postcode": "16129",
      "lat": -6.5922089,
      "lng": 106.8001396
    },
    {
      "suburb": {
        "id": 1345,
        "name": "Bogor Tengah - Kota",
        "lat": -6.5922089,
        "lng": 106.8001396
      },
      "city": {
        "id": 481,
        "name": "Bogor, Kota",
        "lat": -6.5517758,
        "lng": 106.6291304
      },
      "province": {
        "id": 9,
        "name": "Jawa Barat",
        "lat": -7.090911,
        "lng": 107.668887
      },
      "country": {
        "id": 228,
        "name": "INDONESIA",
        "code": "ID"
      },
      "id": 13047,
      "name": "Babakan",
      "postcode": "16128",
      "lat": -6.588201,
      "lng": 106.804564
    },
    {
      "suburb": {
        "id": 1345,
        "name": "Bogor Tengah - Kota",
        "lat": -6.5922089,
        "lng": 106.8001396
      },
      "city": {
        "id": 481,
        "name": "Bogor, Kota",
        "lat": -6.5517758,
        "lng": 106.6291304
      },
      "province": {
        "id": 9,
        "name": "Jawa Barat",
        "lat": -7.090911,
        "lng": 107.668887
      },
      "country": {
        "id": 228,
        "name": "INDONESIA",
        "code": "ID"
      },
      "id": 13048,
      "name": "Panaragan",
      "postcode": "16125",
      "lat": -6.59719,
      "lng": 106.7861296
    },
    {
      "suburb": {
        "id": 1345,
        "name": "Bogor Tengah - Kota",
        "lat": -6.5922089,
        "lng": 106.8001396
      },
      "city": {
        "id": 481,
        "name": "Bogor, Kota",
        "lat": -6.5517758,
        "lng": 106.6291304
      },
      "province": {
        "id": 9,
        "name": "Jawa Barat",
        "lat": -7.090911,
        "lng": 107.668887
      },
      "country": {
        "id": 228,
        "name": "INDONESIA",
        "code": "ID"
      },
      "id": 13049,
      "name": "Babakan Pasar",
      "postcode": "16126",
      "lat": -6.6056293,
      "lng": 106.8023518
    },
    {
      "suburb": {
        "id": 1345,
        "name": "Bogor Tengah - Kota",
        "lat": -6.5922089,
        "lng": 106.8001396
      },
      "city": {
        "id": 481,
        "name": "Bogor, Kota",
        "lat": -6.5517758,
        "lng": 106.6291304
      },
      "province": {
        "id": 9,
        "name": "Jawa Barat",
        "lat": -7.090911,
        "lng": 107.668887
      },
      "country": {
        "id": 228,
        "name": "INDONESIA",
        "code": "ID"
      },
      "id": 13050,
      "name": "Ciwaringin",
      "postcode": "16124",
      "lat": -6.5809975,
      "lng": 106.7898163
    },
    {
      "suburb": {
        "id": 1345,
        "name": "Bogor Tengah - Kota",
        "lat": -6.5922089,
        "lng": 106.8001396
      },
      "city": {
        "id": 481,
        "name": "Bogor, Kota",
        "lat": -6.5517758,
        "lng": 106.6291304
      },
      "province": {
        "id": 9,
        "name": "Jawa Barat",
        "lat": -7.090911,
        "lng": 107.668887
      },
      "country": {
        "id": 228,
        "name": "INDONESIA",
        "code": "ID"
      },
      "id": 13051,
      "name": "Kebon Kelapa",
      "postcode": "16125",
      "lat": -6.5908139,
      "lng": 106.7846549
    },
    {
      "suburb": {
        "id": 1345,
        "name": "Bogor Tengah - Kota",
        "lat": -6.5922089,
        "lng": 106.8001396
      },
      "city": {
        "id": 481,
        "name": "Bogor, Kota",
        "lat": -6.5517758,
        "lng": 106.6291304
      },
      "province": {
        "id": 9,
        "name": "Jawa Barat",
        "lat": -7.090911,
        "lng": 107.668887
      },
      "country": {
        "id": 228,
        "name": "INDONESIA",
        "code": "ID"
      },
      "id": 13052,
      "name": "Cibogor",
      "postcode": "16124",
      "lat": -6.5867045,
      "lng": 106.7920284
    },
    {
      "suburb": {
        "id": 1345,
        "name": "Bogor Tengah - Kota",
        "lat": -6.5922089,
        "lng": 106.8001396
      },
      "city": {
        "id": 481,
        "name": "Bogor, Kota",
        "lat": -6.5517758,
        "lng": 106.6291304
      },
      "province": {
        "id": 9,
        "name": "Jawa Barat",
        "lat": -7.090911,
        "lng": 107.668887
      },
      "country": {
        "id": 228,
        "name": "INDONESIA",
        "code": "ID"
      },
      "id": 13053,
      "name": "Paledang",
      "postcode": "16122",
      "lat": -6.6000226,
      "lng": 106.79719
    },
    {
      "suburb": {
        "id": 1345,
        "name": "Bogor Tengah - Kota",
        "lat": -6.5922089,
        "lng": 106.8001396
      },
      "city": {
        "id": 481,
        "name": "Bogor, Kota",
        "lat": -6.5517758,
        "lng": 106.6291304
      },
      "province": {
        "id": 9,
        "name": "Jawa Barat",
        "lat": -7.090911,
        "lng": 107.668887
      },
      "country": {
        "id": 228,
        "name": "INDONESIA",
        "code": "ID"
      },
      "id": 13054,
      "name": "Gudang",
      "postcode": "16123",
      "lat": -6.6070166,
      "lng": 106.7994022
    },
    {
      "suburb": {
        "id": 1346,
        "name": "Ciseeng",
        "lat": -6.4573251,
        "lng": 106.6880841
      },
      "city": {
        "id": 79,
        "name": "Bogor, Kab.",
        "lat": -6.5517758,
        "lng": 106.6291304
      },
      "province": {
        "id": 9,
        "name": "Jawa Barat",
        "lat": -7.090911,
        "lng": 107.668887
      },
      "country": {
        "id": 228,
        "name": "INDONESIA",
        "code": "ID"
      },
      "id": 13055,
      "name": "Putat Nutug",
      "postcode": "16384",
      "lat": -6.4657157,
      "lng": 106.6674484
    },
    {
      "suburb": {
        "id": 1345,
        "name": "Bogor Tengah - Kota",
        "lat": -6.5922089,
        "lng": 106.8001396
      },
      "city": {
        "id": 481,
        "name": "Bogor, Kota",
        "lat": -6.5517758,
        "lng": 106.6291304
      },
      "province": {
        "id": 9,
        "name": "Jawa Barat",
        "lat": -7.090911,
        "lng": 107.668887
      },
      "country": {
        "id": 228,
        "name": "INDONESIA",
        "code": "ID"
      },
      "id": 13056,
      "name": "Pabaton",
      "postcode": "16121",
      "lat": -6.5891735,
      "lng": 106.7949779
    },
    {
      "suburb": {
        "id": 1346,
        "name": "Ciseeng",
        "lat": -6.4573251,
        "lng": 106.6880841
      },
      "city": {
        "id": 79,
        "name": "Bogor, Kab.",
        "lat": -6.5517758,
        "lng": 106.6291304
      },
      "province": {
        "id": 9,
        "name": "Jawa Barat",
        "lat": -7.090911,
        "lng": 107.668887
      },
      "country": {
        "id": 228,
        "name": "INDONESIA",
        "code": "ID"
      },
      "id": 13057,
      "name": "Kuripan",
      "postcode": "16382",
      "lat": -6.4197281,
      "lng": 106.6615529
    },
    {
      "suburb": {
        "id": 1346,
        "name": "Ciseeng",
        "lat": -6.4573251,
        "lng": 106.6880841
      },
      "city": {
        "id": 79,
        "name": "Bogor, Kab.",
        "lat": -6.5517758,
        "lng": 106.6291304
      },
      "province": {
        "id": 9,
        "name": "Jawa Barat",
        "lat": -7.090911,
        "lng": 107.668887
      },
      "country": {
        "id": 228,
        "name": "INDONESIA",
        "code": "ID"
      },
      "id": 13058,
      "name": "Parigi Mekar",
      "postcode": "16388",
      "lat": -6.4493311,
      "lng": 106.6969285
    },
    {
      "suburb": {
        "id": 1346,
        "name": "Ciseeng",
        "lat": -6.4573251,
        "lng": 106.6880841
      },
      "city": {
        "id": 79,
        "name": "Bogor, Kab.",
        "lat": -6.5517758,
        "lng": 106.6291304
      },
      "province": {
        "id": 9,
        "name": "Jawa Barat",
        "lat": -7.090911,
        "lng": 107.668887
      },
      "country": {
        "id": 228,
        "name": "INDONESIA",
        "code": "ID"
      },
      "id": 13059,
      "name": "Ciseeng",
      "postcode": "16387",
      "lat": -6.4483936,
      "lng": 106.68661
    },
    {
      "suburb": {
        "id": 1346,
        "name": "Ciseeng",
        "lat": -6.4573251,
        "lng": 106.6880841
      },
      "city": {
        "id": 79,
        "name": "Bogor, Kab.",
        "lat": -6.5517758,
        "lng": 106.6291304
      },
      "province": {
        "id": 9,
        "name": "Jawa Barat",
        "lat": -7.090911,
        "lng": 107.668887
      },
      "country": {
        "id": 228,
        "name": "INDONESIA",
        "code": "ID"
      },
      "id": 13060,
      "name": "Karihkil",
      "postcode": "16385",
      "lat": -6.4858567,
      "lng": 106.67924
    },
    {
      "suburb": {
        "id": 1346,
        "name": "Ciseeng",
        "lat": -6.4573251,
        "lng": 106.6880841
      },
      "city": {
        "id": 79,
        "name": "Bogor, Kab.",
        "lat": -6.5517758,
        "lng": 106.6291304
      },
      "province": {
        "id": 9,
        "name": "Jawa Barat",
        "lat": -7.090911,
        "lng": 107.668887
      },
      "country": {
        "id": 228,
        "name": "INDONESIA",
        "code": "ID"
      },
      "id": 13061,
      "name": "Cibeuteung Udik",
      "postcode": "16383",
      "lat": -6.48546,
      "lng": 106.6910322
    },
    {
      "suburb": {
        "id": 1346,
        "name": "Ciseeng",
        "lat": -6.4573251,
        "lng": 106.6880841
      },
      "city": {
        "id": 79,
        "name": "Bogor, Kab.",
        "lat": -6.5517758,
        "lng": 106.6291304
      },
      "province": {
        "id": 9,
        "name": "Jawa Barat",
        "lat": -7.090911,
        "lng": 107.668887
      },
      "country": {
        "id": 228,
        "name": "INDONESIA",
        "code": "ID"
      },
      "id": 13062,
      "name": "Cihoe (Cihowe)",
      "postcode": "16389",
      "lat": -6.4305341,
      "lng": 106.683662
    },
    {
      "suburb": {
        "id": 1346,
        "name": "Ciseeng",
        "lat": -6.4573251,
        "lng": 106.6880841
      },
      "city": {
        "id": 79,
        "name": "Bogor, Kab.",
        "lat": -6.5517758,
        "lng": 106.6291304
      },
      "province": {
        "id": 9,
        "name": "Jawa Barat",
        "lat": -7.090911,
        "lng": 107.668887
      },
      "country": {
        "id": 228,
        "name": "INDONESIA",
        "code": "ID"
      },
      "id": 13063,
      "name": "Babakan",
      "postcode": "16386",
      "lat": -6.4647273,
      "lng": 106.6969285
    },
    {
      "suburb": {
        "id": 1346,
        "name": "Ciseeng",
        "lat": -6.4573251,
        "lng": 106.6880841
      },
      "city": {
        "id": 79,
        "name": "Bogor, Kab.",
        "lat": -6.5517758,
        "lng": 106.6291304
      },
      "province": {
        "id": 9,
        "name": "Jawa Barat",
        "lat": -7.090911,
        "lng": 107.668887
      },
      "country": {
        "id": 228,
        "name": "INDONESIA",
        "code": "ID"
      },
      "id": 13064,
      "name": "Cibentang",
      "postcode": "16381",
      "lat": -6.439857,
      "lng": 106.6733441
    },
    {
      "suburb": {
        "id": 1346,
        "name": "Ciseeng",
        "lat": -6.4573251,
        "lng": 106.6880841
      },
      "city": {
        "id": 79,
        "name": "Bogor, Kab.",
        "lat": -6.5517758,
        "lng": 106.6291304
      },
      "province": {
        "id": 9,
        "name": "Jawa Barat",
        "lat": -7.090911,
        "lng": 107.668887
      },
      "country": {
        "id": 228,
        "name": "INDONESIA",
        "code": "ID"
      },
      "id": 13065,
      "name": "Cibeuteung Muara",
      "postcode": "16383",
      "lat": -6.4453821,
      "lng": 106.6615529
    },
    {
      "suburb": {
        "id": 1347,
        "name": "Cigombong",
        "lat": -6.7462174,
        "lng": 106.8119382
      },
      "city": {
        "id": 79,
        "name": "Bogor, Kab.",
        "lat": -6.5517758,
        "lng": 106.6291304
      },
      "province": {
        "id": 9,
        "name": "Jawa Barat",
        "lat": -7.090911,
        "lng": 107.668887
      },
      "country": {
        "id": 228,
        "name": "INDONESIA",
        "code": "ID"
      },
      "id": 13066,
      "name": "Pasir Jaya",
      "postcode": "16747",
      "lat": -6.724376,
      "lng": 106.773595
    },
    {
      "suburb": {
        "id": 1348,
        "name": "Bogor Barat - Kota",
        "lat": -6.5728619,
        "lng": 106.7647475
      },
      "city": {
        "id": 481,
        "name": "Bogor, Kota",
        "lat": -6.5517758,
        "lng": 106.6291304
      },
      "province": {
        "id": 9,
        "name": "Jawa Barat",
        "lat": -7.090911,
        "lng": 107.668887
      },
      "country": {
        "id": 228,
        "name": "INDONESIA",
        "code": "ID"
      },
      "id": 13067,
      "name": "Pasir Kuda",
      "postcode": "16119",
      "lat": -6.6069078,
      "lng": 106.7839175
    },
    {
      "suburb": {
        "id": 1348,
        "name": "Bogor Barat - Kota",
        "lat": -6.5728619,
        "lng": 106.7647475
      },
      "city": {
        "id": 481,
        "name": "Bogor, Kota",
        "lat": -6.5517758,
        "lng": 106.6291304
      },
      "province": {
        "id": 9,
        "name": "Jawa Barat",
        "lat": -7.090911,
        "lng": 107.668887
      },
      "country": {
        "id": 228,
        "name": "INDONESIA",
        "code": "ID"
      },
      "id": 13068,
      "name": "Pasir Mulya",
      "postcode": "16118",
      "lat": -6.5969279,
      "lng": 106.7750696
    },
    {
      "suburb": {
        "id": 1348,
        "name": "Bogor Barat - Kota",
        "lat": -6.5728619,
        "lng": 106.7647475
      },
      "city": {
        "id": 481,
        "name": "Bogor, Kota",
        "lat": -6.5517758,
        "lng": 106.6291304
      },
      "province": {
        "id": 9,
        "name": "Jawa Barat",
        "lat": -7.090911,
        "lng": 107.668887
      },
      "country": {
        "id": 228,
        "name": "INDONESIA",
        "code": "ID"
      },
      "id": 13069,
      "name": "Pasir Jaya",
      "postcode": "16119",
      "lat": -6.6143168,
      "lng": 106.7927658
    },
    {
      "suburb": {
        "id": 1348,
        "name": "Bogor Barat - Kota",
        "lat": -6.5728619,
        "lng": 106.7647475
      },
      "city": {
        "id": 481,
        "name": "Bogor, Kota",
        "lat": -6.5517758,
        "lng": 106.6291304
      },
      "province": {
        "id": 9,
        "name": "Jawa Barat",
        "lat": -7.090911,
        "lng": 107.668887
      },
      "country": {
        "id": 228,
        "name": "INDONESIA",
        "code": "ID"
      },
      "id": 13070,
      "name": "Sindangbarang",
      "postcode": "16117",
      "lat": -6.5768688,
      "lng": 106.7603239
    },
    {
      "suburb": {
        "id": 1348,
        "name": "Bogor Barat - Kota",
        "lat": -6.5728619,
        "lng": 106.7647475
      },
      "city": {
        "id": 481,
        "name": "Bogor, Kota",
        "lat": -6.5517758,
        "lng": 106.6291304
      },
      "province": {
        "id": 9,
        "name": "Jawa Barat",
        "lat": -7.090911,
        "lng": 107.668887
      },
      "country": {
        "id": 228,
        "name": "INDONESIA",
        "code": "ID"
      },
      "id": 13071,
      "name": "Gunungbatu",
      "postcode": "16118",
      "lat": -6.5917861,
      "lng": 106.7750696
    },
    {
      "suburb": {
        "id": 1348,
        "name": "Bogor Barat - Kota",
        "lat": -6.5728619,
        "lng": 106.7647475
      },
      "city": {
        "id": 481,
        "name": "Bogor, Kota",
        "lat": -6.5517758,
        "lng": 106.6291304
      },
      "province": {
        "id": 9,
        "name": "Jawa Barat",
        "lat": -7.090911,
        "lng": 107.668887
      },
      "country": {
        "id": 228,
        "name": "INDONESIA",
        "code": "ID"
      },
      "id": 13072,
      "name": "Margajaya",
      "postcode": "16116",
      "lat": -6.5696628,
      "lng": 106.7455792
    },
    {
      "suburb": {
        "id": 1348,
        "name": "Bogor Barat - Kota",
        "lat": -6.5728619,
        "lng": 106.7647475
      },
      "city": {
        "id": 481,
        "name": "Bogor, Kota",
        "lat": -6.5517758,
        "lng": 106.6291304
      },
      "province": {
        "id": 9,
        "name": "Jawa Barat",
        "lat": -7.090911,
        "lng": 107.668887
      },
      "country": {
        "id": 228,
        "name": "INDONESIA",
        "code": "ID"
      },
      "id": 13073,
      "name": "Loji",
      "postcode": "16117",
      "lat": -6.5868473,
      "lng": 106.7691712
    },
    {
      "suburb": {
        "id": 1348,
        "name": "Bogor Barat - Kota",
        "lat": -6.5728619,
        "lng": 106.7647475
      },
      "city": {
        "id": 481,
        "name": "Bogor, Kota",
        "lat": -6.5517758,
        "lng": 106.6291304
      },
      "province": {
        "id": 9,
        "name": "Jawa Barat",
        "lat": -7.090911,
        "lng": 107.668887
      },
      "country": {
        "id": 228,
        "name": "INDONESIA",
        "code": "ID"
      },
      "id": 13074,
      "name": "Balungbang Jaya",
      "postcode": "16116",
      "lat": -6.5728619,
      "lng": 106.7647475
    },
    {
      "suburb": {
        "id": 1348,
        "name": "Bogor Barat - Kota",
        "lat": -6.5728619,
        "lng": 106.7647475
      },
      "city": {
        "id": 481,
        "name": "Bogor, Kota",
        "lat": -6.5517758,
        "lng": 106.6291304
      },
      "province": {
        "id": 9,
        "name": "Jawa Barat",
        "lat": -7.090911,
        "lng": 107.668887
      },
      "country": {
        "id": 228,
        "name": "INDONESIA",
        "code": "ID"
      },
      "id": 13075,
      "name": "Situ Gede",
      "postcode": "16115",
      "lat": -6.5504395,
      "lng": 106.7441048
    },
    {
      "suburb": {
        "id": 1348,
        "name": "Bogor Barat - Kota",
        "lat": -6.5728619,
        "lng": 106.7647475
      },
      "city": {
        "id": 481,
        "name": "Bogor, Kota",
        "lat": -6.5517758,
        "lng": 106.6291304
      },
      "province": {
        "id": 9,
        "name": "Jawa Barat",
        "lat": -7.090911,
        "lng": 107.668887
      },
      "country": {
        "id": 228,
        "name": "INDONESIA",
        "code": "ID"
      },
      "id": 13076,
      "name": "Bubulak",
      "postcode": "16115",
      "lat": -6.5616504,
      "lng": 106.7544259
    },
    {
      "suburb": {
        "id": 1348,
        "name": "Bogor Barat - Kota",
        "lat": -6.5728619,
        "lng": 106.7647475
      },
      "city": {
        "id": 481,
        "name": "Bogor, Kota",
        "lat": -6.5517758,
        "lng": 106.6291304
      },
      "province": {
        "id": 9,
        "name": "Jawa Barat",
        "lat": -7.090911,
        "lng": 107.668887
      },
      "country": {
        "id": 228,
        "name": "INDONESIA",
        "code": "ID"
      },
      "id": 13077,
      "name": "Curug Mekar",
      "postcode": "16113",
      "lat": -6.5566045,
      "lng": 106.7686088
    },
    {
      "suburb": {
        "id": 1348,
        "name": "Bogor Barat - Kota",
        "lat": -6.5728619,
        "lng": 106.7647475
      },
      "city": {
        "id": 481,
        "name": "Bogor, Kota",
        "lat": -6.5517758,
        "lng": 106.6291304
      },
      "province": {
        "id": 9,
        "name": "Jawa Barat",
        "lat": -7.090911,
        "lng": 107.668887
      },
      "country": {
        "id": 228,
        "name": "INDONESIA",
        "code": "ID"
      },
      "id": 13078,
      "name": "Semplak",
      "postcode": "16114",
      "lat": -6.5588791,
      "lng": 106.7603239
    },
    {
      "suburb": {
        "id": 1348,
        "name": "Bogor Barat - Kota",
        "lat": -6.5728619,
        "lng": 106.7647475
      },
      "city": {
        "id": 481,
        "name": "Bogor, Kota",
        "lat": -6.5517758,
        "lng": 106.6291304
      },
      "province": {
        "id": 9,
        "name": "Jawa Barat",
        "lat": -7.090911,
        "lng": 107.668887
      },
      "country": {
        "id": 228,
        "name": "INDONESIA",
        "code": "ID"
      },
      "id": 13079,
      "name": "Cilendek Timur",
      "postcode": "16112",
      "lat": -6.5675823,
      "lng": 106.7766003
    },
    {
      "suburb": {
        "id": 1348,
        "name": "Bogor Barat - Kota",
        "lat": -6.5728619,
        "lng": 106.7647475
      },
      "city": {
        "id": 481,
        "name": "Bogor, Kota",
        "lat": -6.5517758,
        "lng": 106.6291304
      },
      "province": {
        "id": 9,
        "name": "Jawa Barat",
        "lat": -7.090911,
        "lng": 107.668887
      },
      "country": {
        "id": 228,
        "name": "INDONESIA",
        "code": "ID"
      },
      "id": 13080,
      "name": "Curug",
      "postcode": "16113",
      "lat": -6.5496346,
      "lng": 106.7676967
    },
    {
      "suburb": {
        "id": 1348,
        "name": "Bogor Barat - Kota",
        "lat": -6.5728619,
        "lng": 106.7647475
      },
      "city": {
        "id": 481,
        "name": "Bogor, Kota",
        "lat": -6.5517758,
        "lng": 106.6291304
      },
      "province": {
        "id": 9,
        "name": "Jawa Barat",
        "lat": -7.090911,
        "lng": 107.668887
      },
      "country": {
        "id": 228,
        "name": "INDONESIA",
        "code": "ID"
      },
      "id": 13081,
      "name": "Menteng",
      "postcode": "16111",
      "lat": -6.5800668,
      "lng": 106.7794935
    },
    {
      "suburb": {
        "id": 1348,
        "name": "Bogor Barat - Kota",
        "lat": -6.5728619,
        "lng": 106.7647475
      },
      "city": {
        "id": 481,
        "name": "Bogor, Kota",
        "lat": -6.5517758,
        "lng": 106.6291304
      },
      "province": {
        "id": 9,
        "name": "Jawa Barat",
        "lat": -7.090911,
        "lng": 107.668887
      },
      "country": {
        "id": 228,
        "name": "INDONESIA",
        "code": "ID"
      },
      "id": 13082,
      "name": "Cilendek Barat",
      "postcode": "16112",
      "lat": -6.5689564,
      "lng": 106.7662221
    },
    {
      "suburb": {
        "id": 1347,
        "name": "Cigombong",
        "lat": -6.7462174,
        "lng": 106.8119382
      },
      "city": {
        "id": 79,
        "name": "Bogor, Kab.",
        "lat": -6.5517758,
        "lng": 106.6291304
      },
      "province": {
        "id": 9,
        "name": "Jawa Barat",
        "lat": -7.090911,
        "lng": 107.668887
      },
      "country": {
        "id": 228,
        "name": "INDONESIA",
        "code": "ID"
      },
      "id": 13083,
      "name": "Tugujaya",
      "postcode": "16749",
      "lat": -6.7396287,
      "lng": 106.7794935
    },
    {
      "suburb": {
        "id": 1347,
        "name": "Cigombong",
        "lat": -6.7462174,
        "lng": 106.8119382
      },
      "city": {
        "id": 79,
        "name": "Bogor, Kab.",
        "lat": -6.5517758,
        "lng": 106.6291304
      },
      "province": {
        "id": 9,
        "name": "Jawa Barat",
        "lat": -7.090911,
        "lng": 107.668887
      },
      "country": {
        "id": 228,
        "name": "INDONESIA",
        "code": "ID"
      },
      "id": 13084,
      "name": "Watesjaya",
      "postcode": "16742",
      "lat": -6.7565254,
      "lng": 106.8119382
    },
    {
      "suburb": {
        "id": 1347,
        "name": "Cigombong",
        "lat": -6.7462174,
        "lng": 106.8119382
      },
      "city": {
        "id": 79,
        "name": "Bogor, Kab.",
        "lat": -6.5517758,
        "lng": 106.6291304
      },
      "province": {
        "id": 9,
        "name": "Jawa Barat",
        "lat": -7.090911,
        "lng": 107.668887
      },
      "country": {
        "id": 228,
        "name": "INDONESIA",
        "code": "ID"
      },
      "id": 13085,
      "name": "Cisalada",
      "postcode": "16748",
      "lat": -6.7336818,
      "lng": 106.7938517
    },
    {
      "suburb": {
        "id": 1347,
        "name": "Cigombong",
        "lat": -6.7462174,
        "lng": 106.8119382
      },
      "city": {
        "id": 79,
        "name": "Bogor, Kab.",
        "lat": -6.5517758,
        "lng": 106.6291304
      },
      "province": {
        "id": 9,
        "name": "Jawa Barat",
        "lat": -7.090911,
        "lng": 107.668887
      },
      "country": {
        "id": 228,
        "name": "INDONESIA",
        "code": "ID"
      },
      "id": 13086,
      "name": "Srogol",
      "postcode": "16743",
      "lat": -6.7420925,
      "lng": 106.8193126
    },
    {
      "suburb": {
        "id": 1347,
        "name": "Cigombong",
        "lat": -6.7462174,
        "lng": 106.8119382
      },
      "city": {
        "id": 79,
        "name": "Bogor, Kab.",
        "lat": -6.5517758,
        "lng": 106.6291304
      },
      "province": {
        "id": 9,
        "name": "Jawa Barat",
        "lat": -7.090911,
        "lng": 107.668887
      },
      "country": {
        "id": 228,
        "name": "INDONESIA",
        "code": "ID"
      },
      "id": 13087,
      "name": "Ciburuy",
      "postcode": "16745",
      "lat": -6.7334385,
      "lng": 106.8089885
    },
    {
      "suburb": {
        "id": 1347,
        "name": "Cigombong",
        "lat": -6.7462174,
        "lng": 106.8119382
      },
      "city": {
        "id": 79,
        "name": "Bogor, Kab.",
        "lat": -6.5517758,
        "lng": 106.6291304
      },
      "province": {
        "id": 9,
        "name": "Jawa Barat",
        "lat": -7.090911,
        "lng": 107.668887
      },
      "country": {
        "id": 228,
        "name": "INDONESIA",
        "code": "ID"
      },
      "id": 13088,
      "name": "Cigombong",
      "postcode": "16741",
      "lat": -6.7479735,
      "lng": 106.7986648
    },
    {
      "suburb": {
        "id": 1347,
        "name": "Cigombong",
        "lat": -6.7462174,
        "lng": 106.8119382
      },
      "city": {
        "id": 79,
        "name": "Bogor, Kab.",
        "lat": -6.5517758,
        "lng": 106.6291304
      },
      "province": {
        "id": 9,
        "name": "Jawa Barat",
        "lat": -7.090911,
        "lng": 107.668887
      },
      "country": {
        "id": 228,
        "name": "INDONESIA",
        "code": "ID"
      },
      "id": 13089,
      "name": "Ciadeg",
      "postcode": "16744",
      "lat": -6.7128315,
      "lng": 106.8089885
    },
    {
      "suburb": {
        "id": 1347,
        "name": "Cigombong",
        "lat": -6.7462174,
        "lng": 106.8119382
      },
      "city": {
        "id": 79,
        "name": "Bogor, Kab.",
        "lat": -6.5517758,
        "lng": 106.6291304
      },
      "province": {
        "id": 9,
        "name": "Jawa Barat",
        "lat": -7.090911,
        "lng": 107.668887
      },
      "country": {
        "id": 228,
        "name": "INDONESIA",
        "code": "ID"
      },
      "id": 13090,
      "name": "Ciburayut",
      "postcode": "16746",
      "lat": -6.7198397,
      "lng": 106.7927658
    },
    {
      "suburb": {
        "id": 1349,
        "name": "Kebonagung",
        "lat": -6.9932447,
        "lng": 110.7003268
      },
      "city": {
        "id": 81,
        "name": "Demak",
        "lat": -6.9238879,
        "lng": 110.6645683
      },
      "province": {
        "id": 10,
        "name": "Jawa Tengah",
        "lat": -7.150975,
        "lng": 110.1402594
      },
      "country": {
        "id": 228,
        "name": "INDONESIA",
        "code": "ID"
      },
      "id": 13091,
      "name": "Tlogosih",
      "postcode": "59583",
      "lat": -6.9908446,
      "lng": 110.6973469
    },
    {
      "suburb": {
        "id": 1350,
        "name": "Mijen",
        "lat": -6.8109096,
        "lng": 110.7003268
      },
      "city": {
        "id": 81,
        "name": "Demak",
        "lat": -6.9238879,
        "lng": 110.6645683
      },
      "province": {
        "id": 10,
        "name": "Jawa Tengah",
        "lat": -7.150975,
        "lng": 110.1402594
      },
      "country": {
        "id": 228,
        "name": "INDONESIA",
        "code": "ID"
      },
      "id": 13092,
      "name": "Tanggul",
      "postcode": "59583",
      "lat": -6.8157018,
      "lng": 110.7062867
    },
    {
      "suburb": {
        "id": 1349,
        "name": "Kebonagung",
        "lat": -6.9932447,
        "lng": 110.7003268
      },
      "city": {
        "id": 81,
        "name": "Demak",
        "lat": -6.9238879,
        "lng": 110.6645683
      },
      "province": {
        "id": 10,
        "name": "Jawa Tengah",
        "lat": -7.150975,
        "lng": 110.1402594
      },
      "country": {
        "id": 228,
        "name": "INDONESIA",
        "code": "ID"
      },
      "id": 13093,
      "name": "Werdoyo",
      "postcode": "59583",
      "lat": -7.019645,
      "lng": 110.7331063
    },
    {
      "suburb": {
        "id": 1349,
        "name": "Kebonagung",
        "lat": -6.9932447,
        "lng": 110.7003268
      },
      "city": {
        "id": 81,
        "name": "Demak",
        "lat": -6.9238879,
        "lng": 110.6645683
      },
      "province": {
        "id": 10,
        "name": "Jawa Tengah",
        "lat": -7.150975,
        "lng": 110.1402594
      },
      "country": {
        "id": 228,
        "name": "INDONESIA",
        "code": "ID"
      },
      "id": 13094,
      "name": "Solowire",
      "postcode": "59583",
      "lat": -6.9764437,
      "lng": 110.6794676
    },
    {
      "suburb": {
        "id": 1349,
        "name": "Kebonagung",
        "lat": -6.9932447,
        "lng": 110.7003268
      },
      "city": {
        "id": 81,
        "name": "Demak",
        "lat": -6.9238879,
        "lng": 110.6645683
      },
      "province": {
        "id": 10,
        "name": "Jawa Tengah",
        "lat": -7.150975,
        "lng": 110.1402594
      },
      "country": {
        "id": 228,
        "name": "INDONESIA",
        "code": "ID"
      },
      "id": 13095,
      "name": "Sarimulyo",
      "postcode": "59583",
      "lat": -6.9901883,
      "lng": 110.6839374
    },
    {
      "suburb": {
        "id": 1349,
        "name": "Kebonagung",
        "lat": -6.9932447,
        "lng": 110.7003268
      },
      "city": {
        "id": 81,
        "name": "Demak",
        "lat": -6.9238879,
        "lng": 110.6645683
      },
      "province": {
        "id": 10,
        "name": "Jawa Tengah",
        "lat": -7.150975,
        "lng": 110.1402594
      },
      "country": {
        "id": 228,
        "name": "INDONESIA",
        "code": "ID"
      },
      "id": 13096,
      "name": "Soko Kidul",
      "postcode": "59583",
      "lat": -6.9750867,
      "lng": 110.7092666
    },
    {
      "suburb": {
        "id": 1350,
        "name": "Mijen",
        "lat": -6.8109096,
        "lng": 110.7003268
      },
      "city": {
        "id": 81,
        "name": "Demak",
        "lat": -6.9238879,
        "lng": 110.6645683
      },
      "province": {
        "id": 10,
        "name": "Jawa Tengah",
        "lat": -7.150975,
        "lng": 110.1402594
      },
      "country": {
        "id": 228,
        "name": "INDONESIA",
        "code": "ID"
      },
      "id": 13097,
      "name": "Rejosari",
      "postcode": "59583",
      "lat": -6.7763096,
      "lng": 110.6824474
    },
    {
      "suburb": {
        "id": 1349,
        "name": "Kebonagung",
        "lat": -6.9932447,
        "lng": 110.7003268
      },
      "city": {
        "id": 81,
        "name": "Demak",
        "lat": -6.9238879,
        "lng": 110.6645683
      },
      "province": {
        "id": 10,
        "name": "Jawa Tengah",
        "lat": -7.150975,
        "lng": 110.1402594
      },
      "country": {
        "id": 228,
        "name": "INDONESIA",
        "code": "ID"
      },
      "id": 13098,
      "name": "Prigi",
      "postcode": "59583",
      "lat": -7.0068806,
      "lng": 110.6794676
    },
    {
      "suburb": {
        "id": 1349,
        "name": "Kebonagung",
        "lat": -6.9932447,
        "lng": 110.7003268
      },
      "city": {
        "id": 81,
        "name": "Demak",
        "lat": -6.9238879,
        "lng": 110.6645683
      },
      "province": {
        "id": 10,
        "name": "Jawa Tengah",
        "lat": -7.150975,
        "lng": 110.1402594
      },
      "country": {
        "id": 228,
        "name": "INDONESIA",
        "code": "ID"
      },
      "id": 13099,
      "name": "Pilangwetan",
      "postcode": "59583",
      "lat": -7.0412084,
      "lng": 110.6779776
    },
    {
      "suburb": {
        "id": 1350,
        "name": "Mijen",
        "lat": -6.8109096,
        "lng": 110.7003268
      },
      "city": {
        "id": 81,
        "name": "Demak",
        "lat": -6.9238879,
        "lng": 110.6645683
      },
      "province": {
        "id": 10,
        "name": "Jawa Tengah",
        "lat": -7.150975,
        "lng": 110.1402594
      },
      "country": {
        "id": 228,
        "name": "INDONESIA",
        "code": "ID"
      },
      "id": 13100,
      "name": "Pasir",
      "postcode": "59583",
      "lat": -6.8071766,
      "lng": 110.670528
    },
    {
      "suburb": {
        "id": 1350,
        "name": "Mijen",
        "lat": -6.8109096,
        "lng": 110.7003268
      },
      "city": {
        "id": 81,
        "name": "Demak",
        "lat": -6.9238879,
        "lng": 110.6645683
      },
      "province": {
        "id": 10,
        "name": "Jawa Tengah",
        "lat": -7.150975,
        "lng": 110.1402594
      },
      "country": {
        "id": 228,
        "name": "INDONESIA",
        "code": "ID"
      },
      "id": 13101,
      "name": "Pecuk",
      "postcode": "59583",
      "lat": -6.8013313,
      "lng": 110.7167165
    },
    {
      "suburb": {
        "id": 1350,
        "name": "Mijen",
        "lat": -6.8109096,
        "lng": 110.7003268
      },
      "city": {
        "id": 81,
        "name": "Demak",
        "lat": -6.9238879,
        "lng": 110.6645683
      },
      "province": {
        "id": 10,
        "name": "Jawa Tengah",
        "lat": -7.150975,
        "lng": 110.1402594
      },
      "country": {
        "id": 228,
        "name": "INDONESIA",
        "code": "ID"
      },
      "id": 13102,
      "name": "Ngelo Kulon",
      "postcode": "59583",
      "lat": -6.8039861,
      "lng": 110.6854273
    },
    {
      "suburb": {
        "id": 1350,
        "name": "Mijen",
        "lat": -6.8109096,
        "lng": 110.7003268
      },
      "city": {
        "id": 81,
        "name": "Demak",
        "lat": -6.9238879,
        "lng": 110.6645683
      },
      "province": {
        "id": 10,
        "name": "Jawa Tengah",
        "lat": -7.150975,
        "lng": 110.1402594
      },
      "country": {
        "id": 228,
        "name": "INDONESIA",
        "code": "ID"
      },
      "id": 13103,
      "name": "Ngelo Wetan",
      "postcode": "59583",
      "lat": -6.8416601,
      "lng": 110.7196964
    },
    {
      "suburb": {
        "id": 1350,
        "name": "Mijen",
        "lat": -6.8109096,
        "lng": 110.7003268
      },
      "city": {
        "id": 81,
        "name": "Demak",
        "lat": -6.9238879,
        "lng": 110.6645683
      },
      "province": {
        "id": 10,
        "name": "Jawa Tengah",
        "lat": -7.150975,
        "lng": 110.1402594
      },
      "country": {
        "id": 228,
        "name": "INDONESIA",
        "code": "ID"
      },
      "id": 13104,
      "name": "Mijen",
      "postcode": "59583",
      "lat": -6.7970756,
      "lng": 110.7271464
    },
    {
      "suburb": {
        "id": 1350,
        "name": "Mijen",
        "lat": -6.8109096,
        "lng": 110.7003268
      },
      "city": {
        "id": 81,
        "name": "Demak",
        "lat": -6.9238879,
        "lng": 110.6645683
      },
      "province": {
        "id": 10,
        "name": "Jawa Tengah",
        "lat": -7.150975,
        "lng": 110.1402594
      },
      "country": {
        "id": 228,
        "name": "INDONESIA",
        "code": "ID"
      },
      "id": 13105,
      "name": "Mlaten",
      "postcode": "59583",
      "lat": -6.8332728,
      "lng": 110.7092666
    },
    {
      "suburb": {
        "id": 1350,
        "name": "Mijen",
        "lat": -6.8109096,
        "lng": 110.7003268
      },
      "city": {
        "id": 81,
        "name": "Demak",
        "lat": -6.9238879,
        "lng": 110.6645683
      },
      "province": {
        "id": 10,
        "name": "Jawa Tengah",
        "lat": -7.150975,
        "lng": 110.1402594
      },
      "country": {
        "id": 228,
        "name": "INDONESIA",
        "code": "ID"
      },
      "id": 13106,
      "name": "Ngegot",
      "postcode": "59583",
      "lat": -6.7846945,
      "lng": 110.692877
    },
    {
      "suburb": {
        "id": 1349,
        "name": "Kebonagung",
        "lat": -6.9932447,
        "lng": 110.7003268
      },
      "city": {
        "id": 81,
        "name": "Demak",
        "lat": -6.9238879,
        "lng": 110.6645683
      },
      "province": {
        "id": 10,
        "name": "Jawa Tengah",
        "lat": -7.150975,
        "lng": 110.1402594
      },
      "country": {
        "id": 228,
        "name": "INDONESIA",
        "code": "ID"
      },
      "id": 13107,
      "name": "Megonten",
      "postcode": "59583",
      "lat": -6.9846847,
      "lng": 110.7211864
    },
    {
      "suburb": {
        "id": 1349,
        "name": "Kebonagung",
        "lat": -6.9932447,
        "lng": 110.7003268
      },
      "city": {
        "id": 81,
        "name": "Demak",
        "lat": -6.9238879,
        "lng": 110.6645683
      },
      "province": {
        "id": 10,
        "name": "Jawa Tengah",
        "lat": -7.150975,
        "lng": 110.1402594
      },
      "country": {
        "id": 228,
        "name": "INDONESIA",
        "code": "ID"
      },
      "id": 13108,
      "name": "Mijen",
      "postcode": "59583",
      "lat": -7.0252663,
      "lng": 110.7211864
    },
    {
      "suburb": {
        "id": 1349,
        "name": "Kebonagung",
        "lat": -6.9932447,
        "lng": 110.7003268
      },
      "city": {
        "id": 81,
        "name": "Demak",
        "lat": -6.9238879,
        "lng": 110.6645683
      },
      "province": {
        "id": 10,
        "name": "Jawa Tengah",
        "lat": -7.150975,
        "lng": 110.1402594
      },
      "country": {
        "id": 228,
        "name": "INDONESIA",
        "code": "ID"
      },
      "id": 13109,
      "name": "Klampok Lor",
      "postcode": "59583",
      "lat": -7.0092545,
      "lng": 110.7107566
    },
    {
      "suburb": {
        "id": 1349,
        "name": "Kebonagung",
        "lat": -6.9932447,
        "lng": 110.7003268
      },
      "city": {
        "id": 81,
        "name": "Demak",
        "lat": -6.9238879,
        "lng": 110.6645683
      },
      "province": {
        "id": 10,
        "name": "Jawa Tengah",
        "lat": -7.150975,
        "lng": 110.1402594
      },
      "country": {
        "id": 228,
        "name": "INDONESIA",
        "code": "ID"
      },
      "id": 13110,
      "name": "Mangunan Lor",
      "postcode": "59583",
      "lat": -7.0063086,
      "lng": 110.7196964
    },
    {
      "suburb": {
        "id": 1349,
        "name": "Kebonagung",
        "lat": -6.9932447,
        "lng": 110.7003268
      },
      "city": {
        "id": 81,
        "name": "Demak",
        "lat": -6.9238879,
        "lng": 110.6645683
      },
      "province": {
        "id": 10,
        "name": "Jawa Tengah",
        "lat": -7.150975,
        "lng": 110.1402594
      },
      "country": {
        "id": 228,
        "name": "INDONESIA",
        "code": "ID"
      },
      "id": 13111,
      "name": "Mangunrejo",
      "postcode": "59583",
      "lat": -7.0065526,
      "lng": 110.7420464
    },
    {
      "suburb": {
        "id": 1349,
        "name": "Kebonagung",
        "lat": -6.9932447,
        "lng": 110.7003268
      },
      "city": {
        "id": 81,
        "name": "Demak",
        "lat": -6.9238879,
        "lng": 110.6645683
      },
      "province": {
        "id": 10,
        "name": "Jawa Tengah",
        "lat": -7.150975,
        "lng": 110.1402594
      },
      "country": {
        "id": 228,
        "name": "INDONESIA",
        "code": "ID"
      },
      "id": 13112,
      "name": "Kebonagung",
      "postcode": "59583",
      "lat": -7.0111369,
      "lng": 110.6973469
    },
    {
      "suburb": {
        "id": 1350,
        "name": "Mijen",
        "lat": -6.8109096,
        "lng": 110.7003268
      },
      "city": {
        "id": 81,
        "name": "Demak",
        "lat": -6.9238879,
        "lng": 110.6645683
      },
      "province": {
        "id": 10,
        "name": "Jawa Tengah",
        "lat": -7.150975,
        "lng": 110.1402594
      },
      "country": {
        "id": 228,
        "name": "INDONESIA",
        "code": "ID"
      },
      "id": 13113,
      "name": "Jleper",
      "postcode": "59583",
      "lat": -6.7981352,
      "lng": 110.7033067
    },
    {
      "suburb": {
        "id": 1350,
        "name": "Mijen",
        "lat": -6.8109096,
        "lng": 110.7003268
      },
      "city": {
        "id": 81,
        "name": "Demak",
        "lat": -6.9238879,
        "lng": 110.6645683
      },
      "province": {
        "id": 10,
        "name": "Jawa Tengah",
        "lat": -7.150975,
        "lng": 110.1402594
      },
      "country": {
        "id": 228,
        "name": "INDONESIA",
        "code": "ID"
      },
      "id": 13114,
      "name": "Gempolsongo",
      "postcode": "59583",
      "lat": -6.7998723,
      "lng": 110.7494964
    },
    {
      "suburb": {
        "id": 1350,
        "name": "Mijen",
        "lat": -6.8109096,
        "lng": 110.7003268
      },
      "city": {
        "id": 81,
        "name": "Demak",
        "lat": -6.9238879,
        "lng": 110.6645683
      },
      "province": {
        "id": 10,
        "name": "Jawa Tengah",
        "lat": -7.150975,
        "lng": 110.1402594
      },
      "country": {
        "id": 228,
        "name": "INDONESIA",
        "code": "ID"
      },
      "id": 13115,
      "name": "Geneng",
      "postcode": "59583",
      "lat": -6.8532449,
      "lng": 110.7152265
    },
    {
      "suburb": {
        "id": 1350,
        "name": "Mijen",
        "lat": -6.8109096,
        "lng": 110.7003268
      },
      "city": {
        "id": 81,
        "name": "Demak",
        "lat": -6.9238879,
        "lng": 110.6645683
      },
      "province": {
        "id": 10,
        "name": "Jawa Tengah",
        "lat": -7.150975,
        "lng": 110.1402594
      },
      "country": {
        "id": 228,
        "name": "INDONESIA",
        "code": "ID"
      },
      "id": 13116,
      "name": "Banteng Mati",
      "postcode": "59583",
      "lat": -6.8290117,
      "lng": 110.6913871
    },
    {
      "suburb": {
        "id": 1350,
        "name": "Mijen",
        "lat": -6.8109096,
        "lng": 110.7003268
      },
      "city": {
        "id": 81,
        "name": "Demak",
        "lat": -6.9238879,
        "lng": 110.6645683
      },
      "province": {
        "id": 10,
        "name": "Jawa Tengah",
        "lat": -7.150975,
        "lng": 110.1402594
      },
      "country": {
        "id": 228,
        "name": "INDONESIA",
        "code": "ID"
      },
      "id": 13117,
      "name": "Bermi",
      "postcode": "59583",
      "lat": -6.8119781,
      "lng": 110.7331063
    },
    {
      "suburb": {
        "id": 1350,
        "name": "Mijen",
        "lat": -6.8109096,
        "lng": 110.7003268
      },
      "city": {
        "id": 81,
        "name": "Demak",
        "lat": -6.9238879,
        "lng": 110.6645683
      },
      "province": {
        "id": 10,
        "name": "Jawa Tengah",
        "lat": -7.150975,
        "lng": 110.1402594
      },
      "country": {
        "id": 228,
        "name": "INDONESIA",
        "code": "ID"
      },
      "id": 13118,
      "name": "Bakung",
      "postcode": "59583",
      "lat": -6.8274158,
      "lng": 110.7271464
    },
    {
      "suburb": {
        "id": 1349,
        "name": "Kebonagung",
        "lat": -6.9932447,
        "lng": 110.7003268
      },
      "city": {
        "id": 81,
        "name": "Demak",
        "lat": -6.9238879,
        "lng": 110.6645683
      },
      "province": {
        "id": 10,
        "name": "Jawa Tengah",
        "lat": -7.150975,
        "lng": 110.1402594
      },
      "country": {
        "id": 228,
        "name": "INDONESIA",
        "code": "ID"
      },
      "id": 13119,
      "name": "Babad",
      "postcode": "59583",
      "lat": -6.9951001,
      "lng": 110.7152265
    },
    {
      "suburb": {
        "id": 1351,
        "name": "Karanganyar",
        "lat": -6.8481756,
        "lng": 110.7718469
      },
      "city": {
        "id": 81,
        "name": "Demak",
        "lat": -6.9238879,
        "lng": 110.6645683
      },
      "province": {
        "id": 10,
        "name": "Jawa Tengah",
        "lat": -7.150975,
        "lng": 110.1402594
      },
      "country": {
        "id": 228,
        "name": "INDONESIA",
        "code": "ID"
      },
      "id": 13120,
      "name": "Wonorejo",
      "postcode": "59582",
      "lat": -6.8596155,
      "lng": 110.798668
    },
    {
      "suburb": {
        "id": 1351,
        "name": "Karanganyar",
        "lat": -6.8481756,
        "lng": 110.7718469
      },
      "city": {
        "id": 81,
        "name": "Demak",
        "lat": -6.9238879,
        "lng": 110.6645683
      },
      "province": {
        "id": 10,
        "name": "Jawa Tengah",
        "lat": -7.150975,
        "lng": 110.1402594
      },
      "country": {
        "id": 228,
        "name": "INDONESIA",
        "code": "ID"
      },
      "id": 13121,
      "name": "Undaan Lor",
      "postcode": "59582",
      "lat": -6.8691956,
      "lng": 110.8105886
    },
    {
      "suburb": {
        "id": 1351,
        "name": "Karanganyar",
        "lat": -6.8481756,
        "lng": 110.7718469
      },
      "city": {
        "id": 81,
        "name": "Demak",
        "lat": -6.9238879,
        "lng": 110.6645683
      },
      "province": {
        "id": 10,
        "name": "Jawa Tengah",
        "lat": -7.150975,
        "lng": 110.1402594
      },
      "country": {
        "id": 228,
        "name": "INDONESIA",
        "code": "ID"
      },
      "id": 13122,
      "name": "Wonoketingal",
      "postcode": "59582",
      "lat": -6.8564332,
      "lng": 110.7569465
    },
    {
      "suburb": {
        "id": 1351,
        "name": "Karanganyar",
        "lat": -6.8481756,
        "lng": 110.7718469
      },
      "city": {
        "id": 81,
        "name": "Demak",
        "lat": -6.9238879,
        "lng": 110.6645683
      },
      "province": {
        "id": 10,
        "name": "Jawa Tengah",
        "lat": -7.150975,
        "lng": 110.1402594
      },
      "country": {
        "id": 228,
        "name": "INDONESIA",
        "code": "ID"
      },
      "id": 13123,
      "name": "Tuwang",
      "postcode": "59582",
      "lat": -6.883985,
      "lng": 110.7912176
    },
    {
      "suburb": {
        "id": 1351,
        "name": "Karanganyar",
        "lat": -6.8481756,
        "lng": 110.7718469
      },
      "city": {
        "id": 81,
        "name": "Demak",
        "lat": -6.9238879,
        "lng": 110.6645683
      },
      "province": {
        "id": 10,
        "name": "Jawa Tengah",
        "lat": -7.150975,
        "lng": 110.1402594
      },
      "country": {
        "id": 228,
        "name": "INDONESIA",
        "code": "ID"
      },
      "id": 13124,
      "name": "Undaan Kidul",
      "postcode": "59582",
      "lat": -6.8849134,
      "lng": 110.798668
    },
    {
      "suburb": {
        "id": 1351,
        "name": "Karanganyar",
        "lat": -6.8481756,
        "lng": 110.7718469
      },
      "city": {
        "id": 81,
        "name": "Demak",
        "lat": -6.9238879,
        "lng": 110.6645683
      },
      "province": {
        "id": 10,
        "name": "Jawa Tengah",
        "lat": -7.150975,
        "lng": 110.1402594
      },
      "country": {
        "id": 228,
        "name": "INDONESIA",
        "code": "ID"
      },
      "id": 13125,
      "name": "Tugu Lor",
      "postcode": "59582",
      "lat": -6.8207606,
      "lng": 110.7629067
    },
    {
      "suburb": {
        "id": 1351,
        "name": "Karanganyar",
        "lat": -6.8481756,
        "lng": 110.7718469
      },
      "city": {
        "id": 81,
        "name": "Demak",
        "lat": -6.9238879,
        "lng": 110.6645683
      },
      "province": {
        "id": 10,
        "name": "Jawa Tengah",
        "lat": -7.150975,
        "lng": 110.1402594
      },
      "country": {
        "id": 228,
        "name": "INDONESIA",
        "code": "ID"
      },
      "id": 13126,
      "name": "Kotakan",
      "postcode": "59582",
      "lat": -6.8055934,
      "lng": 110.7629067
    },
    {
      "suburb": {
        "id": 1351,
        "name": "Karanganyar",
        "lat": -6.8481756,
        "lng": 110.7718469
      },
      "city": {
        "id": 81,
        "name": "Demak",
        "lat": -6.9238879,
        "lng": 110.6645683
      },
      "province": {
        "id": 10,
        "name": "Jawa Tengah",
        "lat": -7.150975,
        "lng": 110.1402594
      },
      "country": {
        "id": 228,
        "name": "INDONESIA",
        "code": "ID"
      },
      "id": 13127,
      "name": "Ngaluran",
      "postcode": "59582",
      "lat": -6.8595024,
      "lng": 110.7287978
    },
    {
      "suburb": {
        "id": 1351,
        "name": "Karanganyar",
        "lat": -6.8481756,
        "lng": 110.7718469
      },
      "city": {
        "id": 81,
        "name": "Demak",
        "lat": -6.9238879,
        "lng": 110.6645683
      },
      "province": {
        "id": 10,
        "name": "Jawa Tengah",
        "lat": -7.150975,
        "lng": 110.1402594
      },
      "country": {
        "id": 228,
        "name": "INDONESIA",
        "code": "ID"
      },
      "id": 13128,
      "name": "Ngemplik Wetan",
      "postcode": "59582",
      "lat": -6.8697334,
      "lng": 110.798668
    },
    {
      "suburb": {
        "id": 1351,
        "name": "Karanganyar",
        "lat": -6.8481756,
        "lng": 110.7718469
      },
      "city": {
        "id": 81,
        "name": "Demak",
        "lat": -6.9238879,
        "lng": 110.6645683
      },
      "province": {
        "id": 10,
        "name": "Jawa Tengah",
        "lat": -7.150975,
        "lng": 110.1402594
      },
      "country": {
        "id": 228,
        "name": "INDONESIA",
        "code": "ID"
      },
      "id": 13129,
      "name": "Kedungwaru Lor",
      "postcode": "59582",
      "lat": -6.8303403,
      "lng": 110.774827
    },
    {
      "suburb": {
        "id": 1351,
        "name": "Karanganyar",
        "lat": -6.8481756,
        "lng": 110.7718469
      },
      "city": {
        "id": 81,
        "name": "Demak",
        "lat": -6.9238879,
        "lng": 110.6645683
      },
      "province": {
        "id": 10,
        "name": "Jawa Tengah",
        "lat": -7.150975,
        "lng": 110.1402594
      },
      "country": {
        "id": 228,
        "name": "INDONESIA",
        "code": "ID"
      },
      "id": 13130,
      "name": "Ketanjung",
      "postcode": "59582",
      "lat": -6.8534835,
      "lng": 110.8225094
    },
    {
      "suburb": {
        "id": 1351,
        "name": "Karanganyar",
        "lat": -6.8481756,
        "lng": 110.7718469
      },
      "city": {
        "id": 81,
        "name": "Demak",
        "lat": -6.9238879,
        "lng": 110.6645683
      },
      "province": {
        "id": 10,
        "name": "Jawa Tengah",
        "lat": -7.150975,
        "lng": 110.1402594
      },
      "country": {
        "id": 228,
        "name": "INDONESIA",
        "code": "ID"
      },
      "id": 13131,
      "name": "Jatirejo",
      "postcode": "59582",
      "lat": -6.8369992,
      "lng": 110.7390663
    },
    {
      "suburb": {
        "id": 1351,
        "name": "Karanganyar",
        "lat": -6.8481756,
        "lng": 110.7718469
      },
      "city": {
        "id": 81,
        "name": "Demak",
        "lat": -6.9238879,
        "lng": 110.6645683
      },
      "province": {
        "id": 10,
        "name": "Jawa Tengah",
        "lat": -7.150975,
        "lng": 110.1402594
      },
      "country": {
        "id": 228,
        "name": "INDONESIA",
        "code": "ID"
      },
      "id": 13132,
      "name": "Karanganyar",
      "postcode": "59582",
      "lat": -6.8491791,
      "lng": 110.8054876
    },
    {
      "suburb": {
        "id": 1351,
        "name": "Karanganyar",
        "lat": -6.8481756,
        "lng": 110.7718469
      },
      "city": {
        "id": 81,
        "name": "Demak",
        "lat": -6.9238879,
        "lng": 110.6645683
      },
      "province": {
        "id": 10,
        "name": "Jawa Tengah",
        "lat": -7.150975,
        "lng": 110.1402594
      },
      "country": {
        "id": 228,
        "name": "INDONESIA",
        "code": "ID"
      },
      "id": 13133,
      "name": "Kedungwaru Kidul",
      "postcode": "59582",
      "lat": -6.8348628,
      "lng": 110.7867474
    },
    {
      "suburb": {
        "id": 1351,
        "name": "Karanganyar",
        "lat": -6.8481756,
        "lng": 110.7718469
      },
      "city": {
        "id": 81,
        "name": "Demak",
        "lat": -6.9238879,
        "lng": 110.6645683
      },
      "province": {
        "id": 10,
        "name": "Jawa Tengah",
        "lat": -7.150975,
        "lng": 110.1402594
      },
      "country": {
        "id": 228,
        "name": "INDONESIA",
        "code": "ID"
      },
      "id": 13134,
      "name": "Cangkring",
      "postcode": "59582",
      "lat": -6.870271,
      "lng": 110.7867474
    },
    {
      "suburb": {
        "id": 1351,
        "name": "Karanganyar",
        "lat": -6.8481756,
        "lng": 110.7718469
      },
      "city": {
        "id": 81,
        "name": "Demak",
        "lat": -6.9238879,
        "lng": 110.6645683
      },
      "province": {
        "id": 10,
        "name": "Jawa Tengah",
        "lat": -7.150975,
        "lng": 110.1402594
      },
      "country": {
        "id": 228,
        "name": "INDONESIA",
        "code": "ID"
      },
      "id": 13135,
      "name": "Cangkring Rembang",
      "postcode": "59582",
      "lat": -6.8710767,
      "lng": 110.7688668
    },
    {
      "suburb": {
        "id": 1352,
        "name": "Gajah",
        "lat": -6.8897321,
        "lng": 110.7480064
      },
      "city": {
        "id": 81,
        "name": "Demak",
        "lat": -6.9238879,
        "lng": 110.6645683
      },
      "province": {
        "id": 10,
        "name": "Jawa Tengah",
        "lat": -7.150975,
        "lng": 110.1402594
      },
      "country": {
        "id": 228,
        "name": "INDONESIA",
        "code": "ID"
      },
      "id": 13136,
      "name": "Wilalung",
      "postcode": "59581",
      "lat": -6.9264952,
      "lng": 110.774827
    },
    {
      "suburb": {
        "id": 1351,
        "name": "Karanganyar",
        "lat": -6.8481756,
        "lng": 110.7718469
      },
      "city": {
        "id": 81,
        "name": "Demak",
        "lat": -6.9238879,
        "lng": 110.6645683
      },
      "province": {
        "id": 10,
        "name": "Jawa Tengah",
        "lat": -7.150975,
        "lng": 110.1402594
      },
      "country": {
        "id": 228,
        "name": "INDONESIA",
        "code": "ID"
      },
      "id": 13137,
      "name": "Bandungrejo",
      "postcode": "59582",
      "lat": -6.8263503,
      "lng": 110.7509864
    },
    {
      "suburb": {
        "id": 1352,
        "name": "Gajah",
        "lat": -6.8897321,
        "lng": 110.7480064
      },
      "city": {
        "id": 81,
        "name": "Demak",
        "lat": -6.9238879,
        "lng": 110.6645683
      },
      "province": {
        "id": 10,
        "name": "Jawa Tengah",
        "lat": -7.150975,
        "lng": 110.1402594
      },
      "country": {
        "id": 228,
        "name": "INDONESIA",
        "code": "ID"
      },
      "id": 13138,
      "name": "Tambirejo",
      "postcode": "59581",
      "lat": -6.9019855,
      "lng": 110.7569465
    },
    {
      "suburb": {
        "id": 1352,
        "name": "Gajah",
        "lat": -6.8897321,
        "lng": 110.7480064
      },
      "city": {
        "id": 81,
        "name": "Demak",
        "lat": -6.9238879,
        "lng": 110.6645683
      },
      "province": {
        "id": 10,
        "name": "Jawa Tengah",
        "lat": -7.150975,
        "lng": 110.1402594
      },
      "country": {
        "id": 228,
        "name": "INDONESIA",
        "code": "ID"
      },
      "id": 13139,
      "name": "Tanjunganyar",
      "postcode": "59581",
      "lat": -6.9158434,
      "lng": 110.7584366
    },
    {
      "suburb": {
        "id": 1352,
        "name": "Gajah",
        "lat": -6.8897321,
        "lng": 110.7480064
      },
      "city": {
        "id": 81,
        "name": "Demak",
        "lat": -6.9238879,
        "lng": 110.6645683
      },
      "province": {
        "id": 10,
        "name": "Jawa Tengah",
        "lat": -7.150975,
        "lng": 110.1402594
      },
      "country": {
        "id": 228,
        "name": "INDONESIA",
        "code": "ID"
      },
      "id": 13140,
      "name": "Tlogopandogan",
      "postcode": "59581",
      "lat": -6.909473,
      "lng": 110.7033067
    },
    {
      "suburb": {
        "id": 1352,
        "name": "Gajah",
        "lat": -6.8897321,
        "lng": 110.7480064
      },
      "city": {
        "id": 81,
        "name": "Demak",
        "lat": -6.9238879,
        "lng": 110.6645683
      },
      "province": {
        "id": 10,
        "name": "Jawa Tengah",
        "lat": -7.150975,
        "lng": 110.1402594
      },
      "country": {
        "id": 228,
        "name": "INDONESIA",
        "code": "ID"
      },
      "id": 13141,
      "name": "Sambung",
      "postcode": "59581",
      "lat": -6.895575,
      "lng": 110.7867474
    },
    {
      "suburb": {
        "id": 1352,
        "name": "Gajah",
        "lat": -6.8897321,
        "lng": 110.7480064
      },
      "city": {
        "id": 81,
        "name": "Demak",
        "lat": -6.9238879,
        "lng": 110.6645683
      },
      "province": {
        "id": 10,
        "name": "Jawa Tengah",
        "lat": -7.150975,
        "lng": 110.1402594
      },
      "country": {
        "id": 228,
        "name": "INDONESIA",
        "code": "ID"
      },
      "id": 13142,
      "name": "Sarirejo",
      "postcode": "59581",
      "lat": -6.8897321,
      "lng": 110.7480064
    },
    {
      "suburb": {
        "id": 1352,
        "name": "Gajah",
        "lat": -6.8897321,
        "lng": 110.7480064
      },
      "city": {
        "id": 81,
        "name": "Demak",
        "lat": -6.9238879,
        "lng": 110.6645683
      },
      "province": {
        "id": 10,
        "name": "Jawa Tengah",
        "lat": -7.150975,
        "lng": 110.1402594
      },
      "country": {
        "id": 228,
        "name": "INDONESIA",
        "code": "ID"
      },
      "id": 13143,
      "name": "Surodadi",
      "postcode": "59581",
      "lat": -6.9337247,
      "lng": 110.7271464
    },
    {
      "suburb": {
        "id": 1352,
        "name": "Gajah",
        "lat": -6.8897321,
        "lng": 110.7480064
      },
      "city": {
        "id": 81,
        "name": "Demak",
        "lat": -6.9238879,
        "lng": 110.6645683
      },
      "province": {
        "id": 10,
        "name": "Jawa Tengah",
        "lat": -7.150975,
        "lng": 110.1402594
      },
      "country": {
        "id": 228,
        "name": "INDONESIA",
        "code": "ID"
      },
      "id": 13144,
      "name": "Mojosimo",
      "postcode": "59581",
      "lat": -6.8867976,
      "lng": 110.7569465
    },
    {
      "suburb": {
        "id": 1352,
        "name": "Gajah",
        "lat": -6.8897321,
        "lng": 110.7480064
      },
      "city": {
        "id": 81,
        "name": "Demak",
        "lat": -6.9238879,
        "lng": 110.6645683
      },
      "province": {
        "id": 10,
        "name": "Jawa Tengah",
        "lat": -7.150975,
        "lng": 110.1402594
      },
      "country": {
        "id": 228,
        "name": "INDONESIA",
        "code": "ID"
      },
      "id": 13145,
      "name": "Sambiroto",
      "postcode": "59581",
      "lat": -6.9126524,
      "lng": 110.7450264
    },
    {
      "suburb": {
        "id": 1352,
        "name": "Gajah",
        "lat": -6.8897321,
        "lng": 110.7480064
      },
      "city": {
        "id": 81,
        "name": "Demak",
        "lat": -6.9238879,
        "lng": 110.6645683
      },
      "province": {
        "id": 10,
        "name": "Jawa Tengah",
        "lat": -7.150975,
        "lng": 110.1402594
      },
      "country": {
        "id": 228,
        "name": "INDONESIA",
        "code": "ID"
      },
      "id": 13146,
      "name": "Medini",
      "postcode": "59581",
      "lat": -6.9110327,
      "lng": 110.7807872
    },
    {
      "suburb": {
        "id": 1352,
        "name": "Gajah",
        "lat": -6.8897321,
        "lng": 110.7480064
      },
      "city": {
        "id": 81,
        "name": "Demak",
        "lat": -6.9238879,
        "lng": 110.6645683
      },
      "province": {
        "id": 10,
        "name": "Jawa Tengah",
        "lat": -7.150975,
        "lng": 110.1402594
      },
      "country": {
        "id": 228,
        "name": "INDONESIA",
        "code": "ID"
      },
      "id": 13147,
      "name": "Mlatiharjo",
      "postcode": "59581",
      "lat": -6.9014464,
      "lng": 110.7688668
    },
    {
      "suburb": {
        "id": 1352,
        "name": "Gajah",
        "lat": -6.8897321,
        "lng": 110.7480064
      },
      "city": {
        "id": 81,
        "name": "Demak",
        "lat": -6.9238879,
        "lng": 110.6645683
      },
      "province": {
        "id": 10,
        "name": "Jawa Tengah",
        "lat": -7.150975,
        "lng": 110.1402594
      },
      "country": {
        "id": 228,
        "name": "INDONESIA",
        "code": "ID"
      },
      "id": 13148,
      "name": "Mlekang",
      "postcode": "59581",
      "lat": -6.8862597,
      "lng": 110.7688668
    },
    {
      "suburb": {
        "id": 1352,
        "name": "Gajah",
        "lat": -6.8897321,
        "lng": 110.7480064
      },
      "city": {
        "id": 81,
        "name": "Demak",
        "lat": -6.9238879,
        "lng": 110.6645683
      },
      "province": {
        "id": 10,
        "name": "Jawa Tengah",
        "lat": -7.150975,
        "lng": 110.1402594
      },
      "country": {
        "id": 228,
        "name": "INDONESIA",
        "code": "ID"
      },
      "id": 13149,
      "name": "Jatisono",
      "postcode": "59581",
      "lat": -6.9193352,
      "lng": 110.7092666
    },
    {
      "suburb": {
        "id": 1352,
        "name": "Gajah",
        "lat": -6.8897321,
        "lng": 110.7480064
      },
      "city": {
        "id": 81,
        "name": "Demak",
        "lat": -6.9238879,
        "lng": 110.6645683
      },
      "province": {
        "id": 10,
        "name": "Jawa Tengah",
        "lat": -7.150975,
        "lng": 110.1402594
      },
      "country": {
        "id": 228,
        "name": "INDONESIA",
        "code": "ID"
      },
      "id": 13150,
      "name": "Kedondong",
      "postcode": "59581",
      "lat": -6.8988057,
      "lng": 110.7152265
    },
    {
      "suburb": {
        "id": 1352,
        "name": "Gajah",
        "lat": -6.8897321,
        "lng": 110.7480064
      },
      "city": {
        "id": 81,
        "name": "Demak",
        "lat": -6.9238879,
        "lng": 110.6645683
      },
      "province": {
        "id": 10,
        "name": "Jawa Tengah",
        "lat": -7.150975,
        "lng": 110.1402594
      },
      "country": {
        "id": 228,
        "name": "INDONESIA",
        "code": "ID"
      },
      "id": 13151,
      "name": "Gajah",
      "postcode": "59581",
      "lat": -6.8724182,
      "lng": 110.7390663
    },
    {
      "suburb": {
        "id": 1352,
        "name": "Gajah",
        "lat": -6.8897321,
        "lng": 110.7480064
      },
      "city": {
        "id": 81,
        "name": "Demak",
        "lat": -6.9238879,
        "lng": 110.6645683
      },
      "province": {
        "id": 10,
        "name": "Jawa Tengah",
        "lat": -7.150975,
        "lng": 110.1402594
      },
      "country": {
        "id": 228,
        "name": "INDONESIA",
        "code": "ID"
      },
      "id": 13152,
      "name": "Gedangalas",
      "postcode": "59581",
      "lat": -6.9083964,
      "lng": 110.7271464
    },
    {
      "suburb": {
        "id": 1352,
        "name": "Gajah",
        "lat": -6.8897321,
        "lng": 110.7480064
      },
      "city": {
        "id": 81,
        "name": "Demak",
        "lat": -6.9238879,
        "lng": 110.6645683
      },
      "province": {
        "id": 10,
        "name": "Jawa Tengah",
        "lat": -7.150975,
        "lng": 110.1402594
      },
      "country": {
        "id": 228,
        "name": "INDONESIA",
        "code": "ID"
      },
      "id": 13153,
      "name": "Banjarsari",
      "postcode": "59581",
      "lat": -6.8950639,
      "lng": 110.7420464
    },
    {
      "suburb": {
        "id": 1352,
        "name": "Gajah",
        "lat": -6.8897321,
        "lng": 110.7480064
      },
      "city": {
        "id": 81,
        "name": "Demak",
        "lat": -6.9238879,
        "lng": 110.6645683
      },
      "province": {
        "id": 10,
        "name": "Jawa Tengah",
        "lat": -7.150975,
        "lng": 110.1402594
      },
      "country": {
        "id": 228,
        "name": "INDONESIA",
        "code": "ID"
      },
      "id": 13154,
      "name": "Boyolali",
      "postcode": "59581",
      "lat": -6.8816116,
      "lng": 110.7316163
    },
    {
      "suburb": {
        "id": 1353,
        "name": "Dempet",
        "lat": -6.9505119,
        "lng": 110.7480064
      },
      "city": {
        "id": 81,
        "name": "Demak",
        "lat": -6.9238879,
        "lng": 110.6645683
      },
      "province": {
        "id": 10,
        "name": "Jawa Tengah",
        "lat": -7.150975,
        "lng": 110.1402594
      },
      "country": {
        "id": 228,
        "name": "INDONESIA",
        "code": "ID"
      },
      "id": 13155,
      "name": "Merak",
      "postcode": "59573",
      "lat": -7.0084051,
      "lng": 110.7569465
    },
    {
      "suburb": {
        "id": 1353,
        "name": "Dempet",
        "lat": -6.9505119,
        "lng": 110.7480064
      },
      "city": {
        "id": 81,
        "name": "Demak",
        "lat": -6.9238879,
        "lng": 110.6645683
      },
      "province": {
        "id": 10,
        "name": "Jawa Tengah",
        "lat": -7.150975,
        "lng": 110.1402594
      },
      "country": {
        "id": 228,
        "name": "INDONESIA",
        "code": "ID"
      },
      "id": 13156,
      "name": "Sidomulyo",
      "postcode": "59573",
      "lat": -6.9470288,
      "lng": 110.7688668
    },
    {
      "suburb": {
        "id": 1353,
        "name": "Dempet",
        "lat": -6.9505119,
        "lng": 110.7480064
      },
      "city": {
        "id": 81,
        "name": "Demak",
        "lat": -6.9238879,
        "lng": 110.6645683
      },
      "province": {
        "id": 10,
        "name": "Jawa Tengah",
        "lat": -7.150975,
        "lng": 110.1402594
      },
      "country": {
        "id": 228,
        "name": "INDONESIA",
        "code": "ID"
      },
      "id": 13157,
      "name": "Kunir",
      "postcode": "59573",
      "lat": -6.9761266,
      "lng": 110.7420464
    },
    {
      "suburb": {
        "id": 1353,
        "name": "Dempet",
        "lat": -6.9505119,
        "lng": 110.7480064
      },
      "city": {
        "id": 81,
        "name": "Demak",
        "lat": -6.9238879,
        "lng": 110.6645683
      },
      "province": {
        "id": 10,
        "name": "Jawa Tengah",
        "lat": -7.150975,
        "lng": 110.1402594
      },
      "country": {
        "id": 228,
        "name": "INDONESIA",
        "code": "ID"
      },
      "id": 13158,
      "name": "Kuwu",
      "postcode": "59573",
      "lat": -6.9348052,
      "lng": 110.7033067
    },
    {
      "suburb": {
        "id": 1353,
        "name": "Dempet",
        "lat": -6.9505119,
        "lng": 110.7480064
      },
      "city": {
        "id": 81,
        "name": "Demak",
        "lat": -6.9238879,
        "lng": 110.6645683
      },
      "province": {
        "id": 10,
        "name": "Jawa Tengah",
        "lat": -7.150975,
        "lng": 110.1402594
      },
      "country": {
        "id": 228,
        "name": "INDONESIA",
        "code": "ID"
      },
      "id": 13159,
      "name": "Kedungori",
      "postcode": "59573",
      "lat": -6.9533373,
      "lng": 110.7137365
    },
    {
      "suburb": {
        "id": 1353,
        "name": "Dempet",
        "lat": -6.9505119,
        "lng": 110.7480064
      },
      "city": {
        "id": 81,
        "name": "Demak",
        "lat": -6.9238879,
        "lng": 110.6645683
      },
      "province": {
        "id": 10,
        "name": "Jawa Tengah",
        "lat": -7.150975,
        "lng": 110.1402594
      },
      "country": {
        "id": 228,
        "name": "INDONESIA",
        "code": "ID"
      },
      "id": 13160,
      "name": "Kramat",
      "postcode": "59573",
      "lat": -6.933184,
      "lng": 110.7390663
    },
    {
      "suburb": {
        "id": 1353,
        "name": "Dempet",
        "lat": -6.9505119,
        "lng": 110.7480064
      },
      "city": {
        "id": 81,
        "name": "Demak",
        "lat": -6.9238879,
        "lng": 110.6645683
      },
      "province": {
        "id": 10,
        "name": "Jawa Tengah",
        "lat": -7.150975,
        "lng": 110.1402594
      },
      "country": {
        "id": 228,
        "name": "INDONESIA",
        "code": "ID"
      },