{
  "metadata": {
    "path": "/v3/location/areas?limit=1000&page=75",
    "http_status_code": 200,
    "http_status": "OK",
    "timestamp": 1647340716
  },
  "data": [
    {
      "suburb": {
        "id": 6464,
        "name": "Gelumbang",
        "lat": -3.1948286,
        "lng": 104.4257533
      },
      "city": {
        "id": 431,
        "name": "Muara Enim",
        "lat": -3.7114163,
        "lng": 104.0072348
      },
      "province": {
        "id": 33,
        "name": "Sumatera Selatan",
        "lat": -3.3194374,
        "lng": 103.914399
      },
      "country": {
        "id": 228,
        "name": "INDONESIA",
        "code": "ID"
      },
      "id": 74018,
      "name": "Putak",
      "postcode": "31171",
      "lat": -3.1502294,
      "lng": 104.4781532
    },
    {
      "suburb": {
        "id": 6464,
        "name": "Gelumbang",
        "lat": -3.1948286,
        "lng": 104.4257533
      },
      "city": {
        "id": 431,
        "name": "Muara Enim",
        "lat": -3.7114163,
        "lng": 104.0072348
      },
      "province": {
        "id": 33,
        "name": "Sumatera Selatan",
        "lat": -3.3194374,
        "lng": 103.914399
      },
      "country": {
        "id": 228,
        "name": "INDONESIA",
        "code": "ID"
      },
      "id": 74019,
      "name": "Sebau",
      "postcode": "31171",
      "lat": -3.2399902,
      "lng": 104.3384616
    },
    {
      "suburb": {
        "id": 6464,
        "name": "Gelumbang",
        "lat": -3.1948286,
        "lng": 104.4257533
      },
      "city": {
        "id": 431,
        "name": "Muara Enim",
        "lat": -3.7114163,
        "lng": 104.0072348
      },
      "province": {
        "id": 33,
        "name": "Sumatera Selatan",
        "lat": -3.3194374,
        "lng": 103.914399
      },
      "country": {
        "id": 228,
        "name": "INDONESIA",
        "code": "ID"
      },
      "id": 74020,
      "name": "Segayam",
      "postcode": "31171",
      "lat": -3.2417377,
      "lng": 104.5538744
    },
    {
      "suburb": {
        "id": 6464,
        "name": "Gelumbang",
        "lat": -3.1948286,
        "lng": 104.4257533
      },
      "city": {
        "id": 431,
        "name": "Muara Enim",
        "lat": -3.7114163,
        "lng": 104.0072348
      },
      "province": {
        "id": 33,
        "name": "Sumatera Selatan",
        "lat": -3.3194374,
        "lng": 103.914399
      },
      "country": {
        "id": 228,
        "name": "INDONESIA",
        "code": "ID"
      },
      "id": 74021,
      "name": "Pinang Banjar",
      "postcode": "31171",
      "lat": -3.3157426,
      "lng": 104.5014479
    },
    {
      "suburb": {
        "id": 6465,
        "name": "Lembak",
        "lat": -3.4501031,
        "lng": 104.3559158
      },
      "city": {
        "id": 431,
        "name": "Muara Enim",
        "lat": -3.7114163,
        "lng": 104.0072348
      },
      "province": {
        "id": 33,
        "name": "Sumatera Selatan",
        "lat": -3.3194374,
        "lng": 103.914399
      },
      "country": {
        "id": 228,
        "name": "INDONESIA",
        "code": "ID"
      },
      "id": 74022,
      "name": "Petanang",
      "postcode": "31171",
      "lat": -3.3586842,
      "lng": 104.245408
    },
    {
      "suburb": {
        "id": 6466,
        "name": "Kelekar",
        "lat": -3.3407927,
        "lng": 104.4606845
      },
      "city": {
        "id": 431,
        "name": "Muara Enim",
        "lat": -3.7114163,
        "lng": 104.0072348
      },
      "province": {
        "id": 33,
        "name": "Sumatera Selatan",
        "lat": -3.3194374,
        "lng": 103.914399
      },
      "country": {
        "id": 228,
        "name": "INDONESIA",
        "code": "ID"
      },
      "id": 74023,
      "name": "Pelempang",
      "postcode": "31171",
      "lat": -3.3162638,
      "lng": 104.4665072
    },
    {
      "suburb": {
        "id": 6464,
        "name": "Gelumbang",
        "lat": -3.1948286,
        "lng": 104.4257533
      },
      "city": {
        "id": 431,
        "name": "Muara Enim",
        "lat": -3.7114163,
        "lng": 104.0072348
      },
      "province": {
        "id": 33,
        "name": "Sumatera Selatan",
        "lat": -3.3194374,
        "lng": 103.914399
      },
      "country": {
        "id": 228,
        "name": "INDONESIA",
        "code": "ID"
      },
      "id": 74024,
      "name": "Payabakal",
      "postcode": "31171",
      "lat": -3.2293892,
      "lng": 104.3966503
    },
    {
      "suburb": {
        "id": 6464,
        "name": "Gelumbang",
        "lat": -3.1948286,
        "lng": 104.4257533
      },
      "city": {
        "id": 431,
        "name": "Muara Enim",
        "lat": -3.7114163,
        "lng": 104.0072348
      },
      "province": {
        "id": 33,
        "name": "Sumatera Selatan",
        "lat": -3.3194374,
        "lng": 103.914399
      },
      "country": {
        "id": 228,
        "name": "INDONESIA",
        "code": "ID"
      },
      "id": 74025,
      "name": "Pedataran",
      "postcode": "31171",
      "lat": -3.2697974,
      "lng": 104.3035595
    },
    {
      "suburb": {
        "id": 6464,
        "name": "Gelumbang",
        "lat": -3.1948286,
        "lng": 104.4257533
      },
      "city": {
        "id": 431,
        "name": "Muara Enim",
        "lat": -3.7114163,
        "lng": 104.0072348
      },
      "province": {
        "id": 33,
        "name": "Sumatera Selatan",
        "lat": -3.3194374,
        "lng": 103.914399
      },
      "country": {
        "id": 228,
        "name": "INDONESIA",
        "code": "ID"
      },
      "id": 74026,
      "name": "Midar",
      "postcode": "31171",
      "lat": -3.2590143,
      "lng": 104.373372
    },
    {
      "suburb": {
        "id": 6467,
        "name": "Muara Belida",
        "lat": -3.0849335,
        "lng": 104.6238048
      },
      "city": {
        "id": 431,
        "name": "Muara Enim",
        "lat": -3.7114163,
        "lng": 104.0072348
      },
      "province": {
        "id": 33,
        "name": "Sumatera Selatan",
        "lat": -3.3194374,
        "lng": 103.914399
      },
      "country": {
        "id": 228,
        "name": "INDONESIA",
        "code": "ID"
      },
      "id": 74027,
      "name": "Mulia Abadi",
      "postcode": "31171",
      "lat": -3.0811317,
      "lng": 104.5480484
    },
    {
      "suburb": {
        "id": 6467,
        "name": "Muara Belida",
        "lat": -3.0849335,
        "lng": 104.6238048
      },
      "city": {
        "id": 431,
        "name": "Muara Enim",
        "lat": -3.7114163,
        "lng": 104.0072348
      },
      "province": {
        "id": 33,
        "name": "Sumatera Selatan",
        "lat": -3.3194374,
        "lng": 103.914399
      },
      "country": {
        "id": 228,
        "name": "INDONESIA",
        "code": "ID"
      },
      "id": 74028,
      "name": "Patra Tani",
      "postcode": "31171",
      "lat": -3.0900391,
      "lng": 104.6063192
    },
    {
      "suburb": {
        "id": 6466,
        "name": "Kelekar",
        "lat": -3.3407927,
        "lng": 104.4606845
      },
      "city": {
        "id": 431,
        "name": "Muara Enim",
        "lat": -3.7114163,
        "lng": 104.0072348
      },
      "province": {
        "id": 33,
        "name": "Sumatera Selatan",
        "lat": -3.3194374,
        "lng": 103.914399
      },
      "country": {
        "id": 228,
        "name": "INDONESIA",
        "code": "ID"
      },
      "id": 74029,
      "name": "Menanti",
      "postcode": "31171",
      "lat": -3.3653353,
      "lng": 104.4548621
    },
    {
      "suburb": {
        "id": 6466,
        "name": "Kelekar",
        "lat": -3.3407927,
        "lng": 104.4606845
      },
      "city": {
        "id": 431,
        "name": "Muara Enim",
        "lat": -3.7114163,
        "lng": 104.0072348
      },
      "province": {
        "id": 33,
        "name": "Sumatera Selatan",
        "lat": -3.3194374,
        "lng": 103.914399
      },
      "country": {
        "id": 228,
        "name": "INDONESIA",
        "code": "ID"
      },
      "id": 74030,
      "name": "Menanti Selatan",
      "postcode": "31171",
      "lat": -3.3945207,
      "lng": 104.4665072
    },
    {
      "suburb": {
        "id": 6464,
        "name": "Gelumbang",
        "lat": -3.1948286,
        "lng": 104.4257533
      },
      "city": {
        "id": 431,
        "name": "Muara Enim",
        "lat": -3.7114163,
        "lng": 104.0072348
      },
      "province": {
        "id": 33,
        "name": "Sumatera Selatan",
        "lat": -3.3194374,
        "lng": 103.914399
      },
      "country": {
        "id": 228,
        "name": "INDONESIA",
        "code": "ID"
      },
      "id": 74031,
      "name": "Melilian/Mililian",
      "postcode": "31171",
      "lat": -3.2896832,
      "lng": 104.2802961
    },
    {
      "suburb": {
        "id": 6465,
        "name": "Lembak",
        "lat": -3.4501031,
        "lng": 104.3559158
      },
      "city": {
        "id": 431,
        "name": "Muara Enim",
        "lat": -3.7114163,
        "lng": 104.0072348
      },
      "province": {
        "id": 33,
        "name": "Sumatera Selatan",
        "lat": -3.3194374,
        "lng": 103.914399
      },
      "country": {
        "id": 228,
        "name": "INDONESIA",
        "code": "ID"
      },
      "id": 74032,
      "name": "Lembak",
      "postcode": "31171",
      "lat": -3.340436,
      "lng": 104.342003
    },
    {
      "suburb": {
        "id": 6464,
        "name": "Gelumbang",
        "lat": -3.1948286,
        "lng": 104.4257533
      },
      "city": {
        "id": 431,
        "name": "Muara Enim",
        "lat": -3.7114163,
        "lng": 104.0072348
      },
      "province": {
        "id": 33,
        "name": "Sumatera Selatan",
        "lat": -3.3194374,
        "lng": 103.914399
      },
      "country": {
        "id": 228,
        "name": "INDONESIA",
        "code": "ID"
      },
      "id": 74033,
      "name": "Kartamulia/Kerta Mulia",
      "postcode": "31171",
      "lat": -3.2201331,
      "lng": 104.3617343
    },
    {
      "suburb": {
        "id": 6467,
        "name": "Muara Belida",
        "lat": -3.0849335,
        "lng": 104.6238048
      },
      "city": {
        "id": 431,
        "name": "Muara Enim",
        "lat": -3.7114163,
        "lng": 104.0072348
      },
      "province": {
        "id": 33,
        "name": "Sumatera Selatan",
        "lat": -3.3194374,
        "lng": 103.914399
      },
      "country": {
        "id": 228,
        "name": "INDONESIA",
        "code": "ID"
      },
      "id": 74034,
      "name": "Kayu Ara Batu",
      "postcode": "31171",
      "lat": -3.0840894,
      "lng": 104.5101844
    },
    {
      "suburb": {
        "id": 6465,
        "name": "Lembak",
        "lat": -3.4501031,
        "lng": 104.3559158
      },
      "city": {
        "id": 431,
        "name": "Muara Enim",
        "lat": -3.7114163,
        "lng": 104.0072348
      },
      "province": {
        "id": 33,
        "name": "Sumatera Selatan",
        "lat": -3.3194374,
        "lng": 103.914399
      },
      "country": {
        "id": 228,
        "name": "INDONESIA",
        "code": "ID"
      },
      "id": 74035,
      "name": "Kemang",
      "postcode": "31171",
      "lat": -3.3959364,
      "lng": 104.373372
    },
    {
      "suburb": {
        "id": 6464,
        "name": "Gelumbang",
        "lat": -3.1948286,
        "lng": 104.4257533
      },
      "city": {
        "id": 431,
        "name": "Muara Enim",
        "lat": -3.7114163,
        "lng": 104.0072348
      },
      "province": {
        "id": 33,
        "name": "Sumatera Selatan",
        "lat": -3.3194374,
        "lng": 103.914399
      },
      "country": {
        "id": 228,
        "name": "INDONESIA",
        "code": "ID"
      },
      "id": 74036,
      "name": "Jambu",
      "postcode": "31171",
      "lat": -3.2788908,
      "lng": 104.3500975
    },
    {
      "suburb": {
        "id": 6464,
        "name": "Gelumbang",
        "lat": -3.1948286,
        "lng": 104.4257533
      },
      "city": {
        "id": 431,
        "name": "Muara Enim",
        "lat": -3.7114163,
        "lng": 104.0072348
      },
      "province": {
        "id": 33,
        "name": "Sumatera Selatan",
        "lat": -3.3194374,
        "lng": 103.914399
      },
      "country": {
        "id": 228,
        "name": "INDONESIA",
        "code": "ID"
      },
      "id": 74037,
      "name": "Karang Endah",
      "postcode": "31171",
      "lat": -3.2878086,
      "lng": 104.4082908
    },
    {
      "suburb": {
        "id": 6464,
        "name": "Gelumbang",
        "lat": -3.1948286,
        "lng": 104.4257533
      },
      "city": {
        "id": 431,
        "name": "Muara Enim",
        "lat": -3.7114163,
        "lng": 104.0072348
      },
      "province": {
        "id": 33,
        "name": "Sumatera Selatan",
        "lat": -3.3194374,
        "lng": 103.914399
      },
      "country": {
        "id": 228,
        "name": "INDONESIA",
        "code": "ID"
      },
      "id": 74038,
      "name": "Karang Endah Selatan",
      "postcode": "31171",
      "lat": -3.3173022,
      "lng": 104.3966503
    },
    {
      "suburb": {
        "id": 6467,
        "name": "Muara Belida",
        "lat": -3.0849335,
        "lng": 104.6238048
      },
      "city": {
        "id": 431,
        "name": "Muara Enim",
        "lat": -3.7114163,
        "lng": 104.0072348
      },
      "province": {
        "id": 33,
        "name": "Sumatera Selatan",
        "lat": -3.3194374,
        "lng": 103.914399
      },
      "country": {
        "id": 228,
        "name": "INDONESIA",
        "code": "ID"
      },
      "id": 74039,
      "name": "Harapan Mulya/Mulia",
      "postcode": "31171",
      "lat": -3.0808068,
      "lng": 104.571354
    },
    {
      "suburb": {
        "id": 7020,
        "name": "Belida Darat",
        "lat": -3.4501031,
        "lng": 104.3559158
      },
      "city": {
        "id": 431,
        "name": "Muara Enim",
        "lat": -3.7114163,
        "lng": 104.0072348
      },
      "province": {
        "id": 33,
        "name": "Sumatera Selatan",
        "lat": -3.3194374,
        "lng": 103.914399
      },
      "country": {
        "id": 228,
        "name": "INDONESIA",
        "code": "ID"
      },
      "id": 74040,
      "name": "Ibul",
      "postcode": "31374",
      "lat": -3.4786257,
      "lng": 104.4141114
    },
    {
      "suburb": {
        "id": 6467,
        "name": "Muara Belida",
        "lat": -3.0849335,
        "lng": 104.6238048
      },
      "city": {
        "id": 431,
        "name": "Muara Enim",
        "lat": -3.7114163,
        "lng": 104.0072348
      },
      "province": {
        "id": 33,
        "name": "Sumatera Selatan",
        "lat": -3.3194374,
        "lng": 103.914399
      },
      "country": {
        "id": 228,
        "name": "INDONESIA",
        "code": "ID"
      },
      "id": 74041,
      "name": "Gedung Buruk",
      "postcode": "31171",
      "lat": -3.0849335,
      "lng": 104.6238048
    },
    {
      "suburb": {
        "id": 6464,
        "name": "Gelumbang",
        "lat": -3.1948286,
        "lng": 104.4257533
      },
      "city": {
        "id": 431,
        "name": "Muara Enim",
        "lat": -3.7114163,
        "lng": 104.0072348
      },
      "province": {
        "id": 33,
        "name": "Sumatera Selatan",
        "lat": -3.3194374,
        "lng": 103.914399
      },
      "country": {
        "id": 228,
        "name": "INDONESIA",
        "code": "ID"
      },
      "id": 74042,
      "name": "Gelumbang",
      "postcode": "31171",
      "lat": -3.2482339,
      "lng": 104.4432179
    },
    {
      "suburb": {
        "id": 6464,
        "name": "Gelumbang",
        "lat": -3.1948286,
        "lng": 104.4257533
      },
      "city": {
        "id": 431,
        "name": "Muara Enim",
        "lat": -3.7114163,
        "lng": 104.0072348
      },
      "province": {
        "id": 33,
        "name": "Sumatera Selatan",
        "lat": -3.3194374,
        "lng": 103.914399
      },
      "country": {
        "id": 228,
        "name": "INDONESIA",
        "code": "ID"
      },
      "id": 74043,
      "name": "Gumai",
      "postcode": "31171",
      "lat": -3.1459357,
      "lng": 104.4373961
    },
    {
      "suburb": {
        "id": 6464,
        "name": "Gelumbang",
        "lat": -3.1948286,
        "lng": 104.4257533
      },
      "city": {
        "id": 431,
        "name": "Muara Enim",
        "lat": -3.7114163,
        "lng": 104.0072348
      },
      "province": {
        "id": 33,
        "name": "Sumatera Selatan",
        "lat": -3.3194374,
        "lng": 103.914399
      },
      "country": {
        "id": 228,
        "name": "INDONESIA",
        "code": "ID"
      },
      "id": 74044,
      "name": "Gaung Telang",
      "postcode": "31171",
      "lat": -3.3083847,
      "lng": 104.3384616
    },
    {
      "suburb": {
        "id": 7020,
        "name": "Belida Darat",
        "lat": -3.4501031,
        "lng": 104.3559158
      },
      "city": {
        "id": 431,
        "name": "Muara Enim",
        "lat": -3.7114163,
        "lng": 104.0072348
      },
      "province": {
        "id": 33,
        "name": "Sumatera Selatan",
        "lat": -3.3194374,
        "lng": 103.914399
      },
      "country": {
        "id": 228,
        "name": "INDONESIA",
        "code": "ID"
      },
      "id": 74045,
      "name": "Gaung Asam",
      "postcode": "31374",
      "lat": -3.4198055,
      "lng": 104.4141114
    },
    {
      "suburb": {
        "id": 6466,
        "name": "Kelekar",
        "lat": -3.3407927,
        "lng": 104.4606845
      },
      "city": {
        "id": 431,
        "name": "Muara Enim",
        "lat": -3.7114163,
        "lng": 104.0072348
      },
      "province": {
        "id": 33,
        "name": "Sumatera Selatan",
        "lat": -3.3194374,
        "lng": 103.914399
      },
      "country": {
        "id": 228,
        "name": "INDONESIA",
        "code": "ID"
      },
      "id": 74046,
      "name": "Embacang Kelekar",
      "postcode": "31171",
      "lat": -3.3167837,
      "lng": 104.4315746
    },
    {
      "suburb": {
        "id": 7020,
        "name": "Belida Darat",
        "lat": -3.4501031,
        "lng": 104.3559158
      },
      "city": {
        "id": 431,
        "name": "Muara Enim",
        "lat": -3.7114163,
        "lng": 104.0072348
      },
      "province": {
        "id": 33,
        "name": "Sumatera Selatan",
        "lat": -3.3194374,
        "lng": 103.914399
      },
      "country": {
        "id": 228,
        "name": "INDONESIA",
        "code": "ID"
      },
      "id": 74047,
      "name": "Babat",
      "postcode": "31374",
      "lat": -3.464904,
      "lng": 104.3500975
    },
    {
      "suburb": {
        "id": 6464,
        "name": "Gelumbang",
        "lat": -3.1948286,
        "lng": 104.4257533
      },
      "city": {
        "id": 431,
        "name": "Muara Enim",
        "lat": -3.7114163,
        "lng": 104.0072348
      },
      "province": {
        "id": 33,
        "name": "Sumatera Selatan",
        "lat": -3.3194374,
        "lng": 103.914399
      },
      "country": {
        "id": 228,
        "name": "INDONESIA",
        "code": "ID"
      },
      "id": 74048,
      "name": "Bitis",
      "postcode": "31171",
      "lat": -3.2093733,
      "lng": 104.4315746
    },
    {
      "suburb": {
        "id": 6467,
        "name": "Muara Belida",
        "lat": -3.0849335,
        "lng": 104.6238048
      },
      "city": {
        "id": 431,
        "name": "Muara Enim",
        "lat": -3.7114163,
        "lng": 104.0072348
      },
      "province": {
        "id": 33,
        "name": "Sumatera Selatan",
        "lat": -3.3194374,
        "lng": 103.914399
      },
      "country": {
        "id": 228,
        "name": "INDONESIA",
        "code": "ID"
      },
      "id": 74049,
      "name": "Arisan Musi",
      "postcode": "31171",
      "lat": -3.0349264,
      "lng": 104.373372
    },
    {
      "suburb": {
        "id": 6467,
        "name": "Muara Belida",
        "lat": -3.0849335,
        "lng": 104.6238048
      },
      "city": {
        "id": 431,
        "name": "Muara Enim",
        "lat": -3.7114163,
        "lng": 104.0072348
      },
      "province": {
        "id": 33,
        "name": "Sumatera Selatan",
        "lat": -3.3194374,
        "lng": 103.914399
      },
      "country": {
        "id": 228,
        "name": "INDONESIA",
        "code": "ID"
      },
      "id": 74050,
      "name": "Arisan Musi Timur",
      "postcode": "31171",
      "lat": -3.0731816,
      "lng": 104.4199322
    },
    {
      "suburb": {
        "id": 6465,
        "name": "Lembak",
        "lat": -3.4501031,
        "lng": 104.3559158
      },
      "city": {
        "id": 431,
        "name": "Muara Enim",
        "lat": -3.7114163,
        "lng": 104.0072348
      },
      "province": {
        "id": 33,
        "name": "Sumatera Selatan",
        "lat": -3.3194374,
        "lng": 103.914399
      },
      "country": {
        "id": 228,
        "name": "INDONESIA",
        "code": "ID"
      },
      "id": 74051,
      "name": "Alai",
      "postcode": "31171",
      "lat": -3.319704,
      "lng": 104.2337805
    },
    {
      "suburb": {
        "id": 6468,
        "name": "Prabumulih Barat",
        "lat": -3.4037268,
        "lng": 104.1814686
      },
      "city": {
        "id": 437,
        "name": "Prabumulih",
        "lat": -3.4322664,
        "lng": 104.2395942
      },
      "province": {
        "id": 33,
        "name": "Sumatera Selatan",
        "lat": -3.3194374,
        "lng": 103.914399
      },
      "country": {
        "id": 228,
        "name": "INDONESIA",
        "code": "ID"
      },
      "id": 74052,
      "name": "Tanjung Telang",
      "postcode": "31146",
      "lat": -3.3695131,
      "lng": 104.1756573
    },
    {
      "suburb": {
        "id": 6469,
        "name": "Cambai",
        "lat": -3.3823855,
        "lng": 104.2977433
      },
      "city": {
        "id": 437,
        "name": "Prabumulih",
        "lat": -3.4322664,
        "lng": 104.2395942
      },
      "province": {
        "id": 33,
        "name": "Sumatera Selatan",
        "lat": -3.3194374,
        "lng": 103.914399
      },
      "country": {
        "id": 228,
        "name": "INDONESIA",
        "code": "ID"
      },
      "id": 74053,
      "name": "Muara Sungai",
      "postcode": "31144",
      "lat": -3.380764,
      "lng": 104.2425011
    },
    {
      "suburb": {
        "id": 6469,
        "name": "Cambai",
        "lat": -3.3823855,
        "lng": 104.2977433
      },
      "city": {
        "id": 437,
        "name": "Prabumulih",
        "lat": -3.4322664,
        "lng": 104.2395942
      },
      "province": {
        "id": 33,
        "name": "Sumatera Selatan",
        "lat": -3.3194374,
        "lng": 103.914399
      },
      "country": {
        "id": 228,
        "name": "INDONESIA",
        "code": "ID"
      },
      "id": 74054,
      "name": "Sungai Medang",
      "postcode": "31145",
      "lat": -3.3787919,
      "lng": 104.2105284
    },
    {
      "suburb": {
        "id": 6469,
        "name": "Cambai",
        "lat": -3.3823855,
        "lng": 104.2977433
      },
      "city": {
        "id": 437,
        "name": "Prabumulih",
        "lat": -3.4322664,
        "lng": 104.2395942
      },
      "province": {
        "id": 33,
        "name": "Sumatera Selatan",
        "lat": -3.3194374,
        "lng": 103.914399
      },
      "country": {
        "id": 228,
        "name": "INDONESIA",
        "code": "ID"
      },
      "id": 74055,
      "name": "Sindur",
      "postcode": "31142",
      "lat": -3.3774014,
      "lng": 104.3035595
    },
    {
      "suburb": {
        "id": 6469,
        "name": "Cambai",
        "lat": -3.3823855,
        "lng": 104.2977433
      },
      "city": {
        "id": 437,
        "name": "Prabumulih",
        "lat": -3.4322664,
        "lng": 104.2395942
      },
      "province": {
        "id": 33,
        "name": "Sumatera Selatan",
        "lat": -3.3194374,
        "lng": 103.914399
      },
      "country": {
        "id": 228,
        "name": "INDONESIA",
        "code": "ID"
      },
      "id": 74056,
      "name": "Pangkul",
      "postcode": "31143",
      "lat": -3.3770522,
      "lng": 104.3268266
    },
    {
      "suburb": {
        "id": 6468,
        "name": "Prabumulih Barat",
        "lat": -3.4037268,
        "lng": 104.1814686
      },
      "city": {
        "id": 437,
        "name": "Prabumulih",
        "lat": -3.4322664,
        "lng": 104.2395942
      },
      "province": {
        "id": 33,
        "name": "Sumatera Selatan",
        "lat": -3.3194374,
        "lng": 103.914399
      },
      "country": {
        "id": 228,
        "name": "INDONESIA",
        "code": "ID"
      },
      "id": 74057,
      "name": "Payu Putat",
      "postcode": "31141",
      "lat": -3.3527571,
      "lng": 104.1495096
    },
    {
      "suburb": {
        "id": 6470,
        "name": "Rambang Kapak Tengah",
        "lat": -3.5215121,
        "lng": 104.1814686
      },
      "city": {
        "id": 437,
        "name": "Prabumulih",
        "lat": -3.4322664,
        "lng": 104.2395942
      },
      "province": {
        "id": 33,
        "name": "Sumatera Selatan",
        "lat": -3.3194374,
        "lng": 103.914399
      },
      "country": {
        "id": 228,
        "name": "INDONESIA",
        "code": "ID"
      },
      "id": 74058,
      "name": "Karya Mulya",
      "postcode": "31135",
      "lat": -3.5218719,
      "lng": 104.158225
    },
    {
      "suburb": {
        "id": 6469,
        "name": "Cambai",
        "lat": -3.3823855,
        "lng": 104.2977433
      },
      "city": {
        "id": 437,
        "name": "Prabumulih",
        "lat": -3.4322664,
        "lng": 104.2395942
      },
      "province": {
        "id": 33,
        "name": "Sumatera Selatan",
        "lat": -3.3194374,
        "lng": 103.914399
      },
      "country": {
        "id": 228,
        "name": "INDONESIA",
        "code": "ID"
      },
      "id": 74059,
      "name": "Cambai",
      "postcode": "31141",
      "lat": -3.3777499,
      "lng": 104.2802961
    },
    {
      "suburb": {
        "id": 6471,
        "name": "Prabumulih Selatan",
        "lat": -3.4863244,
        "lng": 104.2337805
      },
      "city": {
        "id": 437,
        "name": "Prabumulih",
        "lat": -3.4322664,
        "lng": 104.2395942
      },
      "province": {
        "id": 33,
        "name": "Sumatera Selatan",
        "lat": -3.3194374,
        "lng": 103.914399
      },
      "country": {
        "id": 228,
        "name": "INDONESIA",
        "code": "ID"
      },
      "id": 74060,
      "name": "Tanjung Menang",
      "postcode": "31134",
      "lat": -3.5161487,
      "lng": 104.2105284
    },
    {
      "suburb": {
        "id": 6470,
        "name": "Rambang Kapak Tengah",
        "lat": -3.5215121,
        "lng": 104.1814686
      },
      "city": {
        "id": 437,
        "name": "Prabumulih",
        "lat": -3.4322664,
        "lng": 104.2395942
      },
      "province": {
        "id": 33,
        "name": "Sumatera Selatan",
        "lat": -3.3194374,
        "lng": 103.914399
      },
      "country": {
        "id": 228,
        "name": "INDONESIA",
        "code": "ID"
      },
      "id": 74061,
      "name": "Karang Bindu",
      "postcode": "31133",
      "lat": -3.5348949,
      "lng": 104.2686658
    },
    {
      "suburb": {
        "id": 6470,
        "name": "Rambang Kapak Tengah",
        "lat": -3.5215121,
        "lng": 104.1814686
      },
      "city": {
        "id": 437,
        "name": "Prabumulih",
        "lat": -3.4322664,
        "lng": 104.2395942
      },
      "province": {
        "id": 33,
        "name": "Sumatera Selatan",
        "lat": -3.3194374,
        "lng": 103.914399
      },
      "country": {
        "id": 228,
        "name": "INDONESIA",
        "code": "ID"
      },
      "id": 74062,
      "name": "Tanjung Rambang",
      "postcode": "31131",
      "lat": -3.5523231,
      "lng": 104.2541292
    },
    {
      "suburb": {
        "id": 6470,
        "name": "Rambang Kapak Tengah",
        "lat": -3.5215121,
        "lng": 104.1814686
      },
      "city": {
        "id": 437,
        "name": "Prabumulih",
        "lat": -3.4322664,
        "lng": 104.2395942
      },
      "province": {
        "id": 33,
        "name": "Sumatera Selatan",
        "lat": -3.3194374,
        "lng": 103.914399
      },
      "country": {
        "id": 228,
        "name": "INDONESIA",
        "code": "ID"
      },
      "id": 74063,
      "name": "Rambang Senuling",
      "postcode": "31132",
      "lat": -3.5541858,
      "lng": 104.2919273
    },
    {
      "suburb": {
        "id": 6470,
        "name": "Rambang Kapak Tengah",
        "lat": -3.5215121,
        "lng": 104.1814686
      },
      "city": {
        "id": 437,
        "name": "Prabumulih",
        "lat": -3.4322664,
        "lng": 104.2395942
      },
      "province": {
        "id": 33,
        "name": "Sumatera Selatan",
        "lat": -3.3194374,
        "lng": 103.914399
      },
      "country": {
        "id": 228,
        "name": "INDONESIA",
        "code": "ID"
      },
      "id": 74064,
      "name": "Sinar Rambang",
      "postcode": "31131",
      "lat": -3.5256131,
      "lng": 104.2337805
    },
    {
      "suburb": {
        "id": 6470,
        "name": "Rambang Kapak Tengah",
        "lat": -3.5215121,
        "lng": 104.1814686
      },
      "city": {
        "id": 437,
        "name": "Prabumulih",
        "lat": -3.4322664,
        "lng": 104.2395942
      },
      "province": {
        "id": 33,
        "name": "Sumatera Selatan",
        "lat": -3.3194374,
        "lng": 103.914399
      },
      "country": {
        "id": 228,
        "name": "INDONESIA",
        "code": "ID"
      },
      "id": 74065,
      "name": "Talang Batu",
      "postcode": "31131",
      "lat": -3.5247059,
      "lng": 104.2919273
    },
    {
      "suburb": {
        "id": 6470,
        "name": "Rambang Kapak Tengah",
        "lat": -3.5215121,
        "lng": 104.1814686
      },
      "city": {
        "id": 437,
        "name": "Prabumulih",
        "lat": -3.4322664,
        "lng": 104.2395942
      },
      "province": {
        "id": 33,
        "name": "Sumatera Selatan",
        "lat": -3.3194374,
        "lng": 103.914399
      },
      "country": {
        "id": 228,
        "name": "INDONESIA",
        "code": "ID"
      },
      "id": 74066,
      "name": "Karangan",
      "postcode": "31131",
      "lat": -3.505424,
      "lng": 104.2686658
    },
    {
      "suburb": {
        "id": 6470,
        "name": "Rambang Kapak Tengah",
        "lat": -3.5215121,
        "lng": 104.1814686
      },
      "city": {
        "id": 437,
        "name": "Prabumulih",
        "lat": -3.4322664,
        "lng": 104.2395942
      },
      "province": {
        "id": 33,
        "name": "Sumatera Selatan",
        "lat": -3.3194374,
        "lng": 103.914399
      },
      "country": {
        "id": 228,
        "name": "INDONESIA",
        "code": "ID"
      },
      "id": 74067,
      "name": "Kembang Tanduk",
      "postcode": "31131",
      "lat": -3.4870392,
      "lng": 104.1872801
    },
    {
      "suburb": {
        "id": 6468,
        "name": "Prabumulih Barat",
        "lat": -3.4037268,
        "lng": 104.1814686
      },
      "city": {
        "id": 437,
        "name": "Prabumulih",
        "lat": -3.4322664,
        "lng": 104.2395942
      },
      "province": {
        "id": 33,
        "name": "Sumatera Selatan",
        "lat": -3.3194374,
        "lng": 103.914399
      },
      "country": {
        "id": 228,
        "name": "INDONESIA",
        "code": "ID"
      },
      "id": 74068,
      "name": "Patih Galung",
      "postcode": "31127",
      "lat": -3.4629374,
      "lng": 104.158225
    },
    {
      "suburb": {
        "id": 6470,
        "name": "Rambang Kapak Tengah",
        "lat": -3.5215121,
        "lng": 104.1814686
      },
      "city": {
        "id": 437,
        "name": "Prabumulih",
        "lat": -3.4322664,
        "lng": 104.2395942
      },
      "province": {
        "id": 33,
        "name": "Sumatera Selatan",
        "lat": -3.3194374,
        "lng": 103.914399
      },
      "country": {
        "id": 228,
        "name": "INDONESIA",
        "code": "ID"
      },
      "id": 74069,
      "name": "Jungai",
      "postcode": "31131",
      "lat": -3.5643838,
      "lng": 104.2686658
    },
    {
      "suburb": {
        "id": 6472,
        "name": "Prabumulih Utara",
        "lat": -3.4178215,
        "lng": 104.222154
      },
      "city": {
        "id": 437,
        "name": "Prabumulih",
        "lat": -3.4322664,
        "lng": 104.2395942
      },
      "province": {
        "id": 33,
        "name": "Sumatera Selatan",
        "lat": -3.3194374,
        "lng": 103.914399
      },
      "country": {
        "id": 228,
        "name": "INDONESIA",
        "code": "ID"
      },
      "id": 74070,
      "name": "Wonosari",
      "postcode": "31126",
      "lat": -3.428743,
      "lng": 104.2294205
    },
    {
      "suburb": {
        "id": 6468,
        "name": "Prabumulih Barat",
        "lat": -3.4037268,
        "lng": 104.1814686
      },
      "city": {
        "id": 437,
        "name": "Prabumulih",
        "lat": -3.4322664,
        "lng": 104.2395942
      },
      "province": {
        "id": 33,
        "name": "Sumatera Selatan",
        "lat": -3.3194374,
        "lng": 103.914399
      },
      "country": {
        "id": 228,
        "name": "INDONESIA",
        "code": "ID"
      },
      "id": 74071,
      "name": "Prabumulih",
      "postcode": "31123",
      "lat": -3.4533102,
      "lng": 104.2265138
    },
    {
      "suburb": {
        "id": 6471,
        "name": "Prabumulih Selatan",
        "lat": -3.4863244,
        "lng": 104.2337805
      },
      "city": {
        "id": 437,
        "name": "Prabumulih",
        "lat": -3.4322664,
        "lng": 104.2395942
      },
      "province": {
        "id": 33,
        "name": "Sumatera Selatan",
        "lat": -3.3194374,
        "lng": 103.914399
      },
      "country": {
        "id": 228,
        "name": "INDONESIA",
        "code": "ID"
      },
      "id": 74072,
      "name": "Majasari",
      "postcode": "31124",
      "lat": -3.4456422,
      "lng": 104.2468615
    },
    {
      "suburb": {
        "id": 6472,
        "name": "Prabumulih Utara",
        "lat": -3.4178215,
        "lng": 104.222154
      },
      "city": {
        "id": 437,
        "name": "Prabumulih",
        "lat": -3.4322664,
        "lng": 104.2395942
      },
      "province": {
        "id": 33,
        "name": "Sumatera Selatan",
        "lat": -3.3194374,
        "lng": 103.914399
      },
      "country": {
        "id": 228,
        "name": "INDONESIA",
        "code": "ID"
      },
      "id": 74073,
      "name": "Mangga Besar",
      "postcode": "31125",
      "lat": -3.4236641,
      "lng": 104.2410476
    },
    {
      "suburb": {
        "id": 6468,
        "name": "Prabumulih Barat",
        "lat": -3.4037268,
        "lng": 104.1814686
      },
      "city": {
        "id": 437,
        "name": "Prabumulih",
        "lat": -3.4322664,
        "lng": 104.2395942
      },
      "province": {
        "id": 33,
        "name": "Sumatera Selatan",
        "lat": -3.3194374,
        "lng": 103.914399
      },
      "country": {
        "id": 228,
        "name": "INDONESIA",
        "code": "ID"
      },
      "id": 74074,
      "name": "Gunung Kemala",
      "postcode": "31122",
      "lat": -3.4037268,
      "lng": 104.1814686
    },
    {
      "suburb": {
        "id": 6472,
        "name": "Prabumulih Utara",
        "lat": -3.4178215,
        "lng": 104.222154
      },
      "city": {
        "id": 437,
        "name": "Prabumulih",
        "lat": -3.4322664,
        "lng": 104.2395942
      },
      "province": {
        "id": 33,
        "name": "Sumatera Selatan",
        "lat": -3.3194374,
        "lng": 103.914399
      },
      "country": {
        "id": 228,
        "name": "INDONESIA",
        "code": "ID"
      },
      "id": 74075,
      "name": "Pasar Prabumulih II",
      "postcode": "31121",
      "lat": -3.428655,
      "lng": 104.2352339
    },
    {
      "suburb": {
        "id": 6468,
        "name": "Prabumulih Barat",
        "lat": -3.4037268,
        "lng": 104.1814686
      },
      "city": {
        "id": 437,
        "name": "Prabumulih",
        "lat": -3.4322664,
        "lng": 104.2395942
      },
      "province": {
        "id": 33,
        "name": "Sumatera Selatan",
        "lat": -3.3194374,
        "lng": 103.914399
      },
      "country": {
        "id": 228,
        "name": "INDONESIA",
        "code": "ID"
      },
      "id": 74076,
      "name": "Muntang Tapus",
      "postcode": "31121",
      "lat": -3.4344783,
      "lng": 104.2271645
    },
    {
      "suburb": {
        "id": 6472,
        "name": "Prabumulih Utara",
        "lat": -3.4178215,
        "lng": 104.222154
      },
      "city": {
        "id": 437,
        "name": "Prabumulih",
        "lat": -3.4322664,
        "lng": 104.2395942
      },
      "province": {
        "id": 33,
        "name": "Sumatera Selatan",
        "lat": -3.3194374,
        "lng": 103.914399
      },
      "country": {
        "id": 228,
        "name": "INDONESIA",
        "code": "ID"
      },
      "id": 74077,
      "name": "Pasar Prabumulih",
      "postcode": "31121",
      "lat": -3.4304166,
      "lng": 104.2403209
    },
    {
      "suburb": {
        "id": 6473,
        "name": "Prabumulih Timur",
        "lat": -3.4213707,
        "lng": 104.2436833
      },
      "city": {
        "id": 437,
        "name": "Prabumulih",
        "lat": -3.4322664,
        "lng": 104.2395942
      },
      "province": {
        "id": 33,
        "name": "Sumatera Selatan",
        "lat": -3.3194374,
        "lng": 103.914399
      },
      "country": {
        "id": 228,
        "name": "INDONESIA",
        "code": "ID"
      },
      "id": 74078,
      "name": "Gunung Ibul Barat",
      "postcode": "31117",
      "lat": -3.4037953,
      "lng": 104.2584901
    },
    {
      "suburb": {
        "id": 6472,
        "name": "Prabumulih Utara",
        "lat": -3.4178215,
        "lng": 104.222154
      },
      "city": {
        "id": 437,
        "name": "Prabumulih",
        "lat": -3.4322664,
        "lng": 104.2395942
      },
      "province": {
        "id": 33,
        "name": "Sumatera Selatan",
        "lat": -3.3194374,
        "lng": 103.914399
      },
      "country": {
        "id": 228,
        "name": "INDONESIA",
        "code": "ID"
      },
      "id": 74079,
      "name": "Anak Petai",
      "postcode": "31121",
      "lat": -3.4179967,
      "lng": 104.2105284
    },
    {
      "suburb": {
        "id": 6473,
        "name": "Prabumulih Timur",
        "lat": -3.4213707,
        "lng": 104.2436833
      },
      "city": {
        "id": 437,
        "name": "Prabumulih",
        "lat": -3.4322664,
        "lng": 104.2395942
      },
      "province": {
        "id": 33,
        "name": "Sumatera Selatan",
        "lat": -3.3194374,
        "lng": 103.914399
      },
      "country": {
        "id": 228,
        "name": "INDONESIA",
        "code": "ID"
      },
      "id": 74080,
      "name": "Muara Dua",
      "postcode": "31113",
      "lat": -3.4369051,
      "lng": 104.2570364
    },
    {
      "suburb": {
        "id": 6473,
        "name": "Prabumulih Timur",
        "lat": -3.4213707,
        "lng": 104.2436833
      },
      "city": {
        "id": 437,
        "name": "Prabumulih",
        "lat": -3.4322664,
        "lng": 104.2395942
      },
      "province": {
        "id": 33,
        "name": "Sumatera Selatan",
        "lat": -3.3194374,
        "lng": 103.914399
      },
      "country": {
        "id": 228,
        "name": "INDONESIA",
        "code": "ID"
      },
      "id": 74081,
      "name": "Karang Jaya",
      "postcode": "31115",
      "lat": -3.4411882,
      "lng": 104.2977433
    },
    {
      "suburb": {
        "id": 6471,
        "name": "Prabumulih Selatan",
        "lat": -3.4863244,
        "lng": 104.2337805
      },
      "city": {
        "id": 437,
        "name": "Prabumulih",
        "lat": -3.4322664,
        "lng": 104.2395942
      },
      "province": {
        "id": 33,
        "name": "Sumatera Selatan",
        "lat": -3.3194374,
        "lng": 103.914399
      },
      "country": {
        "id": 228,
        "name": "INDONESIA",
        "code": "ID"
      },
      "id": 74082,
      "name": "Tanjung Raman",
      "postcode": "31116",
      "lat": -3.4863244,
      "lng": 104.2337805
    },
    {
      "suburb": {
        "id": 6473,
        "name": "Prabumulih Timur",
        "lat": -3.4213707,
        "lng": 104.2436833
      },
      "city": {
        "id": 437,
        "name": "Prabumulih",
        "lat": -3.4322664,
        "lng": 104.2395942
      },
      "province": {
        "id": 33,
        "name": "Sumatera Selatan",
        "lat": -3.3194374,
        "lng": 103.914399
      },
      "country": {
        "id": 228,
        "name": "INDONESIA",
        "code": "ID"
      },
      "id": 74083,
      "name": "Gunung Ibul",
      "postcode": "31113",
      "lat": -3.4071415,
      "lng": 104.2802961
    },
    {
      "suburb": {
        "id": 6471,
        "name": "Prabumulih Selatan",
        "lat": -3.4863244,
        "lng": 104.2337805
      },
      "city": {
        "id": 437,
        "name": "Prabumulih",
        "lat": -3.4322664,
        "lng": 104.2395942
      },
      "province": {
        "id": 33,
        "name": "Sumatera Selatan",
        "lat": -3.3194374,
        "lng": 103.914399
      },
      "country": {
        "id": 228,
        "name": "INDONESIA",
        "code": "ID"
      },
      "id": 74084,
      "name": "Sukaraja",
      "postcode": "31112",
      "lat": -3.475971,
      "lng": 104.2686658
    },
    {
      "suburb": {
        "id": 6473,
        "name": "Prabumulih Timur",
        "lat": -3.4213707,
        "lng": 104.2436833
      },
      "city": {
        "id": 437,
        "name": "Prabumulih",
        "lat": -3.4322664,
        "lng": 104.2395942
      },
      "province": {
        "id": 33,
        "name": "Sumatera Selatan",
        "lat": -3.3194374,
        "lng": 103.914399
      },
      "country": {
        "id": 228,
        "name": "INDONESIA",
        "code": "ID"
      },
      "id": 74085,
      "name": "Sukajadi",
      "postcode": "31111",
      "lat": -3.4002733,
      "lng": 104.248315
    },
    {
      "suburb": {
        "id": 6473,
        "name": "Prabumulih Timur",
        "lat": -3.4213707,
        "lng": 104.2436833
      },
      "city": {
        "id": 437,
        "name": "Prabumulih",
        "lat": -3.4322664,
        "lng": 104.2395942
      },
      "province": {
        "id": 33,
        "name": "Sumatera Selatan",
        "lat": -3.3194374,
        "lng": 103.914399
      },
      "country": {
        "id": 228,
        "name": "INDONESIA",
        "code": "ID"
      },
      "id": 74086,
      "name": "Tugu Kecil",
      "postcode": "31111",
      "lat": -3.4235761,
      "lng": 104.2468615
    },
    {
      "suburb": {
        "id": 6473,
        "name": "Prabumulih Timur",
        "lat": -3.4213707,
        "lng": 104.2436833
      },
      "city": {
        "id": 437,
        "name": "Prabumulih",
        "lat": -3.4322664,
        "lng": 104.2395942
      },
      "province": {
        "id": 33,
        "name": "Sumatera Selatan",
        "lat": -3.3194374,
        "lng": 103.914399
      },
      "country": {
        "id": 228,
        "name": "INDONESIA",
        "code": "ID"
      },
      "id": 74087,
      "name": "Prabu Jaya",
      "postcode": "31111",
      "lat": -3.4151512,
      "lng": 104.2366873
    },
    {
      "suburb": {
        "id": 6474,
        "name": "Air Salek",
        "lat": -2.6256716,
        "lng": 105.0089888
      },
      "city": {
        "id": 438,
        "name": "Banyuasin",
        "lat": -2.6095639,
        "lng": 104.7520939
      },
      "province": {
        "id": 33,
        "name": "Sumatera Selatan",
        "lat": -3.3194374,
        "lng": 103.914399
      },
      "country": {
        "id": 228,
        "name": "INDONESIA",
        "code": "ID"
      },
      "id": 74088,
      "name": "Upang Marga",
      "postcode": "30975",
      "lat": -2.6256716,
      "lng": 105.0089888
    },
    {
      "suburb": {
        "id": 6473,
        "name": "Prabumulih Timur",
        "lat": -3.4213707,
        "lng": 104.2436833
      },
      "city": {
        "id": 437,
        "name": "Prabumulih",
        "lat": -3.4322664,
        "lng": 104.2395942
      },
      "province": {
        "id": 33,
        "name": "Sumatera Selatan",
        "lat": -3.3194374,
        "lng": 103.914399
      },
      "country": {
        "id": 228,
        "name": "INDONESIA",
        "code": "ID"
      },
      "id": 74089,
      "name": "Karang Raja",
      "postcode": "31111",
      "lat": -3.4309304,
      "lng": 104.2468615
    },
    {
      "suburb": {
        "id": 6475,
        "name": "Muara Padang",
        "lat": -2.6629493,
        "lng": 105.1025075
      },
      "city": {
        "id": 438,
        "name": "Banyuasin",
        "lat": -2.6095639,
        "lng": 104.7520939
      },
      "province": {
        "id": 33,
        "name": "Sumatera Selatan",
        "lat": -3.3194374,
        "lng": 103.914399
      },
      "country": {
        "id": 228,
        "name": "INDONESIA",
        "code": "ID"
      },
      "id": 74090,
      "name": "Tirto Raharjo",
      "postcode": "30975",
      "lat": -2.690753,
      "lng": 105.1843801
    },
    {
      "suburb": {
        "id": 6474,
        "name": "Air Salek",
        "lat": -2.6256716,
        "lng": 105.0089888
      },
      "city": {
        "id": 438,
        "name": "Banyuasin",
        "lat": -2.6095639,
        "lng": 104.7520939
      },
      "province": {
        "id": 33,
        "name": "Sumatera Selatan",
        "lat": -3.3194374,
        "lng": 103.914399
      },
      "country": {
        "id": 228,
        "name": "INDONESIA",
        "code": "ID"
      },
      "id": 74091,
      "name": "Upang",
      "postcode": "30975",
      "lat": -2.7345069,
      "lng": 104.9635009
    },
    {
      "suburb": {
        "id": 6475,
        "name": "Muara Padang",
        "lat": -2.6629493,
        "lng": 105.1025075
      },
      "city": {
        "id": 438,
        "name": "Banyuasin",
        "lat": -2.6095639,
        "lng": 104.7520939
      },
      "province": {
        "id": 33,
        "name": "Sumatera Selatan",
        "lat": -3.3194374,
        "lng": 103.914399
      },
      "country": {
        "id": 228,
        "name": "INDONESIA",
        "code": "ID"
      },
      "id": 74092,
      "name": "Tirta Jaya",
      "postcode": "30975",
      "lat": -2.7258399,
      "lng": 105.0732771
    },
    {
      "suburb": {
        "id": 6476,
        "name": "Muara Sugihan",
        "lat": -2.4129504,
        "lng": 105.1726816
      },
      "city": {
        "id": 438,
        "name": "Banyuasin",
        "lat": -2.6095639,
        "lng": 104.7520939
      },
      "province": {
        "id": 33,
        "name": "Sumatera Selatan",
        "lat": -3.3194374,
        "lng": 103.914399
      },
      "country": {
        "id": 228,
        "name": "INDONESIA",
        "code": "ID"
      },
      "id": 74093,
      "name": "Tirta/Tirto Mulyo",
      "postcode": "30975",
      "lat": -2.4175274,
      "lng": 105.1902297
    },
    {
      "suburb": {
        "id": 6476,
        "name": "Muara Sugihan",
        "lat": -2.4129504,
        "lng": 105.1726816
      },
      "city": {
        "id": 438,
        "name": "Banyuasin",
        "lat": -2.6095639,
        "lng": 104.7520939
      },
      "province": {
        "id": 33,
        "name": "Sumatera Selatan",
        "lat": -3.3194374,
        "lng": 103.914399
      },
      "country": {
        "id": 228,
        "name": "INDONESIA",
        "code": "ID"
      },
      "id": 74094,
      "name": "Tirto Harjo",
      "postcode": "30975",
      "lat": -2.4847377,
      "lng": 105.1668326
    },
    {
      "suburb": {
        "id": 6475,
        "name": "Muara Padang",
        "lat": -2.6629493,
        "lng": 105.1025075
      },
      "city": {
        "id": 438,
        "name": "Banyuasin",
        "lat": -2.6095639,
        "lng": 104.7520939
      },
      "province": {
        "id": 33,
        "name": "Sumatera Selatan",
        "lat": -3.3194374,
        "lng": 103.914399
      },
      "country": {
        "id": 228,
        "name": "INDONESIA",
        "code": "ID"
      },
      "id": 74095,
      "name": "Tanjung Baru",
      "postcode": "30975",
      "lat": -2.6555692,
      "lng": 105.0681624
    },
    {
      "suburb": {
        "id": 6476,
        "name": "Muara Sugihan",
        "lat": -2.4129504,
        "lng": 105.1726816
      },
      "city": {
        "id": 438,
        "name": "Banyuasin",
        "lat": -2.6095639,
        "lng": 104.7520939
      },
      "province": {
        "id": 33,
        "name": "Sumatera Selatan",
        "lat": -3.3194374,
        "lng": 103.914399
      },
      "country": {
        "id": 228,
        "name": "INDONESIA",
        "code": "ID"
      },
      "id": 74096,
      "name": "Timbul Jaya",
      "postcode": "30975",
      "lat": -2.4354227,
      "lng": 105.2955575
    },
    {
      "suburb": {
        "id": 6475,
        "name": "Muara Padang",
        "lat": -2.6629493,
        "lng": 105.1025075
      },
      "city": {
        "id": 438,
        "name": "Banyuasin",
        "lat": -2.6095639,
        "lng": 104.7520939
      },
      "province": {
        "id": 33,
        "name": "Sumatera Selatan",
        "lat": -3.3194374,
        "lng": 103.914399
      },
      "country": {
        "id": 228,
        "name": "INDONESIA",
        "code": "ID"
      },
      "id": 74097,
      "name": "Sumber Makmur",
      "postcode": "30975",
      "lat": -2.6771475,
      "lng": 105.1200482
    },
    {
      "suburb": {
        "id": 6476,
        "name": "Muara Sugihan",
        "lat": -2.4129504,
        "lng": 105.1726816
      },
      "city": {
        "id": 438,
        "name": "Banyuasin",
        "lat": -2.6095639,
        "lng": 104.7520939
      },
      "province": {
        "id": 33,
        "name": "Sumatera Selatan",
        "lat": -3.3194374,
        "lng": 103.914399
      },
      "country": {
        "id": 228,
        "name": "INDONESIA",
        "code": "ID"
      },
      "id": 74098,
      "name": "Sumber Mulyo",
      "postcode": "30975",
      "lat": -2.5523444,
      "lng": 105.1200482
    },
    {
      "suburb": {
        "id": 6476,
        "name": "Muara Sugihan",
        "lat": -2.4129504,
        "lng": 105.1726816
      },
      "city": {
        "id": 438,
        "name": "Banyuasin",
        "lat": -2.6095639,
        "lng": 104.7520939
      },
      "province": {
        "id": 33,
        "name": "Sumatera Selatan",
        "lat": -3.3194374,
        "lng": 103.914399
      },
      "country": {
        "id": 228,
        "name": "INDONESIA",
        "code": "ID"
      },
      "id": 74099,
      "name": "Sugih Waras",
      "postcode": "30975",
      "lat": -2.5517812,
      "lng": 105.1668326
    },
    {
      "suburb": {
        "id": 6474,
        "name": "Air Salek",
        "lat": -2.6256716,
        "lng": 105.0089888
      },
      "city": {
        "id": 438,
        "name": "Banyuasin",
        "lat": -2.6095639,
        "lng": 104.7520939
      },
      "province": {
        "id": 33,
        "name": "Sumatera Selatan",
        "lat": -3.3194374,
        "lng": 103.914399
      },
      "country": {
        "id": 228,
        "name": "INDONESIA",
        "code": "ID"
      },
      "id": 74100,
      "name": "Srimulyo",
      "postcode": "30975",
      "lat": -2.7077765,
      "lng": 104.9797753
    },
    {
      "suburb": {
        "id": 6475,
        "name": "Muara Padang",
        "lat": -2.6629493,
        "lng": 105.1025075
      },
      "city": {
        "id": 438,
        "name": "Banyuasin",
        "lat": -2.6095639,
        "lng": 104.7520939
      },
      "province": {
        "id": 33,
        "name": "Sumatera Selatan",
        "lat": -3.3194374,
        "lng": 103.914399
      },
      "country": {
        "id": 228,
        "name": "INDONESIA",
        "code": "ID"
      },
      "id": 74101,
      "name": "Sidomulyo 20",
      "postcode": "30975",
      "lat": -2.6629493,
      "lng": 105.1025075
    },
    {
      "suburb": {
        "id": 6475,
        "name": "Muara Padang",
        "lat": -2.6629493,
        "lng": 105.1025075
      },
      "city": {
        "id": 438,
        "name": "Banyuasin",
        "lat": -2.6095639,
        "lng": 104.7520939
      },
      "province": {
        "id": 33,
        "name": "Sumatera Selatan",
        "lat": -3.3194374,
        "lng": 103.914399
      },
      "country": {
        "id": 228,
        "name": "INDONESIA",
        "code": "ID"
      },
      "id": 74102,
      "name": "Sidorejo",
      "postcode": "30975",
      "lat": -2.6094711,
      "lng": 105.1551352
    },
    {
      "suburb": {
        "id": 6474,
        "name": "Air Salek",
        "lat": -2.6256716,
        "lng": 105.0089888
      },
      "city": {
        "id": 438,
        "name": "Banyuasin",
        "lat": -2.6095639,
        "lng": 104.7520939
      },
      "province": {
        "id": 33,
        "name": "Sumatera Selatan",
        "lat": -3.3194374,
        "lng": 103.914399
      },
      "country": {
        "id": 228,
        "name": "INDONESIA",
        "code": "ID"
      },
      "id": 74103,
      "name": "Srikaton",
      "postcode": "30975",
      "lat": -2.7268839,
      "lng": 104.9914601
    },
    {
      "suburb": {
        "id": 6475,
        "name": "Muara Padang",
        "lat": -2.6629493,
        "lng": 105.1025075
      },
      "city": {
        "id": 438,
        "name": "Banyuasin",
        "lat": -2.6095639,
        "lng": 104.7520939
      },
      "province": {
        "id": 33,
        "name": "Sumatera Selatan",
        "lat": -3.3194374,
        "lng": 103.914399
      },
      "country": {
        "id": 228,
        "name": "INDONESIA",
        "code": "ID"
      },
      "id": 74104,
      "name": "Sidomulyo 18",
      "postcode": "30975",
      "lat": -2.6629493,
      "lng": 105.1025075
    },
    {
      "suburb": {
        "id": 6474,
        "name": "Air Salek",
        "lat": -2.6256716,
        "lng": 105.0089888
      },
      "city": {
        "id": 438,
        "name": "Banyuasin",
        "lat": -2.6095639,
        "lng": 104.7520939
      },
      "province": {
        "id": 33,
        "name": "Sumatera Selatan",
        "lat": -3.3194374,
        "lng": 103.914399
      },
      "country": {
        "id": 228,
        "name": "INDONESIA",
        "code": "ID"
      },
      "id": 74105,
      "name": "Sidoharjo",
      "postcode": "30975",
      "lat": -2.649479,
      "lng": 105.0265195
    },
    {
      "suburb": {
        "id": 6476,
        "name": "Muara Sugihan",
        "lat": -2.4129504,
        "lng": 105.1726816
      },
      "city": {
        "id": 438,
        "name": "Banyuasin",
        "lat": -2.6095639,
        "lng": 104.7520939
      },
      "province": {
        "id": 33,
        "name": "Sumatera Selatan",
        "lat": -3.3194374,
        "lng": 103.914399
      },
      "country": {
        "id": 228,
        "name": "INDONESIA",
        "code": "ID"
      },
      "id": 74106,
      "name": "Rejosari",
      "postcode": "30975",
      "lat": -2.4844628,
      "lng": 105.1902297
    },
    {
      "suburb": {
        "id": 6476,
        "name": "Muara Sugihan",
        "lat": -2.4129504,
        "lng": 105.1726816
      },
      "city": {
        "id": 438,
        "name": "Banyuasin",
        "lat": -2.6095639,
        "lng": 104.7520939
      },
      "province": {
        "id": 33,
        "name": "Sumatera Selatan",
        "lat": -3.3194374,
        "lng": 103.914399
      },
      "country": {
        "id": 228,
        "name": "INDONESIA",
        "code": "ID"
      },
      "id": 74107,
      "name": "Sido Makmur",
      "postcode": "30975",
      "lat": -2.4226401,
      "lng": 105.1609838
    },
    {
      "suburb": {
        "id": 6474,
        "name": "Air Salek",
        "lat": -2.6256716,
        "lng": 105.0089888
      },
      "city": {
        "id": 438,
        "name": "Banyuasin",
        "lat": -2.6095639,
        "lng": 104.7520939
      },
      "province": {
        "id": 33,
        "name": "Sumatera Selatan",
        "lat": -3.3194374,
        "lng": 103.914399
      },
      "country": {
        "id": 228,
        "name": "INDONESIA",
        "code": "ID"
      },
      "id": 74108,
      "name": "Saleh Makmur",
      "postcode": "30975",
      "lat": -2.6382216,
      "lng": 104.9651706
    },
    {
      "suburb": {
        "id": 6475,
        "name": "Muara Padang",
        "lat": -2.6629493,
        "lng": 105.1025075
      },
      "city": {
        "id": 438,
        "name": "Banyuasin",
        "lat": -2.6095639,
        "lng": 104.7520939
      },
      "province": {
        "id": 33,
        "name": "Sumatera Selatan",
        "lat": -3.3194374,
        "lng": 103.914399
      },
      "country": {
        "id": 228,
        "name": "INDONESIA",
        "code": "ID"
      },
      "id": 74109,
      "name": "Muara Padang",
      "postcode": "30975",
      "lat": -2.745547,
      "lng": 105.0382076
    },
    {
      "suburb": {
        "id": 6475,
        "name": "Muara Padang",
        "lat": -2.6629493,
        "lng": 105.1025075
      },
      "city": {
        "id": 438,
        "name": "Banyuasin",
        "lat": -2.6095639,
        "lng": 104.7520939
      },
      "province": {
        "id": 33,
        "name": "Sumatera Selatan",
        "lat": -3.3194374,
        "lng": 103.914399
      },
      "country": {
        "id": 228,
        "name": "INDONESIA",
        "code": "ID"
      },
      "id": 74110,
      "name": "Purwodadi",
      "postcode": "30975",
      "lat": -2.6678285,
      "lng": 105.096661
    },
    {
      "suburb": {
        "id": 6476,
        "name": "Muara Sugihan",
        "lat": -2.4129504,
        "lng": 105.1726816
      },
      "city": {
        "id": 438,
        "name": "Banyuasin",
        "lat": -2.6095639,
        "lng": 104.7520939
      },
      "province": {
        "id": 33,
        "name": "Sumatera Selatan",
        "lat": -3.3194374,
        "lng": 103.914399
      },
      "country": {
        "id": 228,
        "name": "INDONESIA",
        "code": "ID"
      },
      "id": 74111,
      "name": "Margo Mulyo 16",
      "postcode": "30975",
      "lat": -2.552063,
      "lng": 105.1434387
    },
    {
      "suburb": {
        "id": 6476,
        "name": "Muara Sugihan",
        "lat": -2.4129504,
        "lng": 105.1726816
      },
      "city": {
        "id": 438,
        "name": "Banyuasin",
        "lat": -2.6095639,
        "lng": 104.7520939
      },
      "province": {
        "id": 33,
        "name": "Sumatera Selatan",
        "lat": -3.3194374,
        "lng": 103.914399
      },
      "country": {
        "id": 228,
        "name": "INDONESIA",
        "code": "ID"
      },
      "id": 74112,
      "name": "Mekar Jaya",
      "postcode": "30975",
      "lat": -2.4977783,
      "lng": 105.2779983
    },
    {
      "suburb": {
        "id": 6475,
        "name": "Muara Padang",
        "lat": -2.6629493,
        "lng": 105.1025075
      },
      "city": {
        "id": 438,
        "name": "Banyuasin",
        "lat": -2.6095639,
        "lng": 104.7520939
      },
      "province": {
        "id": 33,
        "name": "Sumatera Selatan",
        "lat": -3.3194374,
        "lng": 103.914399
      },
      "country": {
        "id": 228,
        "name": "INDONESIA",
        "code": "ID"
      },
      "id": 74113,
      "name": "Margomulyo 20",
      "postcode": "30975",
      "lat": -2.6961024,
      "lng": 105.0783568
    },
    {
      "suburb": {
        "id": 6476,
        "name": "Muara Sugihan",
        "lat": -2.4129504,
        "lng": 105.1726816
      },
      "city": {
        "id": 438,
        "name": "Banyuasin",
        "lat": -2.6095639,
        "lng": 104.7520939
      },
      "province": {
        "id": 33,
        "name": "Sumatera Selatan",
        "lat": -3.3194374,
        "lng": 103.914399
      },
      "country": {
        "id": 228,
        "name": "INDONESIA",
        "code": "ID"
      },
      "id": 74114,
      "name": "Marega Rukun (Margo/Marga Rukun)",
      "postcode": "30975",
      "lat": -2.4757146,
      "lng": 105.1200482
    },
    {
      "suburb": {
        "id": 6475,
        "name": "Muara Padang",
        "lat": -2.6629493,
        "lng": 105.1025075
      },
      "city": {
        "id": 438,
        "name": "Banyuasin",
        "lat": -2.6095639,
        "lng": 104.7520939
      },
      "province": {
        "id": 33,
        "name": "Sumatera Selatan",
        "lat": -3.3194374,
        "lng": 103.914399
      },
      "country": {
        "id": 228,
        "name": "INDONESIA",
        "code": "ID"
      },
      "id": 74115,
      "name": "Marga Sugihan",
      "postcode": "30975",
      "lat": -2.6139089,
      "lng": 105.1843801
    },
    {
      "suburb": {
        "id": 6476,
        "name": "Muara Sugihan",
        "lat": -2.4129504,
        "lng": 105.1726816
      },
      "city": {
        "id": 438,
        "name": "Banyuasin",
        "lat": -2.6095639,
        "lng": 104.7520939
      },
      "province": {
        "id": 33,
        "name": "Sumatera Selatan",
        "lat": -3.3194374,
        "lng": 103.914399
      },
      "country": {
        "id": 228,
        "name": "INDONESIA",
        "code": "ID"
      },
      "id": 74116,
      "name": "Juru Taro (Taroh)",
      "postcode": "30975",
      "lat": -2.4040599,
      "lng": 105.1142011
    },
    {
      "suburb": {
        "id": 6476,
        "name": "Muara Sugihan",
        "lat": -2.4129504,
        "lng": 105.1726816
      },
      "city": {
        "id": 438,
        "name": "Banyuasin",
        "lat": -2.6095639,
        "lng": 104.7520939
      },
      "province": {
        "id": 33,
        "name": "Sumatera Selatan",
        "lat": -3.3194374,
        "lng": 103.914399
      },
      "country": {
        "id": 228,
        "name": "INDONESIA",
        "code": "ID"
      },
      "id": 74117,
      "name": "Kuala/Kualo Sugihan",
      "postcode": "30975",
      "lat": -2.4196686,
      "lng": 105.4185227
    },
    {
      "suburb": {
        "id": 6475,
        "name": "Muara Padang",
        "lat": -2.6629493,
        "lng": 105.1025075
      },
      "city": {
        "id": 438,
        "name": "Banyuasin",
        "lat": -2.6095639,
        "lng": 104.7520939
      },
      "province": {
        "id": 33,
        "name": "Sumatera Selatan",
        "lat": -3.3194374,
        "lng": 103.914399
      },
      "country": {
        "id": 228,
        "name": "INDONESIA",
        "code": "ID"
      },
      "id": 74118,
      "name": "Karang Anyar",
      "postcode": "30975",
      "lat": -2.5385941,
      "lng": 105.0674317
    },
    {
      "suburb": {
        "id": 6476,
        "name": "Muara Sugihan",
        "lat": -2.4129504,
        "lng": 105.1726816
      },
      "city": {
        "id": 438,
        "name": "Banyuasin",
        "lat": -2.6095639,
        "lng": 104.7520939
      },
      "province": {
        "id": 33,
        "name": "Sumatera Selatan",
        "lat": -3.3194374,
        "lng": 103.914399
      },
      "country": {
        "id": 228,
        "name": "INDONESIA",
        "code": "ID"
      },
      "id": 74119,
      "name": "Gilirang",
      "postcode": "30975",
      "lat": -2.3833697,
      "lng": 105.2545888
    },
    {
      "suburb": {
        "id": 6476,
        "name": "Muara Sugihan",
        "lat": -2.4129504,
        "lng": 105.1726816
      },
      "city": {
        "id": 438,
        "name": "Banyuasin",
        "lat": -2.6095639,
        "lng": 104.7520939
      },
      "province": {
        "id": 33,
        "name": "Sumatera Selatan",
        "lat": -3.3194374,
        "lng": 103.914399
      },
      "country": {
        "id": 228,
        "name": "INDONESIA",
        "code": "ID"
      },
      "id": 74120,
      "name": "Indrapura",
      "postcode": "30975",
      "lat": -2.5560786,
      "lng": 105.2077798
    },
    {
      "suburb": {
        "id": 6476,
        "name": "Muara Sugihan",
        "lat": -2.4129504,
        "lng": 105.1726816
      },
      "city": {
        "id": 438,
        "name": "Banyuasin",
        "lat": -2.6095639,
        "lng": 104.7520939
      },
      "province": {
        "id": 33,
        "name": "Sumatera Selatan",
        "lat": -3.3194374,
        "lng": 103.914399
      },
      "country": {
        "id": 228,
        "name": "INDONESIA",
        "code": "ID"
      },
      "id": 74121,
      "name": "Jalur Mulya",
      "postcode": "30975",
      "lat": -2.4215657,
      "lng": 105.2545888
    },
    {
      "suburb": {
        "id": 6474,
        "name": "Air Salek",
        "lat": -2.6256716,
        "lng": 105.0089888
      },
      "city": {
        "id": 438,
        "name": "Banyuasin",
        "lat": -2.6095639,
        "lng": 104.7520939
      },
      "province": {
        "id": 33,
        "name": "Sumatera Selatan",
        "lat": -3.3194374,
        "lng": 103.914399
      },
      "country": {
        "id": 228,
        "name": "INDONESIA",
        "code": "ID"
      },
      "id": 74122,
      "name": "Enggalrejo",
      "postcode": "30975",
      "lat": -2.5775199,
      "lng": 105.0206757
    },
    {
      "suburb": {
        "id": 6475,
        "name": "Muara Padang",
        "lat": -2.6629493,
        "lng": 105.1025075
      },
      "city": {
        "id": 438,
        "name": "Banyuasin",
        "lat": -2.6095639,
        "lng": 104.7520939
      },
      "province": {
        "id": 33,
        "name": "Sumatera Selatan",
        "lat": -3.3194374,
        "lng": 103.914399
      },
      "country": {
        "id": 228,
        "name": "INDONESIA",
        "code": "ID"
      },
      "id": 74123,
      "name": "Daya Utama",
      "postcode": "30975",
      "lat": -2.6007337,
      "lng": 105.0849687
    },
    {
      "suburb": {
        "id": 6476,
        "name": "Muara Sugihan",
        "lat": -2.4129504,
        "lng": 105.1726816
      },
      "city": {
        "id": 438,
        "name": "Banyuasin",
        "lat": -2.6095639,
        "lng": 104.7520939
      },
      "province": {
        "id": 33,
        "name": "Sumatera Selatan",
        "lat": -3.3194374,
        "lng": 103.914399
      },
      "country": {
        "id": 228,
        "name": "INDONESIA",
        "code": "ID"
      },
      "id": 74124,
      "name": "Ganesha Mukti",
      "postcode": "30975",
      "lat": -2.4568481,
      "lng": 105.096661
    },
    {
      "suburb": {
        "id": 6475,
        "name": "Muara Padang",
        "lat": -2.6629493,
        "lng": 105.1025075
      },
      "city": {
        "id": 438,
        "name": "Banyuasin",
        "lat": -2.6095639,
        "lng": 104.7520939
      },
      "province": {
        "id": 33,
        "name": "Sumatera Selatan",
        "lat": -3.3194374,
        "lng": 103.914399
      },
      "country": {
        "id": 228,
        "name": "INDONESIA",
        "code": "ID"
      },
      "id": 74125,
      "name": "Daya Makmur",
      "postcode": "30975",
      "lat": -2.6004478,
      "lng": 105.1083542
    },
    {
      "suburb": {
        "id": 6476,
        "name": "Muara Sugihan",
        "lat": -2.4129504,
        "lng": 105.1726816
      },
      "city": {
        "id": 438,
        "name": "Banyuasin",
        "lat": -2.6095639,
        "lng": 104.7520939
      },
      "province": {
        "id": 33,
        "name": "Sumatera Selatan",
        "lat": -3.3194374,
        "lng": 103.914399
      },
      "country": {
        "id": 228,
        "name": "INDONESIA",
        "code": "ID"
      },
      "id": 74126,
      "name": "Daya Kusuma/Kesuma",
      "postcode": "30975",
      "lat": -2.4850122,
      "lng": 105.1434387
    },
    {
      "suburb": {
        "id": 6476,
        "name": "Muara Sugihan",
        "lat": -2.4129504,
        "lng": 105.1726816
      },
      "city": {
        "id": 438,
        "name": "Banyuasin",
        "lat": -2.6095639,
        "lng": 104.7520939
      },
      "province": {
        "id": 33,
        "name": "Sumatera Selatan",
        "lat": -3.3194374,
        "lng": 103.914399
      },
      "country": {
        "id": 228,
        "name": "INDONESIA",
        "code": "ID"
      },
      "id": 74127,
      "name": "Daya Murni",
      "postcode": "30975",
      "lat": -2.5263008,
      "lng": 105.0937378
    },
    {
      "suburb": {
        "id": 6474,
        "name": "Air Salek",
        "lat": -2.6256716,
        "lng": 105.0089888
      },
      "city": {
        "id": 438,
        "name": "Banyuasin",
        "lat": -2.6095639,
        "lng": 104.7520939
      },
      "province": {
        "id": 33,
        "name": "Sumatera Selatan",
        "lat": -3.3194374,
        "lng": 103.914399
      },
      "country": {
        "id": 228,
        "name": "INDONESIA",
        "code": "ID"
      },
      "id": 74128,
      "name": "Damarwulan",
      "postcode": "30975",
      "lat": -2.5818237,
      "lng": 105.0615865
    },
    {
      "suburb": {
        "id": 6476,
        "name": "Muara Sugihan",
        "lat": -2.4129504,
        "lng": 105.1726816
      },
      "city": {
        "id": 438,
        "name": "Banyuasin",
        "lat": -2.6095639,
        "lng": 104.7520939
      },
      "province": {
        "id": 33,
        "name": "Sumatera Selatan",
        "lat": -3.3194374,
        "lng": 103.914399
      },
      "country": {
        "id": 228,
        "name": "INDONESIA",
        "code": "ID"
      },
      "id": 74129,
      "name": "Cendana",
      "postcode": "30975",
      "lat": -2.4983342,
      "lng": 105.2311827
    },
    {
      "suburb": {
        "id": 6476,
        "name": "Muara Sugihan",
        "lat": -2.4129504,
        "lng": 105.1726816
      },
      "city": {
        "id": 438,
        "name": "Banyuasin",
        "lat": -2.6095639,
        "lng": 104.7520939
      },
      "province": {
        "id": 33,
        "name": "Sumatera Selatan",
        "lat": -3.3194374,
        "lng": 103.914399
      },
      "country": {
        "id": 228,
        "name": "INDONESIA",
        "code": "ID"
      },
      "id": 74130,
      "name": "Daya Bangun Harjo",
      "postcode": "30975",
      "lat": -2.5333141,
      "lng": 105.1083542
    },
    {
      "suburb": {
        "id": 6474,
        "name": "Air Salek",
        "lat": -2.6256716,
        "lng": 105.0089888
      },
      "city": {
        "id": 438,
        "name": "Banyuasin",
        "lat": -2.6095639,
        "lng": 104.7520939
      },
      "province": {
        "id": 33,
        "name": "Sumatera Selatan",
        "lat": -3.3194374,
        "lng": 103.914399
      },
      "country": {
        "id": 228,
        "name": "INDONESIA",
        "code": "ID"
      },
      "id": 74131,
      "name": "Bintaran",
      "postcode": "30975",
      "lat": -2.6732949,
      "lng": 105.044052
    },
    {
      "suburb": {
        "id": 6476,
        "name": "Muara Sugihan",
        "lat": -2.4129504,
        "lng": 105.1726816
      },
      "city": {
        "id": 438,
        "name": "Banyuasin",
        "lat": -2.6095639,
        "lng": 104.7520939
      },
      "province": {
        "id": 33,
        "name": "Sumatera Selatan",
        "lat": -3.3194374,
        "lng": 103.914399
      },
      "country": {
        "id": 228,
        "name": "INDONESIA",
        "code": "ID"
      },
      "id": 74132,
      "name": "Beringin Agung",
      "postcode": "30975",
      "lat": -2.4172594,
      "lng": 105.2136302
    },
    {
      "suburb": {
        "id": 6474,
        "name": "Air Salek",
        "lat": -2.6256716,
        "lng": 105.0089888
      },
      "city": {
        "id": 438,
        "name": "Banyuasin",
        "lat": -2.6095639,
        "lng": 104.7520939
      },
      "province": {
        "id": 33,
        "name": "Sumatera Selatan",
        "lat": -3.3194374,
        "lng": 103.914399
      },
      "country": {
        "id": 228,
        "name": "INDONESIA",
        "code": "ID"
      },
      "id": 74133,
      "name": "Air Solok Batu",
      "postcode": "30975",
      "lat": -2.4428347,
      "lng": 105.0674317
    },
    {
      "suburb": {
        "id": 6476,
        "name": "Muara Sugihan",
        "lat": -2.4129504,
        "lng": 105.1726816
      },
      "city": {
        "id": 438,
        "name": "Banyuasin",
        "lat": -2.6095639,
        "lng": 104.7520939
      },
      "province": {
        "id": 33,
        "name": "Sumatera Selatan",
        "lat": -3.3194374,
        "lng": 103.914399
      },
      "country": {
        "id": 228,
        "name": "INDONESIA",
        "code": "ID"
      },
      "id": 74134,
      "name": "Argo Mulyo",
      "postcode": "30975",
      "lat": -2.4746201,
      "lng": 105.2136302
    },
    {
      "suburb": {
        "id": 6475,
        "name": "Muara Padang",
        "lat": -2.6629493,
        "lng": 105.1025075
      },
      "city": {
        "id": 438,
        "name": "Banyuasin",
        "lat": -2.6095639,
        "lng": 104.7520939
      },
      "province": {
        "id": 33,
        "name": "Sumatera Selatan",
        "lat": -3.3194374,
        "lng": 103.914399
      },
      "country": {
        "id": 228,
        "name": "INDONESIA",
        "code": "ID"
      },
      "id": 74135,
      "name": "Air Gading",
      "postcode": "30975",
      "lat": -2.6959326,
      "lng": 105.1551352
    },
    {
      "suburb": {
        "id": 6477,
        "name": "Muara Telang",
        "lat": -2.6279505,
        "lng": 104.8221147
      },
      "city": {
        "id": 438,
        "name": "Banyuasin",
        "lat": -2.6095639,
        "lng": 104.7520939
      },
      "province": {
        "id": 33,
        "name": "Sumatera Selatan",
        "lat": -3.3194374,
        "lng": 103.914399
      },
      "country": {
        "id": 228,
        "name": "INDONESIA",
        "code": "ID"
      },
      "id": 74136,
      "name": "Upang Karya",
      "postcode": "30974",
      "lat": -2.6279505,
      "lng": 104.8221147
    },
    {
      "suburb": {
        "id": 6477,
        "name": "Muara Telang",
        "lat": -2.6279505,
        "lng": 104.8221147
      },
      "city": {
        "id": 438,
        "name": "Banyuasin",
        "lat": -2.6095639,
        "lng": 104.7520939
      },
      "province": {
        "id": 33,
        "name": "Sumatera Selatan",
        "lat": -3.3194374,
        "lng": 103.914399
      },
      "country": {
        "id": 228,
        "name": "INDONESIA",
        "code": "ID"
      },
      "id": 74137,
      "name": "Upang Ceria",
      "postcode": "30974",
      "lat": -2.6279505,
      "lng": 104.8221147
    },
    {
      "suburb": {
        "id": 6477,
        "name": "Muara Telang",
        "lat": -2.6279505,
        "lng": 104.8221147
      },
      "city": {
        "id": 438,
        "name": "Banyuasin",
        "lat": -2.6095639,
        "lng": 104.7520939
      },
      "province": {
        "id": 33,
        "name": "Sumatera Selatan",
        "lat": -3.3194374,
        "lng": 103.914399
      },
      "country": {
        "id": 228,
        "name": "INDONESIA",
        "code": "ID"
      },
      "id": 74138,
      "name": "Upang Jaya",
      "postcode": "30974",
      "lat": -2.6279505,
      "lng": 104.8221147
    },
    {
      "suburb": {
        "id": 6477,
        "name": "Muara Telang",
        "lat": -2.6279505,
        "lng": 104.8221147
      },
      "city": {
        "id": 438,
        "name": "Banyuasin",
        "lat": -2.6095639,
        "lng": 104.7520939
      },
      "province": {
        "id": 33,
        "name": "Sumatera Selatan",
        "lat": -3.3194374,
        "lng": 103.914399
      },
      "country": {
        "id": 228,
        "name": "INDONESIA",
        "code": "ID"
      },
      "id": 74139,
      "name": "Upang Cemara",
      "postcode": "30974",
      "lat": -2.6279505,
      "lng": 104.8221147
    },
    {
      "suburb": {
        "id": 6478,
        "name": "Sumber Marga Telang",
        "lat": -2.5516398,
        "lng": 104.7754307
      },
      "city": {
        "id": 438,
        "name": "Banyuasin",
        "lat": -2.6095639,
        "lng": 104.7520939
      },
      "province": {
        "id": 33,
        "name": "Sumatera Selatan",
        "lat": -3.3194374,
        "lng": 103.914399
      },
      "country": {
        "id": 228,
        "name": "INDONESIA",
        "code": "ID"
      },
      "id": 74140,
      "name": "Terusan Tengah",
      "postcode": "30974",
      "lat": -2.5651468,
      "lng": 104.8512993
    },
    {
      "suburb": {
        "id": 6478,
        "name": "Sumber Marga Telang",
        "lat": -2.5516398,
        "lng": 104.7754307
      },
      "city": {
        "id": 438,
        "name": "Banyuasin",
        "lat": -2.6095639,
        "lng": 104.7520939
      },
      "province": {
        "id": 33,
        "name": "Sumatera Selatan",
        "lat": -3.3194374,
        "lng": 103.914399
      },
      "country": {
        "id": 228,
        "name": "INDONESIA",
        "code": "ID"
      },
      "id": 74141,
      "name": "Terusan Dalam",
      "postcode": "30974",
      "lat": -2.5846315,
      "lng": 104.8279512
    },
    {
      "suburb": {
        "id": 6478,
        "name": "Sumber Marga Telang",
        "lat": -2.5516398,
        "lng": 104.7754307
      },
      "city": {
        "id": 438,
        "name": "Banyuasin",
        "lat": -2.6095639,
        "lng": 104.7520939
      },
      "province": {
        "id": 33,
        "name": "Sumatera Selatan",
        "lat": -3.3194374,
        "lng": 103.914399
      },
      "country": {
        "id": 228,
        "name": "INDONESIA",
        "code": "ID"
      },
      "id": 74142,
      "name": "Terusan Muara",
      "postcode": "30974",
      "lat": -2.5558224,
      "lng": 104.8279512
    },
    {
      "suburb": {
        "id": 6479,
        "name": "Tanjung Lago",
        "lat": -2.6497315,
        "lng": 104.6121475
      },
      "city": {
        "id": 438,
        "name": "Banyuasin",
        "lat": -2.6095639,
        "lng": 104.7520939
      },
      "province": {
        "id": 33,
        "name": "Sumatera Selatan",
        "lat": -3.3194374,
        "lng": 103.914399
      },
      "country": {
        "id": 228,
        "name": "INDONESIA",
        "code": "ID"
      },
      "id": 74143,
      "name": "Telang Sari",
      "postcode": "30974",
      "lat": -2.5289262,
      "lng": 104.6646125
    },
    {
      "suburb": {
        "id": 6477,
        "name": "Muara Telang",
        "lat": -2.6279505,
        "lng": 104.8221147
      },
      "city": {
        "id": 438,
        "name": "Banyuasin",
        "lat": -2.6095639,
        "lng": 104.7520939
      },
      "province": {
        "id": 33,
        "name": "Sumatera Selatan",
        "lat": -3.3194374,
        "lng": 103.914399
      },
      "country": {
        "id": 228,
        "name": "INDONESIA",
        "code": "ID"
      },
      "id": 74144,
      "name": "Telang Makmur",
      "postcode": "30974",
      "lat": -2.6588896,
      "lng": 104.8483806
    },
    {
      "suburb": {
        "id": 6477,
        "name": "Muara Telang",
        "lat": -2.6279505,
        "lng": 104.8221147
      },
      "city": {
        "id": 438,
        "name": "Banyuasin",
        "lat": -2.6095639,
        "lng": 104.7520939
      },
      "province": {
        "id": 33,
        "name": "Sumatera Selatan",
        "lat": -3.3194374,
        "lng": 103.914399
      },
      "country": {
        "id": 228,
        "name": "INDONESIA",
        "code": "ID"
      },
      "id": 74145,
      "name": "Telang Rejo",
      "postcode": "30974",
      "lat": -2.6425894,
      "lng": 104.8046066
    },
    {
      "suburb": {
        "id": 6477,
        "name": "Muara Telang",
        "lat": -2.6279505,
        "lng": 104.8221147
      },
      "city": {
        "id": 438,
        "name": "Banyuasin",
        "lat": -2.6095639,
        "lng": 104.7520939
      },
      "province": {
        "id": 33,
        "name": "Sumatera Selatan",
        "lat": -3.3194374,
        "lng": 103.914399
      },
      "country": {
        "id": 228,
        "name": "INDONESIA",
        "code": "ID"
      },
      "id": 74146,
      "name": "Telang Karya",
      "postcode": "30974",
      "lat": -2.6428733,
      "lng": 104.7812654
    },
    {
      "suburb": {
        "id": 6477,
        "name": "Muara Telang",
        "lat": -2.6279505,
        "lng": 104.8221147
      },
      "city": {
        "id": 438,
        "name": "Banyuasin",
        "lat": -2.6095639,
        "lng": 104.7520939
      },
      "province": {
        "id": 33,
        "name": "Sumatera Selatan",
        "lat": -3.3194374,
        "lng": 103.914399
      },
      "country": {
        "id": 228,
        "name": "INDONESIA",
        "code": "ID"
      },
      "id": 74147,
      "name": "Telang Jaya",
      "postcode": "30974",
      "lat": -2.6418776,
      "lng": 104.8629746
    },
    {
      "suburb": {
        "id": 6478,
        "name": "Sumber Marga Telang",
        "lat": -2.5516398,
        "lng": 104.7754307
      },
      "city": {
        "id": 438,
        "name": "Banyuasin",
        "lat": -2.6095639,
        "lng": 104.7520939
      },
      "province": {
        "id": 33,
        "name": "Sumatera Selatan",
        "lat": -3.3194374,
        "lng": 103.914399
      },
      "country": {
        "id": 228,
        "name": "INDONESIA",
        "code": "ID"
      },
      "id": 74148,
      "name": "Talang Lubuk",
      "postcode": "30974",
      "lat": -2.6012701,
      "lng": 104.8425433
    },
    {
      "suburb": {
        "id": 6477,
        "name": "Muara Telang",
        "lat": -2.6279505,
        "lng": 104.8221147
      },
      "city": {
        "id": 438,
        "name": "Banyuasin",
        "lat": -2.6095639,
        "lng": 104.7520939
      },
      "province": {
        "id": 33,
        "name": "Sumatera Selatan",
        "lat": -3.3194374,
        "lng": 103.914399
      },
      "country": {
        "id": 228,
        "name": "INDONESIA",
        "code": "ID"
      },
      "id": 74149,
      "name": "Talang Indah",
      "postcode": "30974",
      "lat": -2.6109505,
      "lng": 104.8367063
    },
    {
      "suburb": {
        "id": 6477,
        "name": "Muara Telang",
        "lat": -2.6279505,
        "lng": 104.8221147
      },
      "city": {
        "id": 438,
        "name": "Banyuasin",
        "lat": -2.6095639,
        "lng": 104.7520939
      },
      "province": {
        "id": 33,
        "name": "Sumatera Selatan",
        "lat": -3.3194374,
        "lng": 103.914399
      },
      "country": {
        "id": 228,
        "name": "INDONESIA",
        "code": "ID"
      },
      "id": 74150,
      "name": "Sumber Mulya",
      "postcode": "30974",
      "lat": -2.5792022,
      "lng": 104.8804893
    },
    {
      "suburb": {
        "id": 6478,
        "name": "Sumber Marga Telang",
        "lat": -2.5516398,
        "lng": 104.7754307
      },
      "city": {
        "id": 438,
        "name": "Banyuasin",
        "lat": -2.6095639,
        "lng": 104.7520939
      },
      "province": {
        "id": 33,
        "name": "Sumatera Selatan",
        "lat": -3.3194374,
        "lng": 103.914399
      },
      "country": {
        "id": 228,
        "name": "INDONESIA",
        "code": "ID"
      },
      "id": 74151,
      "name": "Sumber Jaya",
      "postcode": "30974",
      "lat": -2.507307,
      "lng": 104.8746508
    },
    {
      "suburb": {
        "id": 6477,
        "name": "Muara Telang",
        "lat": -2.6279505,
        "lng": 104.8221147
      },
      "city": {
        "id": 438,
        "name": "Banyuasin",
        "lat": -2.6095639,
        "lng": 104.7520939
      },
      "province": {
        "id": 33,
        "name": "Sumatera Selatan",
        "lat": -3.3194374,
        "lng": 103.914399
      },
      "country": {
        "id": 228,
        "name": "INDONESIA",
        "code": "ID"
      },
      "id": 74152,
      "name": "Sumber Hidup",
      "postcode": "30974",
      "lat": -2.6519245,
      "lng": 104.8279512
    },
    {
      "suburb": {
        "id": 6478,
        "name": "Sumber Marga Telang",
        "lat": -2.5516398,
        "lng": 104.7754307
      },
      "city": {
        "id": 438,
        "name": "Banyuasin",
        "lat": -2.6095639,
        "lng": 104.7520939
      },
      "province": {
        "id": 33,
        "name": "Sumatera Selatan",
        "lat": -3.3194374,
        "lng": 103.914399
      },
      "country": {
        "id": 228,
        "name": "INDONESIA",
        "code": "ID"
      },
      "id": 74153,
      "name": "Sri Tiga",
      "postcode": "30974",
      "lat": -2.4840811,
      "lng": 104.8104424
    },
    {
      "suburb": {
        "id": 6479,
        "name": "Tanjung Lago",
        "lat": -2.6497315,
        "lng": 104.6121475
      },
      "city": {
        "id": 438,
        "name": "Banyuasin",
        "lat": -2.6095639,
        "lng": 104.7520939
      },
      "province": {
        "id": 33,
        "name": "Sumatera Selatan",
        "lat": -3.3194374,
        "lng": 103.914399
      },
      "country": {
        "id": 228,
        "name": "INDONESIA",
        "code": "ID"
      },
      "id": 74154,
      "name": "Purwosari",
      "postcode": "30974",
      "lat": -2.5072958,
      "lng": 104.6675277
    },
    {
      "suburb": {
        "id": 6477,
        "name": "Muara Telang",
        "lat": -2.6279505,
        "lng": 104.8221147
      },
      "city": {
        "id": 438,
        "name": "Banyuasin",
        "lat": -2.6095639,
        "lng": 104.7520939
      },
      "province": {
        "id": 33,
        "name": "Sumatera Selatan",
        "lat": -3.3194374,
        "lng": 103.914399
      },
      "country": {
        "id": 228,
        "name": "INDONESIA",
        "code": "ID"
      },
      "id": 74155,
      "name": "Panca Mukti",
      "postcode": "30974",
      "lat": -2.6031451,
      "lng": 104.8863279
    },
    {
      "suburb": {
        "id": 6479,
        "name": "Tanjung Lago",
        "lat": -2.6497315,
        "lng": 104.6121475
      },
      "city": {
        "id": 438,
        "name": "Banyuasin",
        "lat": -2.6095639,
        "lng": 104.7520939
      },
      "province": {
        "id": 33,
        "name": "Sumatera Selatan",
        "lat": -3.3194374,
        "lng": 103.914399
      },
      "country": {
        "id": 228,
        "name": "INDONESIA",
        "code": "ID"
      },
      "id": 74156,
      "name": "Mulya Sari",
      "postcode": "30974",
      "lat": -2.5482677,
      "lng": 104.652952
    },
    {
      "suburb": {
        "id": 6477,
        "name": "Muara Telang",
        "lat": -2.6279505,
        "lng": 104.8221147
      },
      "city": {
        "id": 438,
        "name": "Banyuasin",
        "lat": -2.6095639,
        "lng": 104.7520939
      },
      "province": {
        "id": 33,
        "name": "Sumatera Selatan",
        "lat": -3.3194374,
        "lng": 103.914399
      },
      "country": {
        "id": 228,
        "name": "INDONESIA",
        "code": "ID"
      },
      "id": 74157,
      "name": "Mukti Jaya",
      "postcode": "30974",
      "lat": -2.6898421,
      "lng": 104.8746508
    },
    {
      "suburb": {
        "id": 6478,
        "name": "Sumber Marga Telang",
        "lat": -2.5516398,
        "lng": 104.7754307
      },
      "city": {
        "id": 438,
        "name": "Banyuasin",
        "lat": -2.6095639,
        "lng": 104.7520939
      },
      "province": {
        "id": 33,
        "name": "Sumatera Selatan",
        "lat": -3.3194374,
        "lng": 103.914399
      },
      "country": {
        "id": 228,
        "name": "INDONESIA",
        "code": "ID"
      },
      "id": 74158,
      "name": "Muara Telang Marga/Margo",
      "postcode": "30974",
      "lat": -2.5224388,
      "lng": 104.8104424
    },
    {
      "suburb": {
        "id": 6478,
        "name": "Sumber Marga Telang",
        "lat": -2.5516398,
        "lng": 104.7754307
      },
      "city": {
        "id": 438,
        "name": "Banyuasin",
        "lat": -2.6095639,
        "lng": 104.7520939
      },
      "province": {
        "id": 33,
        "name": "Sumatera Selatan",
        "lat": -3.3194374,
        "lng": 103.914399
      },
      "country": {
        "id": 228,
        "name": "INDONESIA",
        "code": "ID"
      },
      "id": 74159,
      "name": "Muara Telang",
      "postcode": "30974",
      "lat": -2.5075779,
      "lng": 104.8512993
    },
    {
      "suburb": {
        "id": 6477,
        "name": "Muara Telang",
        "lat": -2.6279505,
        "lng": 104.8221147
      },
      "city": {
        "id": 438,
        "name": "Banyuasin",
        "lat": -2.6095639,
        "lng": 104.7520939
      },
      "province": {
        "id": 33,
        "name": "Sumatera Selatan",
        "lat": -3.3194374,
        "lng": 103.914399
      },
      "country": {
        "id": 228,
        "name": "INDONESIA",
        "code": "ID"
      },
      "id": 74160,
      "name": "Mekar Sari",
      "postcode": "30974",
      "lat": -2.6439602,
      "lng": 104.8892473
    },
    {
      "suburb": {
        "id": 6477,
        "name": "Muara Telang",
        "lat": -2.6279505,
        "lng": 104.8221147
      },
      "city": {
        "id": 438,
        "name": "Banyuasin",
        "lat": -2.6095639,
        "lng": 104.7520939
      },
      "province": {
        "id": 33,
        "name": "Sumatera Selatan",
        "lat": -3.3194374,
        "lng": 103.914399
      },
      "country": {
        "id": 228,
        "name": "INDONESIA",
        "code": "ID"
      },
      "id": 74161,
      "name": "Mekar Mukti",
      "postcode": "30974",
      "lat": -2.6968803,
      "lng": 104.8892473
    },
    {
      "suburb": {
        "id": 6477,
        "name": "Muara Telang",
        "lat": -2.6279505,
        "lng": 104.8221147
      },
      "city": {
        "id": 438,
        "name": "Banyuasin",
        "lat": -2.6095639,
        "lng": 104.7520939
      },
      "province": {
        "id": 33,
        "name": "Sumatera Selatan",
        "lat": -3.3194374,
        "lng": 103.914399
      },
      "country": {
        "id": 228,
        "name": "INDONESIA",
        "code": "ID"
      },
      "id": 74162,
      "name": "Marga Rahayu",
      "postcode": "30974",
      "lat": -2.5458115,
      "lng": 104.8629746
    },
    {
      "suburb": {
        "id": 6478,
        "name": "Sumber Marga Telang",
        "lat": -2.5516398,
        "lng": 104.7754307
      },
      "city": {
        "id": 438,
        "name": "Banyuasin",
        "lat": -2.6095639,
        "lng": 104.7520939
      },
      "province": {
        "id": 33,
        "name": "Sumatera Selatan",
        "lat": -3.3194374,
        "lng": 103.914399
      },
      "country": {
        "id": 228,
        "name": "INDONESIA",
        "code": "ID"
      },
      "id": 74163,
      "name": "Karang Baru",
      "postcode": "30974",
      "lat": -2.5998111,
      "lng": 104.7637619
    },
    {
      "suburb": {
        "id": 6478,
        "name": "Sumber Marga Telang",
        "lat": -2.5516398,
        "lng": 104.7754307
      },
      "city": {
        "id": 438,
        "name": "Banyuasin",
        "lat": -2.6095639,
        "lng": 104.7520939
      },
      "province": {
        "id": 33,
        "name": "Sumatera Selatan",
        "lat": -3.3194374,
        "lng": 103.914399
      },
      "country": {
        "id": 228,
        "name": "INDONESIA",
        "code": "ID"
      },
      "id": 74164,
      "name": "Karang Anyar",
      "postcode": "30974",
      "lat": -2.5421759,
      "lng": 104.7637619
    },
    {
      "suburb": {
        "id": 6480,
        "name": "Makarti Jaya",
        "lat": -2.5494348,
        "lng": 104.9622498
      },
      "city": {
        "id": 438,
        "name": "Banyuasin",
        "lat": -2.6095639,
        "lng": 104.7520939
      },
      "province": {
        "id": 33,
        "name": "Sumatera Selatan",
        "lat": -3.3194374,
        "lng": 103.914399
      },
      "country": {
        "id": 228,
        "name": "INDONESIA",
        "code": "ID"
      },
      "id": 74165,
      "name": "Upang Mulya",
      "postcode": "30972",
      "lat": -2.541929,
      "lng": 104.9885388
    },
    {
      "suburb": {
        "id": 6480,
        "name": "Makarti Jaya",
        "lat": -2.5494348,
        "lng": 104.9622498
      },
      "city": {
        "id": 438,
        "name": "Banyuasin",
        "lat": -2.6095639,
        "lng": 104.7520939
      },
      "province": {
        "id": 33,
        "name": "Sumatera Selatan",
        "lat": -3.3194374,
        "lng": 103.914399
      },
      "country": {
        "id": 228,
        "name": "INDONESIA",
        "code": "ID"
      },
      "id": 74166,
      "name": "Upang Makmur",
      "postcode": "30972",
      "lat": -2.5158035,
      "lng": 104.9680914
    },
    {
      "suburb": {
        "id": 6480,
        "name": "Makarti Jaya",
        "lat": -2.5494348,
        "lng": 104.9622498
      },
      "city": {
        "id": 438,
        "name": "Banyuasin",
        "lat": -2.6095639,
        "lng": 104.7520939
      },
      "province": {
        "id": 33,
        "name": "Sumatera Selatan",
        "lat": -3.3194374,
        "lng": 103.914399
      },
      "country": {
        "id": 228,
        "name": "INDONESIA",
        "code": "ID"
      },
      "id": 74167,
      "name": "Tirta Kencana",
      "postcode": "30972",
      "lat": -2.4490216,
      "lng": 104.9447261
    },
    {
      "suburb": {
        "id": 6480,
        "name": "Makarti Jaya",
        "lat": -2.5494348,
        "lng": 104.9622498
      },
      "city": {
        "id": 438,
        "name": "Banyuasin",
        "lat": -2.6095639,
        "lng": 104.7520939
      },
      "province": {
        "id": 33,
        "name": "Sumatera Selatan",
        "lat": -3.3194374,
        "lng": 103.914399
      },
      "country": {
        "id": 228,
        "name": "INDONESIA",
        "code": "ID"
      },
      "id": 74168,
      "name": "Tanjungbaru",
      "postcode": "30972",
      "lat": -2.5494348,
      "lng": 104.9622498
    },
    {
      "suburb": {
        "id": 6480,
        "name": "Makarti Jaya",
        "lat": -2.5494348,
        "lng": 104.9622498
      },
      "city": {
        "id": 438,
        "name": "Banyuasin",
        "lat": -2.6095639,
        "lng": 104.7520939
      },
      "province": {
        "id": 33,
        "name": "Sumatera Selatan",
        "lat": -3.3194374,
        "lng": 103.914399
      },
      "country": {
        "id": 228,
        "name": "INDONESIA",
        "code": "ID"
      },
      "id": 74169,
      "name": "Tanjungmas",
      "postcode": "30972",
      "lat": -2.5494348,
      "lng": 104.9622498
    },
    {
      "suburb": {
        "id": 6480,
        "name": "Makarti Jaya",
        "lat": -2.5494348,
        "lng": 104.9622498
      },
      "city": {
        "id": 438,
        "name": "Banyuasin",
        "lat": -2.6095639,
        "lng": 104.7520939
      },
      "province": {
        "id": 33,
        "name": "Sumatera Selatan",
        "lat": -3.3194374,
        "lng": 103.914399
      },
      "country": {
        "id": 228,
        "name": "INDONESIA",
        "code": "ID"
      },
      "id": 74170,
      "name": "Sungaisemut",
      "postcode": "30972",
      "lat": -2.5494348,
      "lng": 104.9622498
    },
    {
      "suburb": {
        "id": 6474,
        "name": "Air Salek",
        "lat": -2.6256716,
        "lng": 105.0089888
      },
      "city": {
        "id": 438,
        "name": "Banyuasin",
        "lat": -2.6095639,
        "lng": 104.7520939
      },
      "province": {
        "id": 33,
        "name": "Sumatera Selatan",
        "lat": -3.3194374,
        "lng": 103.914399
      },
      "country": {
        "id": 228,
        "name": "INDONESIA",
        "code": "ID"
      },
      "id": 74171,
      "name": "Salek/Saleh Mulya",
      "postcode": "30972",
      "lat": -2.6286823,
      "lng": 104.959329
    },
    {
      "suburb": {
        "id": 6474,
        "name": "Air Salek",
        "lat": -2.6256716,
        "lng": 105.0089888
      },
      "city": {
        "id": 438,
        "name": "Banyuasin",
        "lat": -2.6095639,
        "lng": 104.7520939
      },
      "province": {
        "id": 33,
        "name": "Sumatera Selatan",
        "lat": -3.3194374,
        "lng": 103.914399
      },
      "country": {
        "id": 228,
        "name": "INDONESIA",
        "code": "ID"
      },
      "id": 74172,
      "name": "Salek/Saleh Mukti",
      "postcode": "30972",
      "lat": -2.6499131,
      "lng": 104.9914601
    },
    {
      "suburb": {
        "id": 6474,
        "name": "Air Salek",
        "lat": -2.6256716,
        "lng": 105.0089888
      },
      "city": {
        "id": 438,
        "name": "Banyuasin",
        "lat": -2.6095639,
        "lng": 104.7520939
      },
      "province": {
        "id": 33,
        "name": "Sumatera Selatan",
        "lat": -3.3194374,
        "lng": 103.914399
      },
      "country": {
        "id": 228,
        "name": "INDONESIA",
        "code": "ID"
      },
      "id": 74173,
      "name": "Salek/Saleh Agung (Makmur)",
      "postcode": "30972",
      "lat": -2.6382216,
      "lng": 104.9651706
    },
    {
      "suburb": {
        "id": 6474,
        "name": "Air Salek",
        "lat": -2.6256716,
        "lng": 105.0089888
      },
      "city": {
        "id": 438,
        "name": "Banyuasin",
        "lat": -2.6095639,
        "lng": 104.7520939
      },
      "province": {
        "id": 33,
        "name": "Sumatera Selatan",
        "lat": -3.3194374,
        "lng": 103.914399
      },
      "country": {
        "id": 228,
        "name": "INDONESIA",
        "code": "ID"
      },
      "id": 74174,
      "name": "Salek/Saleh Jaya",
      "postcode": "30972",
      "lat": -2.6162081,
      "lng": 104.9973028
    },
    {
      "suburb": {
        "id": 6480,
        "name": "Makarti Jaya",
        "lat": -2.5494348,
        "lng": 104.9622498
      },
      "city": {
        "id": 438,
        "name": "Banyuasin",
        "lat": -2.6095639,
        "lng": 104.7520939
      },
      "province": {
        "id": 33,
        "name": "Sumatera Selatan",
        "lat": -3.3194374,
        "lng": 103.914399
      },
      "country": {
        "id": 228,
        "name": "INDONESIA",
        "code": "ID"
      },