{
  "metadata": {
    "path": "/v3/location/areas?limit=1000&page=61",
    "http_status_code": 200,
    "http_status": "OK",
    "timestamp": 1647339737
  },
  "data": [
    {
      "suburb": {
        "id": 5093,
        "name": "Lubuk Batu Jaya",
        "lat": -0.3480458,
        "lng": 102.1404037
      },
      "city": {
        "id": 332,
        "name": "Indragiri Hulu",
        "lat": -0.7361181,
        "lng": 102.2547919
      },
      "province": {
        "id": 26,
        "name": "Riau",
        "lat": 0.2933469,
        "lng": 101.7068294
      },
      "country": {
        "id": 228,
        "name": "INDONESIA",
        "code": "ID"
      },
      "id": 60016,
      "name": "Rimpian",
      "postcode": "29352",
      "lat": -0.3709998,
      "lng": 102.1804261
    },
    {
      "suburb": {
        "id": 5096,
        "name": "Rakit Kulim",
        "lat": -0.5508625,
        "lng": 102.2090224
      },
      "city": {
        "id": 332,
        "name": "Indragiri Hulu",
        "lat": -0.7361181,
        "lng": 102.2547919
      },
      "province": {
        "id": 26,
        "name": "Riau",
        "lat": 0.2933469,
        "lng": 101.7068294
      },
      "country": {
        "id": 228,
        "name": "INDONESIA",
        "code": "ID"
      },
      "id": 60017,
      "name": "Rimba Seminai",
      "postcode": "29352",
      "lat": -0.5556418,
      "lng": 102.1346874
    },
    {
      "suburb": {
        "id": 5093,
        "name": "Lubuk Batu Jaya",
        "lat": -0.3480458,
        "lng": 102.1404037
      },
      "city": {
        "id": 332,
        "name": "Indragiri Hulu",
        "lat": -0.7361181,
        "lng": 102.2547919
      },
      "province": {
        "id": 26,
        "name": "Riau",
        "lat": 0.2933469,
        "lng": 101.7068294
      },
      "country": {
        "id": 228,
        "name": "INDONESIA",
        "code": "ID"
      },
      "id": 60018,
      "name": "Pontian Mekar",
      "postcode": "29352",
      "lat": -0.3343109,
      "lng": 102.0889679
    },
    {
      "suburb": {
        "id": 5094,
        "name": "Kelayang",
        "lat": -0.4586972,
        "lng": 102.0946818
      },
      "city": {
        "id": 332,
        "name": "Indragiri Hulu",
        "lat": -0.7361181,
        "lng": 102.2547919
      },
      "province": {
        "id": 26,
        "name": "Riau",
        "lat": 0.2933469,
        "lng": 101.7068294
      },
      "country": {
        "id": 228,
        "name": "INDONESIA",
        "code": "ID"
      },
      "id": 60019,
      "name": "Pulau Sengkilo",
      "postcode": "29352",
      "lat": -0.5280794,
      "lng": 102.0432676
    },
    {
      "suburb": {
        "id": 5093,
        "name": "Lubuk Batu Jaya",
        "lat": -0.3480458,
        "lng": 102.1404037
      },
      "city": {
        "id": 332,
        "name": "Indragiri Hulu",
        "lat": -0.7361181,
        "lng": 102.2547919
      },
      "province": {
        "id": 26,
        "name": "Riau",
        "lat": 0.2933469,
        "lng": 101.7068294
      },
      "country": {
        "id": 228,
        "name": "INDONESIA",
        "code": "ID"
      },
      "id": 60020,
      "name": "Pondok Gelugur",
      "postcode": "29352",
      "lat": -0.4078737,
      "lng": 102.1575544
    },
    {
      "suburb": {
        "id": 5094,
        "name": "Kelayang",
        "lat": -0.4586972,
        "lng": 102.0946818
      },
      "city": {
        "id": 332,
        "name": "Indragiri Hulu",
        "lat": -0.7361181,
        "lng": 102.2547919
      },
      "province": {
        "id": 26,
        "name": "Riau",
        "lat": 0.2933469,
        "lng": 101.7068294
      },
      "country": {
        "id": 228,
        "name": "INDONESIA",
        "code": "ID"
      },
      "id": 60021,
      "name": "Polak Pisang",
      "postcode": "29352",
      "lat": -0.4910024,
      "lng": 102.100396
    },
    {
      "suburb": {
        "id": 5095,
        "name": "Pasir Penyu",
        "lat": -0.3478654,
        "lng": 102.2776838
      },
      "city": {
        "id": 332,
        "name": "Indragiri Hulu",
        "lat": -0.7361181,
        "lng": 102.2547919
      },
      "province": {
        "id": 26,
        "name": "Riau",
        "lat": 0.2933469,
        "lng": 101.7068294
      },
      "country": {
        "id": 228,
        "name": "INDONESIA",
        "code": "ID"
      },
      "id": 60022,
      "name": "Petalongan",
      "postcode": "29352",
      "lat": -0.3984008,
      "lng": 102.3292076
    },
    {
      "suburb": {
        "id": 5096,
        "name": "Rakit Kulim",
        "lat": -0.5508625,
        "lng": 102.2090224
      },
      "city": {
        "id": 332,
        "name": "Indragiri Hulu",
        "lat": -0.7361181,
        "lng": 102.2547919
      },
      "province": {
        "id": 26,
        "name": "Riau",
        "lat": 0.2933469,
        "lng": 101.7068294
      },
      "country": {
        "id": 228,
        "name": "INDONESIA",
        "code": "ID"
      },
      "id": 60023,
      "name": "Petonggan",
      "postcode": "29352",
      "lat": -0.5093271,
      "lng": 102.1804261
    },
    {
      "suburb": {
        "id": 5094,
        "name": "Kelayang",
        "lat": -0.4586972,
        "lng": 102.0946818
      },
      "city": {
        "id": 332,
        "name": "Indragiri Hulu",
        "lat": -0.7361181,
        "lng": 102.2547919
      },
      "province": {
        "id": 26,
        "name": "Riau",
        "lat": 0.2933469,
        "lng": 101.7068294
      },
      "country": {
        "id": 228,
        "name": "INDONESIA",
        "code": "ID"
      },
      "id": 60024,
      "name": "Pelangko",
      "postcode": "29352",
      "lat": -0.4356403,
      "lng": 102.0889679
    },
    {
      "suburb": {
        "id": 5095,
        "name": "Pasir Penyu",
        "lat": -0.3478654,
        "lng": 102.2776838
      },
      "city": {
        "id": 332,
        "name": "Indragiri Hulu",
        "lat": -0.7361181,
        "lng": 102.2547919
      },
      "province": {
        "id": 26,
        "name": "Riau",
        "lat": 0.2933469,
        "lng": 101.7068294
      },
      "country": {
        "id": 228,
        "name": "INDONESIA",
        "code": "ID"
      },
      "id": 60025,
      "name": "Pasir Keranji",
      "postcode": "29352",
      "lat": -0.3961898,
      "lng": 102.2690988
    },
    {
      "suburb": {
        "id": 5096,
        "name": "Rakit Kulim",
        "lat": -0.5508625,
        "lng": 102.2090224
      },
      "city": {
        "id": 332,
        "name": "Indragiri Hulu",
        "lat": -0.7361181,
        "lng": 102.2547919
      },
      "province": {
        "id": 26,
        "name": "Riau",
        "lat": 0.2933469,
        "lng": 101.7068294
      },
      "country": {
        "id": 228,
        "name": "INDONESIA",
        "code": "ID"
      },
      "id": 60026,
      "name": "Lubuk Sitarak",
      "postcode": "29352",
      "lat": -0.4909182,
      "lng": 102.1461203
    },
    {
      "suburb": {
        "id": 5094,
        "name": "Kelayang",
        "lat": -0.4586972,
        "lng": 102.0946818
      },
      "city": {
        "id": 332,
        "name": "Indragiri Hulu",
        "lat": -0.7361181,
        "lng": 102.2547919
      },
      "province": {
        "id": 26,
        "name": "Riau",
        "lat": 0.2933469,
        "lng": 101.7068294
      },
      "country": {
        "id": 228,
        "name": "INDONESIA",
        "code": "ID"
      },
      "id": 60027,
      "name": "Pasir Beringin",
      "postcode": "29352",
      "lat": -0.4932641,
      "lng": 102.1261136
    },
    {
      "suburb": {
        "id": 5093,
        "name": "Lubuk Batu Jaya",
        "lat": -0.3480458,
        "lng": 102.1404037
      },
      "city": {
        "id": 332,
        "name": "Indragiri Hulu",
        "lat": -0.7361181,
        "lng": 102.2547919
      },
      "province": {
        "id": 26,
        "name": "Riau",
        "lat": 0.2933469,
        "lng": 101.7068294
      },
      "country": {
        "id": 228,
        "name": "INDONESIA",
        "code": "ID"
      },
      "id": 60028,
      "name": "Lubuk Batu Tinggal",
      "postcode": "29352",
      "lat": -0.3205482,
      "lng": 102.060403
    },
    {
      "suburb": {
        "id": 5095,
        "name": "Pasir Penyu",
        "lat": -0.3478654,
        "lng": 102.2776838
      },
      "city": {
        "id": 332,
        "name": "Indragiri Hulu",
        "lat": -0.7361181,
        "lng": 102.2547919
      },
      "province": {
        "id": 26,
        "name": "Riau",
        "lat": 0.2933469,
        "lng": 101.7068294
      },
      "country": {
        "id": 228,
        "name": "INDONESIA",
        "code": "ID"
      },
      "id": 60029,
      "name": "Lembah Dusun Gading",
      "postcode": "29352",
      "lat": -0.3961467,
      "lng": 102.297718
    },
    {
      "suburb": {
        "id": 5093,
        "name": "Lubuk Batu Jaya",
        "lat": -0.3480458,
        "lng": 102.1404037
      },
      "city": {
        "id": 332,
        "name": "Indragiri Hulu",
        "lat": -0.7361181,
        "lng": 102.2547919
      },
      "province": {
        "id": 26,
        "name": "Riau",
        "lat": 0.2933469,
        "lng": 101.7068294
      },
      "country": {
        "id": 228,
        "name": "INDONESIA",
        "code": "ID"
      },
      "id": 60030,
      "name": "Kulim Jaya",
      "postcode": "29352",
      "lat": -0.3388603,
      "lng": 102.1289715
    },
    {
      "suburb": {
        "id": 5096,
        "name": "Rakit Kulim",
        "lat": -0.5508625,
        "lng": 102.2090224
      },
      "city": {
        "id": 332,
        "name": "Indragiri Hulu",
        "lat": -0.7361181,
        "lng": 102.2547919
      },
      "province": {
        "id": 26,
        "name": "Riau",
        "lat": 0.2933469,
        "lng": 101.7068294
      },
      "country": {
        "id": 228,
        "name": "INDONESIA",
        "code": "ID"
      },
      "id": 60031,
      "name": "Kota Baru",
      "postcode": "29352",
      "lat": -0.5556894,
      "lng": 102.1118253
    },
    {
      "suburb": {
        "id": 5096,
        "name": "Rakit Kulim",
        "lat": -0.5508625,
        "lng": 102.2090224
      },
      "city": {
        "id": 332,
        "name": "Indragiri Hulu",
        "lat": -0.7361181,
        "lng": 102.2547919
      },
      "province": {
        "id": 26,
        "name": "Riau",
        "lat": 0.2933469,
        "lng": 101.7068294
      },
      "country": {
        "id": 228,
        "name": "INDONESIA",
        "code": "ID"
      },
      "id": 60032,
      "name": "Kuantan Tenang",
      "postcode": "29352",
      "lat": -0.5603754,
      "lng": 102.0832543
    },
    {
      "suburb": {
        "id": 5094,
        "name": "Kelayang",
        "lat": -0.4586972,
        "lng": 102.0946818
      },
      "city": {
        "id": 332,
        "name": "Indragiri Hulu",
        "lat": -0.7361181,
        "lng": 102.2547919
      },
      "province": {
        "id": 26,
        "name": "Riau",
        "lat": 0.2933469,
        "lng": 101.7068294
      },
      "country": {
        "id": 228,
        "name": "INDONESIA",
        "code": "ID"
      },
      "id": 60033,
      "name": "Kota Medan",
      "postcode": "29352",
      "lat": -0.5118179,
      "lng": 102.0861111
    },
    {
      "suburb": {
        "id": 5095,
        "name": "Pasir Penyu",
        "lat": -0.3478654,
        "lng": 102.2776838
      },
      "city": {
        "id": 332,
        "name": "Indragiri Hulu",
        "lat": -0.7361181,
        "lng": 102.2547919
      },
      "province": {
        "id": 26,
        "name": "Riau",
        "lat": 0.2933469,
        "lng": 101.7068294
      },
      "country": {
        "id": 228,
        "name": "INDONESIA",
        "code": "ID"
      },
      "id": 60034,
      "name": "Kembang Harum",
      "postcode": "29352",
      "lat": -0.3593509,
      "lng": 102.2862694
    },
    {
      "suburb": {
        "id": 5096,
        "name": "Rakit Kulim",
        "lat": -0.5508625,
        "lng": 102.2090224
      },
      "city": {
        "id": 332,
        "name": "Indragiri Hulu",
        "lat": -0.7361181,
        "lng": 102.2547919
      },
      "province": {
        "id": 26,
        "name": "Riau",
        "lat": 0.2933469,
        "lng": 101.7068294
      },
      "country": {
        "id": 228,
        "name": "INDONESIA",
        "code": "ID"
      },
      "id": 60035,
      "name": "Kelayang",
      "postcode": "29352",
      "lat": -0.5278763,
      "lng": 102.1461203
    },
    {
      "suburb": {
        "id": 5095,
        "name": "Pasir Penyu",
        "lat": -0.3478654,
        "lng": 102.2776838
      },
      "city": {
        "id": 332,
        "name": "Indragiri Hulu",
        "lat": -0.7361181,
        "lng": 102.2547919
      },
      "province": {
        "id": 26,
        "name": "Riau",
        "lat": 0.2933469,
        "lng": 101.7068294
      },
      "country": {
        "id": 228,
        "name": "INDONESIA",
        "code": "ID"
      },
      "id": 60036,
      "name": "Jatirejo",
      "postcode": "29352",
      "lat": -0.3387436,
      "lng": 102.220463
    },
    {
      "suburb": {
        "id": 5096,
        "name": "Rakit Kulim",
        "lat": -0.5508625,
        "lng": 102.2090224
      },
      "city": {
        "id": 332,
        "name": "Indragiri Hulu",
        "lat": -0.7361181,
        "lng": 102.2547919
      },
      "province": {
        "id": 26,
        "name": "Riau",
        "lat": 0.2933469,
        "lng": 101.7068294
      },
      "country": {
        "id": 228,
        "name": "INDONESIA",
        "code": "ID"
      },
      "id": 60037,
      "name": "Kampung Bungo",
      "postcode": "29352",
      "lat": -0.5071428,
      "lng": 102.1146828
    },
    {
      "suburb": {
        "id": 5094,
        "name": "Kelayang",
        "lat": -0.4586972,
        "lng": 102.0946818
      },
      "city": {
        "id": 332,
        "name": "Indragiri Hulu",
        "lat": -0.7361181,
        "lng": 102.2547919
      },
      "province": {
        "id": 26,
        "name": "Riau",
        "lat": 0.2933469,
        "lng": 101.7068294
      },
      "country": {
        "id": 228,
        "name": "INDONESIA",
        "code": "ID"
      },
      "id": 60038,
      "name": "Dusun Tua",
      "postcode": "29352",
      "lat": -0.4839352,
      "lng": 102.1775668
    },
    {
      "suburb": {
        "id": 5094,
        "name": "Kelayang",
        "lat": -0.4586972,
        "lng": 102.0946818
      },
      "city": {
        "id": 332,
        "name": "Indragiri Hulu",
        "lat": -0.7361181,
        "lng": 102.2547919
      },
      "province": {
        "id": 26,
        "name": "Riau",
        "lat": 0.2933469,
        "lng": 101.7068294
      },
      "country": {
        "id": 228,
        "name": "INDONESIA",
        "code": "ID"
      },
      "id": 60039,
      "name": "Dusun Tua Pelang",
      "postcode": "29352",
      "lat": -0.463143,
      "lng": 102.1918637
    },
    {
      "suburb": {
        "id": 5095,
        "name": "Pasir Penyu",
        "lat": -0.3478654,
        "lng": 102.2776838
      },
      "city": {
        "id": 332,
        "name": "Indragiri Hulu",
        "lat": -0.7361181,
        "lng": 102.2547919
      },
      "province": {
        "id": 26,
        "name": "Riau",
        "lat": 0.2933469,
        "lng": 101.7068294
      },
      "country": {
        "id": 228,
        "name": "INDONESIA",
        "code": "ID"
      },
      "id": 60040,
      "name": "Candi Rejo",
      "postcode": "29352",
      "lat": -0.3673987,
      "lng": 102.2877004
    },
    {
      "suburb": {
        "id": 5096,
        "name": "Rakit Kulim",
        "lat": -0.5508625,
        "lng": 102.2090224
      },
      "city": {
        "id": 332,
        "name": "Indragiri Hulu",
        "lat": -0.7361181,
        "lng": 102.2547919
      },
      "province": {
        "id": 26,
        "name": "Riau",
        "lat": 0.2933469,
        "lng": 101.7068294
      },
      "country": {
        "id": 228,
        "name": "INDONESIA",
        "code": "ID"
      },
      "id": 60041,
      "name": "Bukit Indah",
      "postcode": "29352",
      "lat": -0.6202382,
      "lng": 102.2261837
    },
    {
      "suburb": {
        "id": 5094,
        "name": "Kelayang",
        "lat": -0.4586972,
        "lng": 102.0946818
      },
      "city": {
        "id": 332,
        "name": "Indragiri Hulu",
        "lat": -0.7361181,
        "lng": 102.2547919
      },
      "province": {
        "id": 26,
        "name": "Riau",
        "lat": 0.2933469,
        "lng": 101.7068294
      },
      "country": {
        "id": 228,
        "name": "INDONESIA",
        "code": "ID"
      },
      "id": 60042,
      "name": "Bukit Selanjut",
      "postcode": "29352",
      "lat": -0.4172326,
      "lng": 102.0661154
    },
    {
      "suburb": {
        "id": 5096,
        "name": "Rakit Kulim",
        "lat": -0.5508625,
        "lng": 102.2090224
      },
      "city": {
        "id": 332,
        "name": "Indragiri Hulu",
        "lat": -0.7361181,
        "lng": 102.2547919
      },
      "province": {
        "id": 26,
        "name": "Riau",
        "lat": 0.2933469,
        "lng": 101.7068294
      },
      "country": {
        "id": 228,
        "name": "INDONESIA",
        "code": "ID"
      },
      "id": 60043,
      "name": "Batu Sawar",
      "postcode": "29352",
      "lat": -0.483883,
      "lng": 102.2061624
    },
    {
      "suburb": {
        "id": 5094,
        "name": "Kelayang",
        "lat": -0.4586972,
        "lng": 102.0946818
      },
      "city": {
        "id": 332,
        "name": "Indragiri Hulu",
        "lat": -0.7361181,
        "lng": 102.2547919
      },
      "province": {
        "id": 26,
        "name": "Riau",
        "lat": 0.2933469,
        "lng": 101.7068294
      },
      "country": {
        "id": 228,
        "name": "INDONESIA",
        "code": "ID"
      },
      "id": 60044,
      "name": "Bongkal Malang",
      "postcode": "29352",
      "lat": -0.4355096,
      "lng": 102.1689896
    },
    {
      "suburb": {
        "id": 5095,
        "name": "Pasir Penyu",
        "lat": -0.3478654,
        "lng": 102.2776838
      },
      "city": {
        "id": 332,
        "name": "Indragiri Hulu",
        "lat": -0.7361181,
        "lng": 102.2547919
      },
      "province": {
        "id": 26,
        "name": "Riau",
        "lat": 0.2933469,
        "lng": 101.7068294
      },
      "country": {
        "id": 228,
        "name": "INDONESIA",
        "code": "ID"
      },
      "id": 60045,
      "name": "Batu Gajah",
      "postcode": "29352",
      "lat": -0.3685749,
      "lng": 102.2690988
    },
    {
      "suburb": {
        "id": 5093,
        "name": "Lubuk Batu Jaya",
        "lat": -0.3480458,
        "lng": 102.1404037
      },
      "city": {
        "id": 332,
        "name": "Indragiri Hulu",
        "lat": -0.7361181,
        "lng": 102.2547919
      },
      "province": {
        "id": 26,
        "name": "Riau",
        "lat": 0.2933469,
        "lng": 101.7068294
      },
      "country": {
        "id": 228,
        "name": "INDONESIA",
        "code": "ID"
      },
      "id": 60046,
      "name": "Air Putih",
      "postcode": "29352",
      "lat": -0.3020805,
      "lng": 102.1289715
    },
    {
      "suburb": {
        "id": 5095,
        "name": "Pasir Penyu",
        "lat": -0.3478654,
        "lng": 102.2776838
      },
      "city": {
        "id": 332,
        "name": "Indragiri Hulu",
        "lat": -0.7361181,
        "lng": 102.2547919
      },
      "province": {
        "id": 26,
        "name": "Riau",
        "lat": 0.2933469,
        "lng": 101.7068294
      },
      "country": {
        "id": 228,
        "name": "INDONESIA",
        "code": "ID"
      },
      "id": 60047,
      "name": "Air Molek I",
      "postcode": "29352",
      "lat": -0.3915604,
      "lng": 102.2862694
    },
    {
      "suburb": {
        "id": 5095,
        "name": "Pasir Penyu",
        "lat": -0.3478654,
        "lng": 102.2776838
      },
      "city": {
        "id": 332,
        "name": "Indragiri Hulu",
        "lat": -0.7361181,
        "lng": 102.2547919
      },
      "province": {
        "id": 26,
        "name": "Riau",
        "lat": 0.2933469,
        "lng": 101.7068294
      },
      "country": {
        "id": 228,
        "name": "INDONESIA",
        "code": "ID"
      },
      "id": 60048,
      "name": "Air Molek II",
      "postcode": "29352",
      "lat": -0.3725654,
      "lng": 102.2941402
    },
    {
      "suburb": {
        "id": 5097,
        "name": "Rengat Barat",
        "lat": -0.3476828,
        "lng": 102.4151335
      },
      "city": {
        "id": 332,
        "name": "Indragiri Hulu",
        "lat": -0.7361181,
        "lng": 102.2547919
      },
      "province": {
        "id": 26,
        "name": "Riau",
        "lat": 0.2933469,
        "lng": 101.7068294
      },
      "country": {
        "id": 228,
        "name": "INDONESIA",
        "code": "ID"
      },
      "id": 60049,
      "name": "Tanah Datar",
      "postcode": "29351",
      "lat": -0.4535216,
      "lng": 102.4208642
    },
    {
      "suburb": {
        "id": 5097,
        "name": "Rengat Barat",
        "lat": -0.3476828,
        "lng": 102.4151335
      },
      "city": {
        "id": 332,
        "name": "Indragiri Hulu",
        "lat": -0.7361181,
        "lng": 102.2547919
      },
      "province": {
        "id": 26,
        "name": "Riau",
        "lat": 0.2933469,
        "lng": 101.7068294
      },
      "country": {
        "id": 228,
        "name": "INDONESIA",
        "code": "ID"
      },
      "id": 60050,
      "name": "Tanah Makmur",
      "postcode": "29351",
      "lat": -0.3476828,
      "lng": 102.4151335
    },
    {
      "suburb": {
        "id": 5097,
        "name": "Rengat Barat",
        "lat": -0.3476828,
        "lng": 102.4151335
      },
      "city": {
        "id": 332,
        "name": "Indragiri Hulu",
        "lat": -0.7361181,
        "lng": 102.2547919
      },
      "province": {
        "id": 26,
        "name": "Riau",
        "lat": 0.2933469,
        "lng": 101.7068294
      },
      "country": {
        "id": 228,
        "name": "INDONESIA",
        "code": "ID"
      },
      "id": 60051,
      "name": "Sungai Baung",
      "postcode": "29351",
      "lat": -0.4190067,
      "lng": 102.4008079
    },
    {
      "suburb": {
        "id": 5097,
        "name": "Rengat Barat",
        "lat": -0.3476828,
        "lng": 102.4151335
      },
      "city": {
        "id": 332,
        "name": "Indragiri Hulu",
        "lat": -0.7361181,
        "lng": 102.2547919
      },
      "province": {
        "id": 26,
        "name": "Riau",
        "lat": 0.2933469,
        "lng": 101.7068294
      },
      "country": {
        "id": 228,
        "name": "INDONESIA",
        "code": "ID"
      },
      "id": 60052,
      "name": "Sungai Dawu",
      "postcode": "29351",
      "lat": -0.3959558,
      "lng": 102.4237297
    },
    {
      "suburb": {
        "id": 5097,
        "name": "Rengat Barat",
        "lat": -0.3476828,
        "lng": 102.4151335
      },
      "city": {
        "id": 332,
        "name": "Indragiri Hulu",
        "lat": -0.7361181,
        "lng": 102.2547919
      },
      "province": {
        "id": 26,
        "name": "Riau",
        "lat": 0.2933469,
        "lng": 101.7068294
      },
      "country": {
        "id": 228,
        "name": "INDONESIA",
        "code": "ID"
      },
      "id": 60053,
      "name": "Talang Jerinjing",
      "postcode": "29351",
      "lat": -0.4672562,
      "lng": 102.4724537
    },
    {
      "suburb": {
        "id": 5097,
        "name": "Rengat Barat",
        "lat": -0.3476828,
        "lng": 102.4151335
      },
      "city": {
        "id": 332,
        "name": "Indragiri Hulu",
        "lat": -0.7361181,
        "lng": 102.2547919
      },
      "province": {
        "id": 26,
        "name": "Riau",
        "lat": 0.2933469,
        "lng": 101.7068294
      },
      "country": {
        "id": 228,
        "name": "INDONESIA",
        "code": "ID"
      },
      "id": 60054,
      "name": "Pematang Jaya",
      "postcode": "29351",
      "lat": -0.4075372,
      "lng": 102.3750266
    },
    {
      "suburb": {
        "id": 5097,
        "name": "Rengat Barat",
        "lat": -0.3476828,
        "lng": 102.4151335
      },
      "city": {
        "id": 332,
        "name": "Indragiri Hulu",
        "lat": -0.7361181,
        "lng": 102.2547919
      },
      "province": {
        "id": 26,
        "name": "Riau",
        "lat": 0.2933469,
        "lng": 101.7068294
      },
      "country": {
        "id": 228,
        "name": "INDONESIA",
        "code": "ID"
      },
      "id": 60055,
      "name": "Pematang Reba",
      "postcode": "29351",
      "lat": -0.3936161,
      "lng": 102.4495221
    },
    {
      "suburb": {
        "id": 5097,
        "name": "Rengat Barat",
        "lat": -0.3476828,
        "lng": 102.4151335
      },
      "city": {
        "id": 332,
        "name": "Indragiri Hulu",
        "lat": -0.7361181,
        "lng": 102.2547919
      },
      "province": {
        "id": 26,
        "name": "Riau",
        "lat": 0.2933469,
        "lng": 101.7068294
      },
      "country": {
        "id": 228,
        "name": "INDONESIA",
        "code": "ID"
      },
      "id": 60056,
      "name": "Redang",
      "postcode": "29351",
      "lat": -0.2466982,
      "lng": 102.4265952
    },
    {
      "suburb": {
        "id": 5097,
        "name": "Rengat Barat",
        "lat": -0.3476828,
        "lng": 102.4151335
      },
      "city": {
        "id": 332,
        "name": "Indragiri Hulu",
        "lat": -0.7361181,
        "lng": 102.2547919
      },
      "province": {
        "id": 26,
        "name": "Riau",
        "lat": 0.2933469,
        "lng": 101.7068294
      },
      "country": {
        "id": 228,
        "name": "INDONESIA",
        "code": "ID"
      },
      "id": 60057,
      "name": "Kota Lama",
      "postcode": "29351",
      "lat": -0.3707094,
      "lng": 102.3864842
    },
    {
      "suburb": {
        "id": 5097,
        "name": "Rengat Barat",
        "lat": -0.3476828,
        "lng": 102.4151335
      },
      "city": {
        "id": 332,
        "name": "Indragiri Hulu",
        "lat": -0.7361181,
        "lng": 102.2547919
      },
      "province": {
        "id": 26,
        "name": "Riau",
        "lat": 0.2933469,
        "lng": 101.7068294
      },
      "country": {
        "id": 228,
        "name": "INDONESIA",
        "code": "ID"
      },
      "id": 60058,
      "name": "Pekan Heran",
      "postcode": "29351",
      "lat": -0.35224,
      "lng": 102.44379
    },
    {
      "suburb": {
        "id": 5097,
        "name": "Rengat Barat",
        "lat": -0.3476828,
        "lng": 102.4151335
      },
      "city": {
        "id": 332,
        "name": "Indragiri Hulu",
        "lat": -0.7361181,
        "lng": 102.2547919
      },
      "province": {
        "id": 26,
        "name": "Riau",
        "lat": 0.2933469,
        "lng": 101.7068294
      },
      "country": {
        "id": 228,
        "name": "INDONESIA",
        "code": "ID"
      },
      "id": 60059,
      "name": "Danau Baru",
      "postcode": "29351",
      "lat": -0.2513096,
      "lng": 102.3979431
    },
    {
      "suburb": {
        "id": 5097,
        "name": "Rengat Barat",
        "lat": -0.3476828,
        "lng": 102.4151335
      },
      "city": {
        "id": 332,
        "name": "Indragiri Hulu",
        "lat": -0.7361181,
        "lng": 102.2547919
      },
      "province": {
        "id": 26,
        "name": "Riau",
        "lat": 0.2933469,
        "lng": 101.7068294
      },
      "country": {
        "id": 228,
        "name": "INDONESIA",
        "code": "ID"
      },
      "id": 60060,
      "name": "Danau Tiga",
      "postcode": "29351",
      "lat": -0.4835034,
      "lng": 102.4122682
    },
    {
      "suburb": {
        "id": 5097,
        "name": "Rengat Barat",
        "lat": -0.3476828,
        "lng": 102.4151335
      },
      "city": {
        "id": 332,
        "name": "Indragiri Hulu",
        "lat": -0.7361181,
        "lng": 102.2547919
      },
      "province": {
        "id": 26,
        "name": "Riau",
        "lat": 0.2933469,
        "lng": 101.7068294
      },
      "country": {
        "id": 228,
        "name": "INDONESIA",
        "code": "ID"
      },
      "id": 60061,
      "name": "Barangan",
      "postcode": "29351",
      "lat": -0.3592489,
      "lng": 102.3607061
    },
    {
      "suburb": {
        "id": 5097,
        "name": "Rengat Barat",
        "lat": -0.3476828,
        "lng": 102.4151335
      },
      "city": {
        "id": 332,
        "name": "Indragiri Hulu",
        "lat": -0.7361181,
        "lng": 102.2547919
      },
      "province": {
        "id": 26,
        "name": "Riau",
        "lat": 0.2933469,
        "lng": 101.7068294
      },
      "country": {
        "id": 228,
        "name": "INDONESIA",
        "code": "ID"
      },
      "id": 60062,
      "name": "Bukit Petaling",
      "postcode": "29351",
      "lat": -0.43515,
      "lng": 102.3864842
    },
    {
      "suburb": {
        "id": 5097,
        "name": "Rengat Barat",
        "lat": -0.3476828,
        "lng": 102.4151335
      },
      "city": {
        "id": 332,
        "name": "Indragiri Hulu",
        "lat": -0.7361181,
        "lng": 102.2547919
      },
      "province": {
        "id": 26,
        "name": "Riau",
        "lat": 0.2933469,
        "lng": 101.7068294
      },
      "country": {
        "id": 228,
        "name": "INDONESIA",
        "code": "ID"
      },
      "id": 60063,
      "name": "Air Jernih",
      "postcode": "29351",
      "lat": -0.3614806,
      "lng": 102.409403
    },
    {
      "suburb": {
        "id": 5097,
        "name": "Rengat Barat",
        "lat": -0.3476828,
        "lng": 102.4151335
      },
      "city": {
        "id": 332,
        "name": "Indragiri Hulu",
        "lat": -0.7361181,
        "lng": 102.2547919
      },
      "province": {
        "id": 26,
        "name": "Riau",
        "lat": 0.2933469,
        "lng": 101.7068294
      },
      "country": {
        "id": 228,
        "name": "INDONESIA",
        "code": "ID"
      },
      "id": 60064,
      "name": "Alang Kepayang",
      "postcode": "29351",
      "lat": -0.2467633,
      "lng": 102.3578423
    },
    {
      "suburb": {
        "id": 5097,
        "name": "Rengat Barat",
        "lat": -0.3476828,
        "lng": 102.4151335
      },
      "city": {
        "id": 332,
        "name": "Indragiri Hulu",
        "lat": -0.7361181,
        "lng": 102.2547919
      },
      "province": {
        "id": 26,
        "name": "Riau",
        "lat": 0.2933469,
        "lng": 101.7068294
      },
      "country": {
        "id": 228,
        "name": "INDONESIA",
        "code": "ID"
      },
      "id": 60065,
      "name": "Rantau Bakung",
      "postcode": "29345",
      "lat": -0.2787527,
      "lng": 102.4667204
    },
    {
      "suburb": {
        "id": 5097,
        "name": "Rengat Barat",
        "lat": -0.3476828,
        "lng": 102.4151335
      },
      "city": {
        "id": 332,
        "name": "Indragiri Hulu",
        "lat": -0.7361181,
        "lng": 102.2547919
      },
      "province": {
        "id": 26,
        "name": "Riau",
        "lat": 0.2933469,
        "lng": 101.7068294
      },
      "country": {
        "id": 228,
        "name": "INDONESIA",
        "code": "ID"
      },
      "id": 60066,
      "name": "Sialang Dua Dahan",
      "postcode": "29344",
      "lat": -0.3521933,
      "lng": 102.4781873
    },
    {
      "suburb": {
        "id": 5098,
        "name": "Kuala Cenaku",
        "lat": -0.1824135,
        "lng": 102.6675575
      },
      "city": {
        "id": 332,
        "name": "Indragiri Hulu",
        "lat": -0.7361181,
        "lng": 102.2547919
      },
      "province": {
        "id": 26,
        "name": "Riau",
        "lat": 0.2933469,
        "lng": 101.7068294
      },
      "country": {
        "id": 228,
        "name": "INDONESIA",
        "code": "ID"
      },
      "id": 60067,
      "name": "Tambak",
      "postcode": "29335",
      "lat": -0.1344759,
      "lng": 102.6072696
    },
    {
      "suburb": {
        "id": 5098,
        "name": "Kuala Cenaku",
        "lat": -0.1824135,
        "lng": 102.6675575
      },
      "city": {
        "id": 332,
        "name": "Indragiri Hulu",
        "lat": -0.7361181,
        "lng": 102.2547919
      },
      "province": {
        "id": 26,
        "name": "Riau",
        "lat": 0.2933469,
        "lng": 101.7068294
      },
      "country": {
        "id": 228,
        "name": "INDONESIA",
        "code": "ID"
      },
      "id": 60068,
      "name": "Tanjung Sari",
      "postcode": "29335",
      "lat": -0.1595381,
      "lng": 102.7077668
    },
    {
      "suburb": {
        "id": 5098,
        "name": "Kuala Cenaku",
        "lat": -0.1824135,
        "lng": 102.6675575
      },
      "city": {
        "id": 332,
        "name": "Indragiri Hulu",
        "lat": -0.7361181,
        "lng": 102.2547919
      },
      "province": {
        "id": 26,
        "name": "Riau",
        "lat": 0.2933469,
        "lng": 101.7068294
      },
      "country": {
        "id": 228,
        "name": "INDONESIA",
        "code": "ID"
      },
      "id": 60069,
      "name": "Teluk Sungkai",
      "postcode": "29335",
      "lat": -0.4324092,
      "lng": 102.6474581
    },
    {
      "suburb": {
        "id": 5098,
        "name": "Kuala Cenaku",
        "lat": -0.1824135,
        "lng": 102.6675575
      },
      "city": {
        "id": 332,
        "name": "Indragiri Hulu",
        "lat": -0.7361181,
        "lng": 102.2547919
      },
      "province": {
        "id": 26,
        "name": "Riau",
        "lat": 0.2933469,
        "lng": 101.7068294
      },
      "country": {
        "id": 228,
        "name": "INDONESIA",
        "code": "ID"
      },
      "id": 60070,
      "name": "Rawa Sekip",
      "postcode": "29335",
      "lat": -0.4531586,
      "lng": 102.6273621
    },
    {
      "suburb": {
        "id": 5098,
        "name": "Kuala Cenaku",
        "lat": -0.1824135,
        "lng": 102.6675575
      },
      "city": {
        "id": 332,
        "name": "Indragiri Hulu",
        "lat": -0.7361181,
        "lng": 102.2547919
      },
      "province": {
        "id": 26,
        "name": "Riau",
        "lat": 0.2933469,
        "lng": 101.7068294
      },
      "country": {
        "id": 228,
        "name": "INDONESIA",
        "code": "ID"
      },
      "id": 60071,
      "name": "Suka Jadi",
      "postcode": "29335",
      "lat": -0.1687055,
      "lng": 102.6618145
    },
    {
      "suburb": {
        "id": 5098,
        "name": "Kuala Cenaku",
        "lat": -0.1824135,
        "lng": 102.6675575
      },
      "city": {
        "id": 332,
        "name": "Indragiri Hulu",
        "lat": -0.7361181,
        "lng": 102.2547919
      },
      "province": {
        "id": 26,
        "name": "Riau",
        "lat": 0.2933469,
        "lng": 101.7068294
      },
      "country": {
        "id": 228,
        "name": "INDONESIA",
        "code": "ID"
      },
      "id": 60072,
      "name": "Pulau Gelang",
      "postcode": "29335",
      "lat": -0.1550159,
      "lng": 102.6331035
    },
    {
      "suburb": {
        "id": 5098,
        "name": "Kuala Cenaku",
        "lat": -0.1824135,
        "lng": 102.6675575
      },
      "city": {
        "id": 332,
        "name": "Indragiri Hulu",
        "lat": -0.7361181,
        "lng": 102.2547919
      },
      "province": {
        "id": 26,
        "name": "Riau",
        "lat": 0.2933469,
        "lng": 101.7068294
      },
      "country": {
        "id": 228,
        "name": "INDONESIA",
        "code": "ID"
      },
      "id": 60073,
      "name": "Pulau Jumat",
      "postcode": "29335",
      "lat": -0.1686903,
      "lng": 102.6847884
    },
    {
      "suburb": {
        "id": 5098,
        "name": "Kuala Cenaku",
        "lat": -0.1824135,
        "lng": 102.6675575
      },
      "city": {
        "id": 332,
        "name": "Indragiri Hulu",
        "lat": -0.7361181,
        "lng": 102.2547919
      },
      "province": {
        "id": 26,
        "name": "Riau",
        "lat": 0.2933469,
        "lng": 101.7068294
      },
      "country": {
        "id": 228,
        "name": "INDONESIA",
        "code": "ID"
      },
      "id": 60074,
      "name": "Rawa Asri",
      "postcode": "29335",
      "lat": -0.4347834,
      "lng": 102.6043996
    },
    {
      "suburb": {
        "id": 5098,
        "name": "Kuala Cenaku",
        "lat": -0.1824135,
        "lng": 102.6675575
      },
      "city": {
        "id": 332,
        "name": "Indragiri Hulu",
        "lat": -0.7361181,
        "lng": 102.2547919
      },
      "province": {
        "id": 26,
        "name": "Riau",
        "lat": 0.2933469,
        "lng": 101.7068294
      },
      "country": {
        "id": 228,
        "name": "INDONESIA",
        "code": "ID"
      },
      "id": 60075,
      "name": "Kuala Cenaku",
      "postcode": "29335",
      "lat": -0.455415,
      "lng": 102.6532004
    },
    {
      "suburb": {
        "id": 5098,
        "name": "Kuala Cenaku",
        "lat": -0.1824135,
        "lng": 102.6675575
      },
      "city": {
        "id": 332,
        "name": "Indragiri Hulu",
        "lat": -0.7361181,
        "lng": 102.2547919
      },
      "province": {
        "id": 26,
        "name": "Riau",
        "lat": 0.2933469,
        "lng": 101.7068294
      },
      "country": {
        "id": 228,
        "name": "INDONESIA",
        "code": "ID"
      },
      "id": 60076,
      "name": "Kuala Mulia",
      "postcode": "29335",
      "lat": -0.4622859,
      "lng": 102.6733009
    },
    {
      "suburb": {
        "id": 5099,
        "name": "Rengat",
        "lat": -0.2007936,
        "lng": 102.5527505
      },
      "city": {
        "id": 332,
        "name": "Indragiri Hulu",
        "lat": -0.7361181,
        "lng": 102.2547919
      },
      "province": {
        "id": 26,
        "name": "Riau",
        "lat": 0.2933469,
        "lng": 101.7068294
      },
      "country": {
        "id": 228,
        "name": "INDONESIA",
        "code": "ID"
      },
      "id": 60077,
      "name": "Sei/Sungai Guntung Tengah",
      "postcode": "29319",
      "lat": -0.1550989,
      "lng": 102.4953899
    },
    {
      "suburb": {
        "id": 5099,
        "name": "Rengat",
        "lat": -0.2007936,
        "lng": 102.5527505
      },
      "city": {
        "id": 332,
        "name": "Indragiri Hulu",
        "lat": -0.7361181,
        "lng": 102.2547919
      },
      "province": {
        "id": 26,
        "name": "Riau",
        "lat": 0.2933469,
        "lng": 101.7068294
      },
      "country": {
        "id": 228,
        "name": "INDONESIA",
        "code": "ID"
      },
      "id": 60078,
      "name": "Sekip Hulu",
      "postcode": "29319",
      "lat": -0.3808333,
      "lng": 102.5398419
    },
    {
      "suburb": {
        "id": 5099,
        "name": "Rengat",
        "lat": -0.2007936,
        "lng": 102.5527505
      },
      "city": {
        "id": 332,
        "name": "Indragiri Hulu",
        "lat": -0.7361181,
        "lng": 102.2547919
      },
      "province": {
        "id": 26,
        "name": "Riau",
        "lat": 0.2933469,
        "lng": 101.7068294
      },
      "country": {
        "id": 228,
        "name": "INDONESIA",
        "code": "ID"
      },
      "id": 60079,
      "name": "Sungai Raya",
      "postcode": "29319",
      "lat": -0.4670483,
      "lng": 102.5871807
    },
    {
      "suburb": {
        "id": 5099,
        "name": "Rengat",
        "lat": -0.2007936,
        "lng": 102.5527505
      },
      "city": {
        "id": 332,
        "name": "Indragiri Hulu",
        "lat": -0.7361181,
        "lng": 102.2547919
      },
      "province": {
        "id": 26,
        "name": "Riau",
        "lat": 0.2933469,
        "lng": 101.7068294
      },
      "country": {
        "id": 228,
        "name": "INDONESIA",
        "code": "ID"
      },
      "id": 60080,
      "name": "Sei/Sungai Guntung Hilir",
      "postcode": "29319",
      "lat": -0.1573724,
      "lng": 102.5154628
    },
    {
      "suburb": {
        "id": 5099,
        "name": "Rengat",
        "lat": -0.2007936,
        "lng": 102.5527505
      },
      "city": {
        "id": 332,
        "name": "Indragiri Hulu",
        "lat": -0.7361181,
        "lng": 102.2547919
      },
      "province": {
        "id": 26,
        "name": "Riau",
        "lat": 0.2933469,
        "lng": 101.7068294
      },
      "country": {
        "id": 228,
        "name": "INDONESIA",
        "code": "ID"
      },
      "id": 60081,
      "name": "Rawa Bangun",
      "postcode": "29319",
      "lat": -0.4348223,
      "lng": 102.5814416
    },
    {
      "suburb": {
        "id": 5099,
        "name": "Rengat",
        "lat": -0.2007936,
        "lng": 102.5527505
      },
      "city": {
        "id": 332,
        "name": "Indragiri Hulu",
        "lat": -0.7361181,
        "lng": 102.2547919
      },
      "province": {
        "id": 26,
        "name": "Riau",
        "lat": 0.2933469,
        "lng": 101.7068294
      },
      "country": {
        "id": 228,
        "name": "INDONESIA",
        "code": "ID"
      },
      "id": 60082,
      "name": "Sekip Hilir",
      "postcode": "29318",
      "lat": -0.4487047,
      "lng": 102.5412761
    },
    {
      "suburb": {
        "id": 5099,
        "name": "Rengat",
        "lat": -0.2007936,
        "lng": 102.5527505
      },
      "city": {
        "id": 332,
        "name": "Indragiri Hulu",
        "lat": -0.7361181,
        "lng": 102.2547919
      },
      "province": {
        "id": 26,
        "name": "Riau",
        "lat": 0.2933469,
        "lng": 101.7068294
      },
      "country": {
        "id": 228,
        "name": "INDONESIA",
        "code": "ID"
      },
      "id": 60083,
      "name": "Rantau Mapesai",
      "postcode": "29319",
      "lat": -0.13677,
      "lng": 102.5871807
    },
    {
      "suburb": {
        "id": 5099,
        "name": "Rengat",
        "lat": -0.2007936,
        "lng": 102.5527505
      },
      "city": {
        "id": 332,
        "name": "Indragiri Hulu",
        "lat": -0.7361181,
        "lng": 102.2547919
      },
      "province": {
        "id": 26,
        "name": "Riau",
        "lat": 0.2933469,
        "lng": 101.7068294
      },
      "country": {
        "id": 228,
        "name": "INDONESIA",
        "code": "ID"
      },
      "id": 60084,
      "name": "Pasir Kemilu",
      "postcode": "29316",
      "lat": -0.3773537,
      "lng": 102.5613571
    },
    {
      "suburb": {
        "id": 5099,
        "name": "Rengat",
        "lat": -0.2007936,
        "lng": 102.5527505
      },
      "city": {
        "id": 332,
        "name": "Indragiri Hulu",
        "lat": -0.7361181,
        "lng": 102.2547919
      },
      "province": {
        "id": 26,
        "name": "Riau",
        "lat": 0.2933469,
        "lng": 101.7068294
      },
      "country": {
        "id": 228,
        "name": "INDONESIA",
        "code": "ID"
      },
      "id": 60085,
      "name": "Sungai Beringin",
      "postcode": "29317",
      "lat": -0.391129,
      "lng": 102.5728335
    },
    {
      "suburb": {
        "id": 5099,
        "name": "Rengat",
        "lat": -0.2007936,
        "lng": 102.5527505
      },
      "city": {
        "id": 332,
        "name": "Indragiri Hulu",
        "lat": -0.7361181,
        "lng": 102.2547919
      },
      "province": {
        "id": 26,
        "name": "Riau",
        "lat": 0.2933469,
        "lng": 101.7068294
      },
      "country": {
        "id": 228,
        "name": "INDONESIA",
        "code": "ID"
      },
      "id": 60086,
      "name": "Kampung Pulau",
      "postcode": "29314",
      "lat": -0.141366,
      "lng": 102.5355393
    },
    {
      "suburb": {
        "id": 5099,
        "name": "Rengat",
        "lat": -0.2007936,
        "lng": 102.5527505
      },
      "city": {
        "id": 332,
        "name": "Indragiri Hulu",
        "lat": -0.7361181,
        "lng": 102.2547919
      },
      "province": {
        "id": 26,
        "name": "Riau",
        "lat": 0.2933469,
        "lng": 101.7068294
      },
      "country": {
        "id": 228,
        "name": "INDONESIA",
        "code": "ID"
      },
      "id": 60087,
      "name": "Kuantan Baru",
      "postcode": "29314",
      "lat": -0.2007936,
      "lng": 102.5527505
    },
    {
      "suburb": {
        "id": 5099,
        "name": "Rengat",
        "lat": -0.2007936,
        "lng": 102.5527505
      },
      "city": {
        "id": 332,
        "name": "Indragiri Hulu",
        "lat": -0.7361181,
        "lng": 102.2547919
      },
      "province": {
        "id": 26,
        "name": "Riau",
        "lat": 0.2933469,
        "lng": 101.7068294
      },
      "country": {
        "id": 228,
        "name": "INDONESIA",
        "code": "ID"
      },
      "id": 60088,
      "name": "Kampung Dagang",
      "postcode": "29313",
      "lat": -0.3981201,
      "lng": 102.5125951
    },
    {
      "suburb": {
        "id": 5099,
        "name": "Rengat",
        "lat": -0.2007936,
        "lng": 102.5527505
      },
      "city": {
        "id": 332,
        "name": "Indragiri Hulu",
        "lat": -0.7361181,
        "lng": 102.2547919
      },
      "province": {
        "id": 26,
        "name": "Riau",
        "lat": 0.2933469,
        "lng": 101.7068294
      },
      "country": {
        "id": 228,
        "name": "INDONESIA",
        "code": "ID"
      },
      "id": 60089,
      "name": "Pulau Gajah",
      "postcode": "29313",
      "lat": -0.391094,
      "lng": 102.5957898
    },
    {
      "suburb": {
        "id": 5099,
        "name": "Rengat",
        "lat": -0.2007936,
        "lng": 102.5527505
      },
      "city": {
        "id": 332,
        "name": "Indragiri Hulu",
        "lat": -0.7361181,
        "lng": 102.2547919
      },
      "province": {
        "id": 26,
        "name": "Riau",
        "lat": 0.2933469,
        "lng": 101.7068294
      },
      "country": {
        "id": 228,
        "name": "INDONESIA",
        "code": "ID"
      },
      "id": 60090,
      "name": "Kampung Besar Kota",
      "postcode": "29312",
      "lat": -0.3716392,
      "lng": 102.5398419
    },
    {
      "suburb": {
        "id": 5099,
        "name": "Rengat",
        "lat": -0.2007936,
        "lng": 102.5527505
      },
      "city": {
        "id": 332,
        "name": "Indragiri Hulu",
        "lat": -0.7361181,
        "lng": 102.2547919
      },
      "province": {
        "id": 26,
        "name": "Riau",
        "lat": 0.2933469,
        "lng": 101.7068294
      },
      "country": {
        "id": 228,
        "name": "INDONESIA",
        "code": "ID"
      },
      "id": 60091,
      "name": "Kampung Besar Seberang",
      "postcode": "29312",
      "lat": -0.358987,
      "lng": 102.5498818
    },
    {
      "suburb": {
        "id": 5100,
        "name": "Gaung",
        "lat": -0.0727927,
        "lng": 102.8975098
      },
      "city": {
        "id": 333,
        "name": "Indragiri Hilir",
        "lat": -0.1456733,
        "lng": 102.989615
      },
      "province": {
        "id": 26,
        "name": "Riau",
        "lat": 0.2933469,
        "lng": 101.7068294
      },
      "country": {
        "id": 228,
        "name": "INDONESIA",
        "code": "ID"
      },
      "id": 60092,
      "name": "Terusan Kempas",
      "postcode": "29282",
      "lat": -0.0272334,
      "lng": 103.324078
    },
    {
      "suburb": {
        "id": 5099,
        "name": "Rengat",
        "lat": -0.2007936,
        "lng": 102.5527505
      },
      "city": {
        "id": 332,
        "name": "Indragiri Hulu",
        "lat": -0.7361181,
        "lng": 102.2547919
      },
      "province": {
        "id": 26,
        "name": "Riau",
        "lat": 0.2933469,
        "lng": 101.7068294
      },
      "country": {
        "id": 228,
        "name": "INDONESIA",
        "code": "ID"
      },
      "id": 60093,
      "name": "Pasar Kota Rengat",
      "postcode": "29311",
      "lat": -0.3726078,
      "lng": 102.529212
    },
    {
      "suburb": {
        "id": 5100,
        "name": "Gaung",
        "lat": -0.0727927,
        "lng": 102.8975098
      },
      "city": {
        "id": 333,
        "name": "Indragiri Hilir",
        "lat": -0.1456733,
        "lng": 102.989615
      },
      "province": {
        "id": 26,
        "name": "Riau",
        "lat": 0.2933469,
        "lng": 101.7068294
      },
      "country": {
        "id": 228,
        "name": "INDONESIA",
        "code": "ID"
      },
      "id": 60094,
      "name": "Teluk Kabung",
      "postcode": "29282",
      "lat": -0.163998,
      "lng": 102.8744945
    },
    {
      "suburb": {
        "id": 5100,
        "name": "Gaung",
        "lat": -0.0727927,
        "lng": 102.8975098
      },
      "city": {
        "id": 333,
        "name": "Indragiri Hilir",
        "lat": -0.1456733,
        "lng": 102.989615
      },
      "province": {
        "id": 26,
        "name": "Riau",
        "lat": 0.2933469,
        "lng": 101.7068294
      },
      "country": {
        "id": 228,
        "name": "INDONESIA",
        "code": "ID"
      },
      "id": 60095,
      "name": "Telukmerbau",
      "postcode": "29282",
      "lat": -0.0727927,
      "lng": 102.8975098
    },
    {
      "suburb": {
        "id": 5100,
        "name": "Gaung",
        "lat": -0.0727927,
        "lng": 102.8975098
      },
      "city": {
        "id": 333,
        "name": "Indragiri Hilir",
        "lat": -0.1456733,
        "lng": 102.989615
      },
      "province": {
        "id": 26,
        "name": "Riau",
        "lat": 0.2933469,
        "lng": 101.7068294
      },
      "country": {
        "id": 228,
        "name": "INDONESIA",
        "code": "ID"
      },
      "id": 60096,
      "name": "Sungai Baru",
      "postcode": "29282",
      "lat": -0.1136227,
      "lng": 103.2836641
    },
    {
      "suburb": {
        "id": 5100,
        "name": "Gaung",
        "lat": -0.0727927,
        "lng": 102.8975098
      },
      "city": {
        "id": 333,
        "name": "Indragiri Hilir",
        "lat": -0.1456733,
        "lng": 102.989615
      },
      "province": {
        "id": 26,
        "name": "Riau",
        "lat": 0.2933469,
        "lng": 101.7068294
      },
      "country": {
        "id": 228,
        "name": "INDONESIA",
        "code": "ID"
      },
      "id": 60097,
      "name": "Soren",
      "postcode": "29282",
      "lat": -0.0727927,
      "lng": 102.8975098
    },
    {
      "suburb": {
        "id": 5100,
        "name": "Gaung",
        "lat": -0.0727927,
        "lng": 102.8975098
      },
      "city": {
        "id": 333,
        "name": "Indragiri Hilir",
        "lat": -0.1456733,
        "lng": 102.989615
      },
      "province": {
        "id": 26,
        "name": "Riau",
        "lat": 0.2933469,
        "lng": 101.7068294
      },
      "country": {
        "id": 228,
        "name": "INDONESIA",
        "code": "ID"
      },
      "id": 60098,
      "name": "Pungkat",
      "postcode": "29282",
      "lat": -0.0454344,
      "lng": 103.139435
    },
    {
      "suburb": {
        "id": 5100,
        "name": "Gaung",
        "lat": -0.0727927,
        "lng": 102.8975098
      },
      "city": {
        "id": 333,
        "name": "Indragiri Hilir",
        "lat": -0.1456733,
        "lng": 102.989615
      },
      "province": {
        "id": 26,
        "name": "Riau",
        "lat": 0.2933469,
        "lng": 101.7068294
      },
      "country": {
        "id": 228,
        "name": "INDONESIA",
        "code": "ID"
      },
      "id": 60099,
      "name": "Semambu Kuning",
      "postcode": "29282",
      "lat": -0.0727927,
      "lng": 102.8975098
    },
    {
      "suburb": {
        "id": 5100,
        "name": "Gaung",
        "lat": -0.0727927,
        "lng": 102.8975098
      },
      "city": {
        "id": 333,
        "name": "Indragiri Hilir",
        "lat": -0.1456733,
        "lng": 102.989615
      },
      "province": {
        "id": 26,
        "name": "Riau",
        "lat": 0.2933469,
        "lng": 101.7068294
      },
      "country": {
        "id": 228,
        "name": "INDONESIA",
        "code": "ID"
      },
      "id": 60100,
      "name": "Simpang Gaung",
      "postcode": "29282",
      "lat": -0.0363853,
      "lng": 102.8514837
    },
    {
      "suburb": {
        "id": 5100,
        "name": "Gaung",
        "lat": -0.0727927,
        "lng": 102.8975098
      },
      "city": {
        "id": 333,
        "name": "Indragiri Hilir",
        "lat": -0.1456733,
        "lng": 102.989615
      },
      "province": {
        "id": 26,
        "name": "Riau",
        "lat": 0.2933469,
        "lng": 101.7068294
      },
      "country": {
        "id": 228,
        "name": "INDONESIA",
        "code": "ID"
      },
      "id": 60101,
      "name": "Lahang Tengah",
      "postcode": "29282",
      "lat": -0.0749352,
      "lng": 103.3385147
    },
    {
      "suburb": {
        "id": 5100,
        "name": "Gaung",
        "lat": -0.0727927,
        "lng": 102.8975098
      },
      "city": {
        "id": 333,
        "name": "Indragiri Hilir",
        "lat": -0.1456733,
        "lng": 102.989615
      },
      "province": {
        "id": 26,
        "name": "Riau",
        "lat": 0.2933469,
        "lng": 101.7068294
      },
      "country": {
        "id": 228,
        "name": "INDONESIA",
        "code": "ID"
      },
      "id": 60102,
      "name": "Pintasan",
      "postcode": "29282",
      "lat": -0.0727927,
      "lng": 102.8975098
    },
    {
      "suburb": {
        "id": 5100,
        "name": "Gaung",
        "lat": -0.0727927,
        "lng": 102.8975098
      },
      "city": {
        "id": 333,
        "name": "Indragiri Hilir",
        "lat": -0.1456733,
        "lng": 102.989615
      },
      "province": {
        "id": 26,
        "name": "Riau",
        "lat": 0.2933469,
        "lng": 101.7068294
      },
      "country": {
        "id": 228,
        "name": "INDONESIA",
        "code": "ID"
      },
      "id": 60103,
      "name": "Lahang Baru",
      "postcode": "29282",
      "lat": -0.1226981,
      "lng": 103.3414022
    },
    {
      "suburb": {
        "id": 5100,
        "name": "Gaung",
        "lat": -0.0727927,
        "lng": 102.8975098
      },
      "city": {
        "id": 333,
        "name": "Indragiri Hilir",
        "lat": -0.1456733,
        "lng": 102.989615
      },
      "province": {
        "id": 26,
        "name": "Riau",
        "lat": 0.2933469,
        "lng": 101.7068294
      },
      "country": {
        "id": 228,
        "name": "INDONESIA",
        "code": "ID"
      },
      "id": 60104,
      "name": "Lahang Hulu",
      "postcode": "29282",
      "lat": -0.0090782,
      "lng": 103.254805
    },
    {
      "suburb": {
        "id": 5100,
        "name": "Gaung",
        "lat": -0.0727927,
        "lng": 102.8975098
      },
      "city": {
        "id": 333,
        "name": "Indragiri Hilir",
        "lat": -0.1456733,
        "lng": 102.989615
      },
      "province": {
        "id": 26,
        "name": "Riau",
        "lat": 0.2933469,
        "lng": 101.7068294
      },
      "country": {
        "id": 228,
        "name": "INDONESIA",
        "code": "ID"
      },
      "id": 60105,
      "name": "Jerambang",
      "postcode": "29282",
      "lat": -0.086334,
      "lng": 103.249034
    },
    {
      "suburb": {
        "id": 5100,
        "name": "Gaung",
        "lat": -0.0727927,
        "lng": 102.8975098
      },
      "city": {
        "id": 333,
        "name": "Indragiri Hilir",
        "lat": -0.1456733,
        "lng": 102.989615
      },
      "province": {
        "id": 26,
        "name": "Riau",
        "lat": 0.2933469,
        "lng": 101.7068294
      },
      "country": {
        "id": 228,
        "name": "INDONESIA",
        "code": "ID"
      },
      "id": 60106,
      "name": "Kuala Lahang",
      "postcode": "29282",
      "lat": -0.0817754,
      "lng": 103.2778918
    },
    {
      "suburb": {
        "id": 5100,
        "name": "Gaung",
        "lat": -0.0727927,
        "lng": 102.8975098
      },
      "city": {
        "id": 333,
        "name": "Indragiri Hilir",
        "lat": -0.1456733,
        "lng": 102.989615
      },
      "province": {
        "id": 26,
        "name": "Riau",
        "lat": 0.2933469,
        "lng": 101.7068294
      },
      "country": {
        "id": 228,
        "name": "INDONESIA",
        "code": "ID"
      },
      "id": 60107,
      "name": "Belantaraya",
      "postcode": "29282",
      "lat": -0.0545151,
      "lng": 103.1971067
    },
    {
      "suburb": {
        "id": 5100,
        "name": "Gaung",
        "lat": -0.0727927,
        "lng": 102.8975098
      },
      "city": {
        "id": 333,
        "name": "Indragiri Hilir",
        "lat": -0.1456733,
        "lng": 102.989615
      },
      "province": {
        "id": 26,
        "name": "Riau",
        "lat": 0.2933469,
        "lng": 101.7068294
      },
      "country": {
        "id": 228,
        "name": "INDONESIA",
        "code": "ID"
      },
      "id": 60108,
      "name": "Gembira",
      "postcode": "29282",
      "lat": -0.0727927,
      "lng": 102.8975098
    },
    {
      "suburb": {
        "id": 5101,
        "name": "Kuala Indragiri",
        "lat": -0.3096756,
        "lng": 103.4280586
      },
      "city": {
        "id": 333,
        "name": "Indragiri Hilir",
        "lat": -0.1456733,
        "lng": 102.989615
      },
      "province": {
        "id": 26,
        "name": "Riau",
        "lat": 0.2933469,
        "lng": 101.7068294
      },
      "country": {
        "id": 228,
        "name": "INDONESIA",
        "code": "ID"
      },
      "id": 60109,
      "name": "Tanjung Melayu",
      "postcode": "29281",
      "lat": -0.2640386,
      "lng": 103.3702811
    },
    {
      "suburb": {
        "id": 5101,
        "name": "Kuala Indragiri",
        "lat": -0.3096756,
        "lng": 103.4280586
      },
      "city": {
        "id": 333,
        "name": "Indragiri Hilir",
        "lat": -0.1456733,
        "lng": 102.989615
      },
      "province": {
        "id": 26,
        "name": "Riau",
        "lat": 0.2933469,
        "lng": 101.7068294
      },
      "country": {
        "id": 228,
        "name": "INDONESIA",
        "code": "ID"
      },
      "id": 60110,
      "name": "Teluk Dalam",
      "postcode": "29281",
      "lat": -0.2870038,
      "lng": 103.2721197
    },
    {
      "suburb": {
        "id": 5101,
        "name": "Kuala Indragiri",
        "lat": -0.3096756,
        "lng": 103.4280586
      },
      "city": {
        "id": 333,
        "name": "Indragiri Hilir",
        "lat": -0.1456733,
        "lng": 102.989615
      },
      "province": {
        "id": 26,
        "name": "Riau",
        "lat": 0.2933469,
        "lng": 101.7068294
      },
      "country": {
        "id": 228,
        "name": "INDONESIA",
        "code": "ID"
      },
      "id": 60111,
      "name": "Sungai Piyai",
      "postcode": "29281",
      "lat": -0.2823706,
      "lng": 103.324078
    },
    {
      "suburb": {
        "id": 5101,
        "name": "Kuala Indragiri",
        "lat": -0.3096756,
        "lng": 103.4280586
      },
      "city": {
        "id": 333,
        "name": "Indragiri Hilir",
        "lat": -0.1456733,
        "lng": 102.989615
      },
      "province": {
        "id": 26,
        "name": "Riau",
        "lat": 0.2933469,
        "lng": 101.7068294
      },
      "country": {
        "id": 228,
        "name": "INDONESIA",
        "code": "ID"
      },
      "id": 60112,
      "name": "Tanjung Lajau",
      "postcode": "29281",
      "lat": -0.41039,
      "lng": 103.4396172
    },
    {
      "suburb": {
        "id": 5101,
        "name": "Kuala Indragiri",
        "lat": -0.3096756,
        "lng": 103.4280586
      },
      "city": {
        "id": 333,
        "name": "Indragiri Hilir",
        "lat": -0.1456733,
        "lng": 102.989615
      },
      "province": {
        "id": 26,
        "name": "Riau",
        "lat": 0.2933469,
        "lng": 101.7068294
      },
      "country": {
        "id": 228,
        "name": "INDONESIA",
        "code": "ID"
      },
      "id": 60113,
      "name": "Sungai Buluh",
      "postcode": "29281",
      "lat": -0.4285253,
      "lng": 103.5552603
    },
    {
      "suburb": {
        "id": 5102,
        "name": "Concong",
        "lat": -0.2728988,
        "lng": 103.6131203
      },
      "city": {
        "id": 333,
        "name": "Indragiri Hilir",
        "lat": -0.1456733,
        "lng": 102.989615
      },
      "province": {
        "id": 26,
        "name": "Riau",
        "lat": 0.2933469,
        "lng": 101.7068294
      },
      "country": {
        "id": 228,
        "name": "INDONESIA",
        "code": "ID"
      },
      "id": 60114,
      "name": "Sungai Berapit",
      "postcode": "29281",
      "lat": -0.2820158,
      "lng": 103.6246954
    },
    {
      "suburb": {
        "id": 5101,
        "name": "Kuala Indragiri",
        "lat": -0.3096756,
        "lng": 103.4280586
      },
      "city": {
        "id": 333,
        "name": "Indragiri Hilir",
        "lat": -0.1456733,
        "lng": 102.989615
      },
      "province": {
        "id": 26,
        "name": "Riau",
        "lat": 0.2933469,
        "lng": 101.7068294
      },
      "country": {
        "id": 228,
        "name": "INDONESIA",
        "code": "ID"
      },
      "id": 60115,
      "name": "Sungai Bela",
      "postcode": "29281",
      "lat": -0.3460066,
      "lng": 103.6131203
    },
    {
      "suburb": {
        "id": 5101,
        "name": "Kuala Indragiri",
        "lat": -0.3096756,
        "lng": 103.4280586
      },
      "city": {
        "id": 333,
        "name": "Indragiri Hilir",
        "lat": -0.1456733,
        "lng": 102.989615
      },
      "province": {
        "id": 26,
        "name": "Riau",
        "lat": 0.2933469,
        "lng": 101.7068294
      },
      "country": {
        "id": 228,
        "name": "INDONESIA",
        "code": "ID"
      },
      "id": 60116,
      "name": "Perigi Raja",
      "postcode": "29281",
      "lat": -0.263937,
      "lng": 103.4627375
    },
    {
      "suburb": {
        "id": 5101,
        "name": "Kuala Indragiri",
        "lat": -0.3096756,
        "lng": 103.4280586
      },
      "city": {
        "id": 333,
        "name": "Indragiri Hilir",
        "lat": -0.1456733,
        "lng": 102.989615
      },
      "province": {
        "id": 26,
        "name": "Riau",
        "lat": 0.2933469,
        "lng": 101.7068294
      },
      "country": {
        "id": 228,
        "name": "INDONESIA",
        "code": "ID"
      },
      "id": 60117,
      "name": "Sapat",
      "postcode": "29281",
      "lat": -0.3372032,
      "lng": 103.3702811
    },
    {
      "suburb": {
        "id": 5102,
        "name": "Concong",
        "lat": -0.2728988,
        "lng": 103.6131203
      },
      "city": {
        "id": 333,
        "name": "Indragiri Hilir",
        "lat": -0.1456733,
        "lng": 102.989615
      },
      "province": {
        "id": 26,
        "name": "Riau",
        "lat": 0.2933469,
        "lng": 101.7068294
      },
      "country": {
        "id": 228,
        "name": "INDONESIA",
        "code": "ID"
      },
      "id": 60118,
      "name": "Concong Tengah",
      "postcode": "29281",
      "lat": -0.2775519,
      "lng": 103.5379072
    },
    {
      "suburb": {
        "id": 5102,
        "name": "Concong",
        "lat": -0.2728988,
        "lng": 103.6131203
      },
      "city": {
        "id": 333,
        "name": "Indragiri Hilir",
        "lat": -0.1456733,
        "lng": 102.989615
      },
      "province": {
        "id": 26,
        "name": "Riau",
        "lat": 0.2933469,
        "lng": 101.7068294
      },
      "country": {
        "id": 228,
        "name": "INDONESIA",
        "code": "ID"
      },
      "id": 60119,
      "name": "Kampung Baru",
      "postcode": "29281",
      "lat": -0.2455796,
      "lng": 103.5552603
    },
    {
      "suburb": {
        "id": 5102,
        "name": "Concong",
        "lat": -0.2728988,
        "lng": 103.6131203
      },
      "city": {
        "id": 333,
        "name": "Indragiri Hilir",
        "lat": -0.1456733,
        "lng": 102.989615
      },
      "province": {
        "id": 26,
        "name": "Riau",
        "lat": 0.2933469,
        "lng": 101.7068294
      },
      "country": {
        "id": 228,
        "name": "INDONESIA",
        "code": "ID"
      },
      "id": 60120,
      "name": "Panglima Raja",
      "postcode": "29281",
      "lat": -0.300165,
      "lng": 103.7173325
    },
    {
      "suburb": {
        "id": 5102,
        "name": "Concong",
        "lat": -0.2728988,
        "lng": 103.6131203
      },
      "city": {
        "id": 333,
        "name": "Indragiri Hilir",
        "lat": -0.1456733,
        "lng": 102.989615
      },
      "province": {
        "id": 26,
        "name": "Riau",
        "lat": 0.2933469,
        "lng": 101.7068294
      },
      "country": {
        "id": 228,
        "name": "INDONESIA",
        "code": "ID"
      },
      "id": 60121,
      "name": "Concong Dalam",
      "postcode": "29281",
      "lat": -0.3187453,
      "lng": 103.485862
    },
    {
      "suburb": {
        "id": 5102,
        "name": "Concong",
        "lat": -0.2728988,
        "lng": 103.6131203
      },
      "city": {
        "id": 333,
        "name": "Indragiri Hilir",
        "lat": -0.1456733,
        "lng": 102.989615
      },
      "province": {
        "id": 26,
        "name": "Riau",
        "lat": 0.2933469,
        "lng": 101.7068294
      },
      "country": {
        "id": 228,
        "name": "INDONESIA",
        "code": "ID"
      },
      "id": 60122,
      "name": "Concong Luar",
      "postcode": "29281",
      "lat": -0.2409407,
      "lng": 103.6304833
    },
    {
      "suburb": {
        "id": 5103,
        "name": "Kemuning",
        "lat": -0.8977236,
        "lng": 102.6774118
      },
      "city": {
        "id": 333,
        "name": "Indragiri Hilir",
        "lat": -0.1456733,
        "lng": 102.989615
      },
      "province": {
        "id": 26,
        "name": "Riau",
        "lat": 0.2933469,
        "lng": 101.7068294
      },
      "country": {
        "id": 228,
        "name": "INDONESIA",
        "code": "ID"
      },
      "id": 60123,
      "name": "Talang Jangkang",
      "postcode": "29274",
      "lat": -0.8319038,
      "lng": 102.8342284
    },
    {
      "suburb": {
        "id": 5104,
        "name": "Keritang",
        "lat": -0.697359,
        "lng": 102.8514837
      },
      "city": {
        "id": 333,
        "name": "Indragiri Hilir",
        "lat": -0.1456733,
        "lng": 102.989615
      },
      "province": {
        "id": 26,
        "name": "Riau",
        "lat": 0.2933469,
        "lng": 101.7068294
      },
      "country": {
        "id": 228,
        "name": "INDONESIA",
        "code": "ID"
      },
      "id": 60124,
      "name": "Sencalang",
      "postcode": "29274",
      "lat": -0.7163377,
      "lng": 102.6905326
    },
    {
      "suburb": {
        "id": 5104,
        "name": "Keritang",
        "lat": -0.697359,
        "lng": 102.8514837
      },
      "city": {
        "id": 333,
        "name": "Indragiri Hilir",
        "lat": -0.1456733,
        "lng": 102.989615
      },
      "province": {
        "id": 26,
        "name": "Riau",
        "lat": 0.2933469,
        "lng": 101.7068294
      },
      "country": {
        "id": 228,
        "name": "INDONESIA",
        "code": "ID"
      },
      "id": 60125,
      "name": "Teluk Kelasa",
      "postcode": "29274",
      "lat": -0.6882581,
      "lng": 102.7939759
    },
    {
      "suburb": {
        "id": 5103,
        "name": "Kemuning",
        "lat": -0.8977236,
        "lng": 102.6774118
      },
      "city": {
        "id": 333,
        "name": "Indragiri Hilir",
        "lat": -0.1456733,
        "lng": 102.989615
      },
      "province": {
        "id": 26,
        "name": "Riau",
        "lat": 0.2933469,
        "lng": 101.7068294
      },
      "country": {
        "id": 228,
        "name": "INDONESIA",
        "code": "ID"
      },
      "id": 60126,
      "name": "Sekara",
      "postcode": "29274",
      "lat": -0.8647718,
      "lng": 102.7364962
    },
    {
      "suburb": {
        "id": 5103,
        "name": "Kemuning",
        "lat": -0.8977236,
        "lng": 102.6774118
      },
      "city": {
        "id": 333,
        "name": "Indragiri Hilir",
        "lat": -0.1456733,
        "lng": 102.989615
      },
      "province": {
        "id": 26,
        "name": "Riau",
        "lat": 0.2933469,
        "lng": 101.7068294
      },
      "country": {
        "id": 228,
        "name": "INDONESIA",
        "code": "ID"
      },
      "id": 60127,
      "name": "Sekayan",
      "postcode": "29274",
      "lat": -0.8977236,
      "lng": 102.6774118
    },
    {
      "suburb": {
        "id": 5103,
        "name": "Kemuning",
        "lat": -0.8977236,
        "lng": 102.6774118
      },
      "city": {
        "id": 333,
        "name": "Indragiri Hilir",
        "lat": -0.1456733,
        "lng": 102.989615
      },
      "province": {
        "id": 26,
        "name": "Riau",
        "lat": 0.2933469,
        "lng": 101.7068294
      },
      "country": {
        "id": 228,
        "name": "INDONESIA",
        "code": "ID"
      },
      "id": 60128,
      "name": "Selensen",
      "postcode": "29274",
      "lat": -1.023277,
      "lng": 102.7250036
    },
    {
      "suburb": {
        "id": 5104,
        "name": "Keritang",
        "lat": -0.697359,
        "lng": 102.8514837
      },
      "city": {
        "id": 333,
        "name": "Indragiri Hilir",
        "lat": -0.1456733,
        "lng": 102.989615
      },
      "province": {
        "id": 26,
        "name": "Riau",
        "lat": 0.2933469,
        "lng": 101.7068294
      },
      "country": {
        "id": 228,
        "name": "INDONESIA",
        "code": "ID"
      },
      "id": 60129,
      "name": "Petalongan",
      "postcode": "29274",
      "lat": -0.697359,
      "lng": 102.8514837
    },
    {
      "suburb": {
        "id": 5104,
        "name": "Keritang",
        "lat": -0.697359,
        "lng": 102.8514837
      },
      "city": {
        "id": 333,
        "name": "Indragiri Hilir",
        "lat": -0.1456733,
        "lng": 102.989615
      },
      "province": {
        "id": 26,
        "name": "Riau",
        "lat": 0.2933469,
        "lng": 101.7068294
      },
      "country": {
        "id": 228,
        "name": "INDONESIA",
        "code": "ID"
      },
      "id": 60130,
      "name": "Seberang Pebenaan",
      "postcode": "29274",
      "lat": -0.7247119,
      "lng": 103.0011331
    },
    {
      "suburb": {
        "id": 5104,
        "name": "Keritang",
        "lat": -0.697359,
        "lng": 102.8514837
      },
      "city": {
        "id": 333,
        "name": "Indragiri Hilir",
        "lat": -0.1456733,
        "lng": 102.989615
      },
      "province": {
        "id": 26,
        "name": "Riau",
        "lat": 0.2933469,
        "lng": 101.7068294
      },
      "country": {
        "id": 228,
        "name": "INDONESIA",
        "code": "ID"
      },
      "id": 60131,
      "name": "Pebenaan",
      "postcode": "29274",
      "lat": -0.6414286,
      "lng": 103.0126523
    },
    {
      "suburb": {
        "id": 5104,
        "name": "Keritang",
        "lat": -0.697359,
        "lng": 102.8514837
      },
      "city": {
        "id": 333,
        "name": "Indragiri Hilir",
        "lat": -0.1456733,
        "lng": 102.989615
      },
      "province": {
        "id": 26,
        "name": "Riau",
        "lat": 0.2933469,
        "lng": 101.7068294
      },
      "country": {
        "id": 228,
        "name": "INDONESIA",
        "code": "ID"
      },
      "id": 60132,
      "name": "Pengalihan/Pengalehan",
      "postcode": "29274",
      "lat": -0.6050419,
      "lng": 102.7824777
    },
    {
      "suburb": {
        "id": 5104,
        "name": "Keritang",
        "lat": -0.697359,
        "lng": 102.8514837
      },
      "city": {
        "id": 333,
        "name": "Indragiri Hilir",
        "lat": -0.1456733,
        "lng": 102.989615
      },
      "province": {
        "id": 26,
        "name": "Riau",
        "lat": 0.2933469,
        "lng": 101.7068294
      },
      "country": {
        "id": 228,
        "name": "INDONESIA",
        "code": "ID"
      },
      "id": 60133,
      "name": "Pasar Kembang",
      "postcode": "29274",
      "lat": -0.7760164,
      "lng": 102.8917556
    },
    {
      "suburb": {
        "id": 5104,
        "name": "Keritang",
        "lat": -0.697359,
        "lng": 102.8514837
      },
      "city": {
        "id": 333,
        "name": "Indragiri Hilir",
        "lat": -0.1456733,
        "lng": 102.989615
      },
      "province": {
        "id": 26,
        "name": "Riau",
        "lat": 0.2933469,
        "lng": 101.7068294
      },
      "country": {
        "id": 228,
        "name": "INDONESIA",
        "code": "ID"
      },
      "id": 60134,
      "name": "Nusantara Jaya",
      "postcode": "29274",
      "lat": -0.6693758,
      "lng": 102.932041
    },
    {
      "suburb": {
        "id": 5104,
        "name": "Keritang",
        "lat": -0.697359,
        "lng": 102.8514837
      },
      "city": {
        "id": 333,
        "name": "Indragiri Hilir",
        "lat": -0.1456733,
        "lng": 102.989615
      },
      "province": {
        "id": 26,
        "name": "Riau",
        "lat": 0.2933469,
        "lng": 101.7068294
      },
      "country": {
        "id": 228,
        "name": "INDONESIA",
        "code": "ID"
      },
      "id": 60135,
      "name": "Nyiur Permai",
      "postcode": "29274",
      "lat": -0.697359,
      "lng": 102.8514837
    },
    {
      "suburb": {
        "id": 5104,
        "name": "Keritang",
        "lat": -0.697359,
        "lng": 102.8514837
      },
      "city": {
        "id": 333,
        "name": "Indragiri Hilir",
        "lat": -0.1456733,
        "lng": 102.989615
      },
      "province": {
        "id": 26,
        "name": "Riau",
        "lat": 0.2933469,
        "lng": 101.7068294
      },
      "country": {
        "id": 228,
        "name": "INDONESIA",
        "code": "ID"
      },
      "id": 60136,
      "name": "Pancur",
      "postcode": "29274",
      "lat": -0.6329151,
      "lng": 102.7250036
    },
    {
      "suburb": {
        "id": 5103,
        "name": "Kemuning",
        "lat": -0.8977236,
        "lng": 102.6774118
      },
      "city": {
        "id": 333,
        "name": "Indragiri Hilir",
        "lat": -0.1456733,
        "lng": 102.989615
      },
      "province": {
        "id": 26,
        "name": "Riau",
        "lat": 0.2933469,
        "lng": 101.7068294
      },
      "country": {
        "id": 228,
        "name": "INDONESIA",
        "code": "ID"
      },
      "id": 60137,
      "name": "Lubuk Besar",
      "postcode": "29274",
      "lat": -0.8736373,
      "lng": 102.8629885
    },
    {
      "suburb": {
        "id": 5104,
        "name": "Keritang",
        "lat": -0.697359,
        "lng": 102.8514837
      },
      "city": {
        "id": 333,
        "name": "Indragiri Hilir",
        "lat": -0.1456733,
        "lng": 102.989615
      },
      "province": {
        "id": 26,
        "name": "Riau",
        "lat": 0.2933469,
        "lng": 101.7068294
      },
      "country": {
        "id": 228,
        "name": "INDONESIA",
        "code": "ID"
      },
      "id": 60138,
      "name": "Kuala Lemang",
      "postcode": "29274",
      "lat": -0.6880693,
      "lng": 102.8629885
    },
    {
      "suburb": {
        "id": 5104,
        "name": "Keritang",
        "lat": -0.697359,
        "lng": 102.8514837
      },
      "city": {
        "id": 333,
        "name": "Indragiri Hilir",
        "lat": -0.1456733,
        "lng": 102.989615
      },
      "province": {
        "id": 26,
        "name": "Riau",
        "lat": 0.2933469,
        "lng": 101.7068294
      },
      "country": {
        "id": 228,
        "name": "INDONESIA",
        "code": "ID"
      },
      "id": 60139,
      "name": "Lintas Utara",
      "postcode": "29274",
      "lat": -0.8645647,
      "lng": 102.6457578
    },
    {
      "suburb": {
        "id": 5103,
        "name": "Kemuning",
        "lat": -0.8977236,
        "lng": 102.6774118
      },
      "city": {
        "id": 333,
        "name": "Indragiri Hilir",
        "lat": -0.1456733,
        "lng": 102.989615
      },
      "province": {
        "id": 26,
        "name": "Riau",
        "lat": 0.2933469,
        "lng": 101.7068294
      },
      "country": {
        "id": 228,
        "name": "INDONESIA",
        "code": "ID"
      },
      "id": 60140,
      "name": "Limau Manis",
      "postcode": "29274",
      "lat": -0.8599057,
      "lng": 102.7997255
    },
    {
      "suburb": {
        "id": 5104,
        "name": "Keritang",
        "lat": -0.697359,
        "lng": 102.8514837
      },
      "city": {
        "id": 333,
        "name": "Indragiri Hilir",
        "lat": -0.1456733,
        "lng": 102.989615
      },
      "province": {
        "id": 26,
        "name": "Riau",
        "lat": 0.2933469,
        "lng": 101.7068294
      },
      "country": {
        "id": 228,
        "name": "INDONESIA",
        "code": "ID"
      },
      "id": 60141,
      "name": "Kota Baru Seberida",
      "postcode": "29274",
      "lat": -0.697359,
      "lng": 102.8514837
    },
    {
      "suburb": {
        "id": 5104,
        "name": "Keritang",
        "lat": -0.697359,
        "lng": 102.8514837
      },
      "city": {
        "id": 333,
        "name": "Indragiri Hilir",
        "lat": -0.1456733,
        "lng": 102.989615
      },
      "province": {
        "id": 26,
        "name": "Riau",
        "lat": 0.2933469,
        "lng": 101.7068294
      },
      "country": {
        "id": 228,
        "name": "INDONESIA",
        "code": "ID"
      },
      "id": 60142,
      "name": "Kuala Keritang",
      "postcode": "29274",
      "lat": -0.7808159,
      "lng": 102.8399799
    },
    {
      "suburb": {
        "id": 5104,
        "name": "Keritang",
        "lat": -0.697359,
        "lng": 102.8514837
      },
      "city": {
        "id": 333,
        "name": "Indragiri Hilir",
        "lat": -0.1456733,
        "lng": 102.989615
      },
      "province": {
        "id": 26,
        "name": "Riau",
        "lat": 0.2933469,
        "lng": 101.7068294
      },
      "country": {
        "id": 228,
        "name": "INDONESIA",
        "code": "ID"
      },
      "id": 60143,
      "name": "Kota Baru Reteh",
      "postcode": "29274",
      "lat": -0.697359,
      "lng": 102.8514837
    },
    {
      "suburb": {
        "id": 5103,
        "name": "Kemuning",
        "lat": -0.8977236,
        "lng": 102.6774118
      },
      "city": {
        "id": 333,
        "name": "Indragiri Hilir",
        "lat": -0.1456733,
        "lng": 102.989615
      },
      "province": {
        "id": 26,
        "name": "Riau",
        "lat": 0.2933469,
        "lng": 101.7068294
      },
      "country": {
        "id": 228,
        "name": "INDONESIA",
        "code": "ID"
      },
      "id": 60144,
      "name": "Kemuning Tua",
      "postcode": "29274",
      "lat": -0.8878536,
      "lng": 102.7882267
    },
    {
      "suburb": {
        "id": 5103,
        "name": "Kemuning",
        "lat": -0.8977236,
        "lng": 102.6774118
      },
      "city": {
        "id": 333,
        "name": "Indragiri Hilir",
        "lat": -0.1456733,
        "lng": 102.989615
      },
      "province": {
        "id": 26,
        "name": "Riau",
        "lat": 0.2933469,
        "lng": 101.7068294
      },
      "country": {
        "id": 228,
        "name": "INDONESIA",
        "code": "ID"
      },
      "id": 60145,
      "name": "Keritang",
      "postcode": "29274",
      "lat": -0.8650842,
      "lng": 102.644587
    },
    {
      "suburb": {
        "id": 5104,
        "name": "Keritang",
        "lat": -0.697359,
        "lng": 102.8514837
      },
      "city": {
        "id": 333,
        "name": "Indragiri Hilir",
        "lat": -0.1456733,
        "lng": 102.989615
      },
      "province": {
        "id": 26,
        "name": "Riau",
        "lat": 0.2933469,
        "lng": 101.7068294
      },
      "country": {
        "id": 228,
        "name": "INDONESIA",
        "code": "ID"
      },
      "id": 60146,
      "name": "Kembang Mekar Sari",
      "postcode": "29274",
      "lat": -0.7018761,
      "lng": 102.8917556
    },
    {
      "suburb": {
        "id": 5103,
        "name": "Kemuning",
        "lat": -0.8977236,
        "lng": 102.6774118
      },
      "city": {
        "id": 333,
        "name": "Indragiri Hilir",
        "lat": -0.1456733,
        "lng": 102.989615
      },
      "province": {
        "id": 26,
        "name": "Riau",
        "lat": 0.2933469,
        "lng": 101.7068294
      },
      "country": {
        "id": 228,
        "name": "INDONESIA",
        "code": "ID"
      },
      "id": 60147,
      "name": "Kemuning Muda",
      "postcode": "29274",
      "lat": -0.9063049,
      "lng": 102.8342284
    },
    {
      "suburb": {
        "id": 5104,
        "name": "Keritang",
        "lat": -0.697359,
        "lng": 102.8514837
      },
      "city": {
        "id": 333,
        "name": "Indragiri Hilir",
        "lat": -0.1456733,
        "lng": 102.989615
      },
      "province": {
        "id": 26,
        "name": "Riau",
        "lat": 0.2933469,
        "lng": 101.7068294
      },
      "country": {
        "id": 228,
        "name": "INDONESIA",
        "code": "ID"
      },
      "id": 60148,
      "name": "Kayu Raja",
      "postcode": "29274",
      "lat": -0.697359,
      "lng": 102.8514837
    },
    {
      "suburb": {
        "id": 5103,
        "name": "Kemuning",
        "lat": -0.8977236,
        "lng": 102.6774118
      },
      "city": {
        "id": 333,
        "name": "Indragiri Hilir",
        "lat": -0.1456733,
        "lng": 102.989615
      },
      "province": {
        "id": 26,
        "name": "Riau",
        "lat": 0.2933469,
        "lng": 101.7068294
      },
      "country": {
        "id": 228,
        "name": "INDONESIA",
        "code": "ID"
      },
      "id": 60149,
      "name": "Batu Ampar",
      "postcode": "29274",
      "lat": -1.0142584,
      "lng": 102.644587
    },
    {
      "suburb": {
        "id": 5103,
        "name": "Kemuning",
        "lat": -0.8977236,
        "lng": 102.6774118
      },
      "city": {
        "id": 333,
        "name": "Indragiri Hilir",
        "lat": -0.1456733,
        "lng": 102.989615
      },
      "province": {
        "id": 26,
        "name": "Riau",
        "lat": 0.2933469,
        "lng": 101.7068294
      },
      "country": {
        "id": 228,
        "name": "INDONESIA",
        "code": "ID"
      },
      "id": 60150,
      "name": "Dusun Tuk Jimun",
      "postcode": "29274",
      "lat": -0.9296475,
      "lng": 102.8169757
    },
    {
      "suburb": {
        "id": 5105,
        "name": "Reteh",
        "lat": -0.7147484,
        "lng": 103.2432632
      },
      "city": {
        "id": 333,
        "name": "Indragiri Hilir",
        "lat": -0.1456733,
        "lng": 102.989615
      },
      "province": {
        "id": 26,
        "name": "Riau",
        "lat": 0.2933469,
        "lng": 101.7068294
      },
      "country": {
        "id": 228,
        "name": "INDONESIA",
        "code": "ID"
      },
      "id": 60151,
      "name": "Tanjung Labuh",
      "postcode": "29273",
      "lat": -0.7147484,
      "lng": 103.2432632
    },
    {
      "suburb": {
        "id": 5103,
        "name": "Kemuning",
        "lat": -0.8977236,
        "lng": 102.6774118
      },
      "city": {
        "id": 333,
        "name": "Indragiri Hilir",
        "lat": -0.1456733,
        "lng": 102.989615
      },
      "province": {
        "id": 26,
        "name": "Riau",
        "lat": 0.2933469,
        "lng": 101.7068294
      },
      "country": {
        "id": 228,
        "name": "INDONESIA",
        "code": "ID"
      },
      "id": 60152,
      "name": "Air Balui",
      "postcode": "29274",
      "lat": -0.9065528,
      "lng": 102.7652326
    },
    {
      "suburb": {
        "id": 5105,
        "name": "Reteh",
        "lat": -0.7147484,
        "lng": 103.2432632
      },
      "city": {
        "id": 333,
        "name": "Indragiri Hilir",
        "lat": -0.1456733,
        "lng": 102.989615
      },
      "province": {
        "id": 26,
        "name": "Riau",
        "lat": 0.2933469,
        "lng": 101.7068294
      },
      "country": {
        "id": 228,
        "name": "INDONESIA",
        "code": "ID"
      },
      "id": 60153,
      "name": "Sungai Mahang",
      "postcode": "29273",
      "lat": -0.7147484,
      "lng": 103.2432632
    },
    {
      "suburb": {
        "id": 5105,
        "name": "Reteh",
        "lat": -0.7147484,
        "lng": 103.2432632
      },
      "city": {
        "id": 333,
        "name": "Indragiri Hilir",
        "lat": -0.1456733,
        "lng": 102.989615
      },
      "province": {
        "id": 26,
        "name": "Riau",
        "lat": 0.2933469,
        "lng": 101.7068294
      },
      "country": {
        "id": 228,
        "name": "INDONESIA",
        "code": "ID"
      },
      "id": 60154,
      "name": "Sungai Terab/Terap",
      "postcode": "29273",
      "lat": -0.7606213,
      "lng": 103.3702811
    },
    {
      "suburb": {
        "id": 5105,
        "name": "Reteh",
        "lat": -0.7147484,
        "lng": 103.2432632
      },
      "city": {
        "id": 333,
        "name": "Indragiri Hilir",
        "lat": -0.1456733,
        "lng": 102.989615
      },
      "province": {
        "id": 26,
        "name": "Riau",
        "lat": 0.2933469,
        "lng": 101.7068294
      },
      "country": {
        "id": 228,
        "name": "INDONESIA",
        "code": "ID"
      },
      "id": 60155,
      "name": "Sungai Undan",
      "postcode": "29273",
      "lat": -0.7053329,
      "lng": 103.3009828
    },
    {
      "suburb": {
        "id": 5105,
        "name": "Reteh",
        "lat": -0.7147484,
        "lng": 103.2432632
      },
      "city": {
        "id": 333,
        "name": "Indragiri Hilir",
        "lat": -0.1456733,
        "lng": 102.989615
      },
      "province": {
        "id": 26,
        "name": "Riau",
        "lat": 0.2933469,
        "lng": 101.7068294
      },
      "country": {
        "id": 228,
        "name": "INDONESIA",
        "code": "ID"
      },
      "id": 60156,
      "name": "Seberang Sanglar",
      "postcode": "29273",
      "lat": -0.6689405,
      "lng": 103.0933171
    },
    {
      "suburb": {
        "id": 5105,
        "name": "Reteh",
        "lat": -0.7147484,
        "lng": 103.2432632
      },
      "city": {
        "id": 333,
        "name": "Indragiri Hilir",
        "lat": -0.1456733,
        "lng": 102.989615
      },
      "province": {
        "id": 26,
        "name": "Riau",
        "lat": 0.2933469,
        "lng": 101.7068294
      },
      "country": {
        "id": 228,
        "name": "INDONESIA",
        "code": "ID"
      },
      "id": 60157,
      "name": "Sungai Asam",
      "postcode": "29273",
      "lat": -0.7608393,
      "lng": 103.3009828
    },
    {
      "suburb": {
        "id": 5105,
        "name": "Reteh",
        "lat": -0.7147484,
        "lng": 103.2432632
      },
      "city": {
        "id": 333,
        "name": "Indragiri Hilir",
        "lat": -0.1456733,
        "lng": 102.989615
      },
      "province": {
        "id": 26,
        "name": "Riau",
        "lat": 0.2933469,
        "lng": 101.7068294
      },
      "country": {
        "id": 228,
        "name": "INDONESIA",
        "code": "ID"
      },
      "id": 60158,
      "name": "Sanglar",
      "postcode": "29273",
      "lat": -0.7245095,
      "lng": 103.0702646
    },
    {
      "suburb": {
        "id": 5105,
        "name": "Reteh",
        "lat": -0.7147484,
        "lng": 103.2432632
      },
      "city": {
        "id": 333,
        "name": "Indragiri Hilir",
        "lat": -0.1456733,
        "lng": 102.989615
      },
      "province": {
        "id": 26,
        "name": "Riau",
        "lat": 0.2933469,
        "lng": 101.7068294
      },
      "country": {
        "id": 228,
        "name": "INDONESIA",
        "code": "ID"
      },
      "id": 60159,
      "name": "Seberang Pulau Kijang",
      "postcode": "29273",
      "lat": -0.6497809,
      "lng": 103.3471775
    },
    {
      "suburb": {
        "id": 5105,
        "name": "Reteh",
        "lat": -0.7147484,
        "lng": 103.2432632
      },
      "city": {
        "id": 333,
        "name": "Indragiri Hilir",
        "lat": -0.1456733,
        "lng": 102.989615
      },
      "province": {
        "id": 26,
        "name": "Riau",
        "lat": 0.2933469,
        "lng": 101.7068294
      },
      "country": {
        "id": 228,
        "name": "INDONESIA",
        "code": "ID"
      },
      "id": 60160,
      "name": "Pulau Ruku",
      "postcode": "29273",
      "lat": -0.7373668,
      "lng": 103.4107226
    },
    {
      "suburb": {
        "id": 5105,
        "name": "Reteh",
        "lat": -0.7147484,
        "lng": 103.2432632
      },
      "city": {
        "id": 333,
        "name": "Indragiri Hilir",
        "lat": -0.1456733,
        "lng": 102.989615
      },
      "province": {
        "id": 26,
        "name": "Riau",
        "lat": 0.2933469,
        "lng": 101.7068294
      },
      "country": {
        "id": 228,
        "name": "INDONESIA",
        "code": "ID"
      },
      "id": 60161,
      "name": "Pulau Kecil",
      "postcode": "29273",
      "lat": -0.7243059,
      "lng": 103.139435
    },
    {
      "suburb": {
        "id": 5105,
        "name": "Reteh",
        "lat": -0.7147484,
        "lng": 103.2432632
      },
      "city": {
        "id": 333,
        "name": "Indragiri Hilir",
        "lat": -0.1456733,
        "lng": 102.989615
      },
      "province": {
        "id": 26,
        "name": "Riau",
        "lat": 0.2933469,
        "lng": 101.7068294
      },
      "country": {
        "id": 228,
        "name": "INDONESIA",
        "code": "ID"
      },
      "id": 60162,
      "name": "Pulau Kijang",
      "postcode": "29273",
      "lat": -0.7241012,
      "lng": 103.2086442
    },
    {
      "suburb": {
        "id": 5106,
        "name": "Sungai Batang",
        "lat": -0.6224273,
        "lng": 103.2201828
      },
      "city": {
        "id": 333,
        "name": "Indragiri Hilir",
        "lat": -0.1456733,
        "lng": 102.989615
      },
      "province": {
        "id": 26,
        "name": "Riau",
        "lat": 0.2933469,
        "lng": 101.7068294
      },
      "country": {
        "id": 228,
        "name": "INDONESIA",
        "code": "ID"
      },
      "id": 60163,
      "name": "Mugo Mulyo",
      "postcode": "29273",
      "lat": -0.6224273,
      "lng": 103.2201828
    },
    {
      "suburb": {
        "id": 5106,
        "name": "Sungai Batang",
        "lat": -0.6224273,
        "lng": 103.2201828
      },
      "city": {
        "id": 333,
        "name": "Indragiri Hilir",
        "lat": -0.1456733,
        "lng": 102.989615
      },
      "province": {
        "id": 26,
        "name": "Riau",
        "lat": 0.2933469,
        "lng": 101.7068294
      },
      "country": {
        "id": 228,
        "name": "INDONESIA",
        "code": "ID"
      },
      "id": 60164,
      "name": "Pandan Sari",
      "postcode": "29273",
      "lat": -0.6224273,
      "lng": 103.2201828
    },
    {
      "suburb": {
        "id": 5106,
        "name": "Sungai Batang",
        "lat": -0.6224273,
        "lng": 103.2201828
      },
      "city": {
        "id": 333,
        "name": "Indragiri Hilir",
        "lat": -0.1456733,
        "lng": 102.989615
      },
      "province": {
        "id": 26,
        "name": "Riau",
        "lat": 0.2933469,
        "lng": 101.7068294
      },
      "country": {
        "id": 228,
        "name": "INDONESIA",
        "code": "ID"
      },
      "id": 60165,
      "name": "Pesanggerahan (Pasenggarahan)",
      "postcode": "29273",
      "lat": -0.613055,
      "lng": 103.2778918
    },
    {
      "suburb": {
        "id": 5105,
        "name": "Reteh",
        "lat": -0.7147484,
        "lng": 103.2432632
      },
      "city": {
        "id": 333,
        "name": "Indragiri Hilir",
        "lat": -0.1456733,
        "lng": 102.989615
      },
      "province": {
        "id": 26,
        "name": "Riau",
        "lat": 0.2933469,
        "lng": 101.7068294
      },
      "country": {
        "id": 228,
        "name": "INDONESIA",
        "code": "ID"
      },
      "id": 60166,
      "name": "Madani",
      "postcode": "29273",
      "lat": -0.7147484,
      "lng": 103.2432632
    },
    {
      "suburb": {
        "id": 5105,
        "name": "Reteh",
        "lat": -0.7147484,
        "lng": 103.2432632
      },
      "city": {
        "id": 333,
        "name": "Indragiri Hilir",
        "lat": -0.1456733,
        "lng": 102.989615
      },
      "province": {
        "id": 26,
        "name": "Riau",
        "lat": 0.2933469,
        "lng": 101.7068294
      },
      "country": {
        "id": 228,
        "name": "INDONESIA",
        "code": "ID"
      },
      "id": 60167,
      "name": "Mekar Sari",
      "postcode": "29273",
      "lat": -0.6734205,
      "lng": 103.145201
    },
    {
      "suburb": {
        "id": 5105,
        "name": "Reteh",
        "lat": -0.7147484,
        "lng": 103.2432632
      },
      "city": {
        "id": 333,
        "name": "Indragiri Hilir",
        "lat": -0.1456733,
        "lng": 102.989615
      },
      "province": {
        "id": 26,
        "name": "Riau",
        "lat": 0.2933469,
        "lng": 101.7068294
      },
      "country": {
        "id": 228,
        "name": "INDONESIA",
        "code": "ID"
      },
      "id": 60168,
      "name": "Metro",
      "postcode": "29273",
      "lat": -0.7147484,
      "lng": 103.2432632
    },
    {
      "suburb": {
        "id": 5106,
        "name": "Sungai Batang",
        "lat": -0.6224273,
        "lng": 103.2201828
      },
      "city": {
        "id": 333,
        "name": "Indragiri Hilir",
        "lat": -0.1456733,
        "lng": 102.989615
      },
      "province": {
        "id": 26,
        "name": "Riau",
        "lat": 0.2933469,
        "lng": 101.7068294
      },
      "country": {
        "id": 228,
        "name": "INDONESIA",
        "code": "ID"
      },
      "id": 60169,
      "name": "Kuala Patah Parang",
      "postcode": "29273",
      "lat": -0.603573,
      "lng": 103.3818345
    },
    {
      "suburb": {
        "id": 5106,
        "name": "Sungai Batang",
        "lat": -0.6224273,
        "lng": 103.2201828
      },
      "city": {
        "id": 333,
        "name": "Indragiri Hilir",
        "lat": -0.1456733,
        "lng": 102.989615
      },
      "province": {
        "id": 26,
        "name": "Riau",
        "lat": 0.2933469,
        "lng": 101.7068294
      },
      "country": {
        "id": 228,
        "name": "INDONESIA",
        "code": "ID"
      },
      "id": 60170,
      "name": "Kuala Sungai Batang",
      "postcode": "29273",
      "lat": -0.6731663,
      "lng": 103.2374927
    },
    {
      "suburb": {
        "id": 5106,
        "name": "Sungai Batang",
        "lat": -0.6224273,
        "lng": 103.2201828
      },
      "city": {
        "id": 333,
        "name": "Indragiri Hilir",
        "lat": -0.1456733,
        "lng": 102.989615
      },
      "province": {
        "id": 26,
        "name": "Riau",
        "lat": 0.2933469,
        "lng": 101.7068294
      },
      "country": {
        "id": 228,
        "name": "INDONESIA",
        "code": "ID"
      },
      "id": 60171,
      "name": "Benteng",
      "postcode": "29273",
      "lat": -0.6132294,
      "lng": 103.2086442
    },
    {
      "suburb": {
        "id": 5106,
        "name": "Sungai Batang",
        "lat": -0.6224273,
        "lng": 103.2201828
      },
      "city": {
        "id": 333,
        "name": "Indragiri Hilir",
        "lat": -0.1456733,
        "lng": 102.989615
      },
      "province": {
        "id": 26,
        "name": "Riau",
        "lat": 0.2933469,
        "lng": 101.7068294
      },
      "country": {
        "id": 228,
        "name": "INDONESIA",
        "code": "ID"
      },
      "id": 60172,
      "name": "Benteng Barat",
      "postcode": "29273",
      "lat": -0.6042601,
      "lng": 103.1048449
    },
    {
      "suburb": {
        "id": 5106,
        "name": "Sungai Batang",
        "lat": -0.6224273,
        "lng": 103.2201828
      },
      "city": {
        "id": 333,
        "name": "Indragiri Hilir",
        "lat": -0.1456733,
        "lng": 102.989615
      },
      "province": {
        "id": 26,
        "name": "Riau",
        "lat": 0.2933469,
        "lng": 101.7068294
      },
      "country": {
        "id": 228,
        "name": "INDONESIA",
        "code": "ID"
      },
      "id": 60173,
      "name": "Benteng Utara",
      "postcode": "29273",
      "lat": -0.5809372,
      "lng": 103.2144134
    },
    {
      "suburb": {
        "id": 5107,
        "name": "Enok",
        "lat": -0.4935896,
        "lng": 103.1509672
      },
      "city": {
        "id": 333,
        "name": "Indragiri Hilir",
        "lat": -0.1456733,
        "lng": 102.989615
      },
      "province": {
        "id": 26,
        "name": "Riau",
        "lat": 0.2933469,
        "lng": 101.7068294
      },
      "country": {
        "id": 228,
        "name": "INDONESIA",
        "code": "ID"
      },
      "id": 60174,
      "name": "Sungai Rukam",
      "postcode": "29272",
      "lat": -0.5214189,
      "lng": 103.0472164
    },
    {
      "suburb": {
        "id": 5107,
        "name": "Enok",
        "lat": -0.4935896,
        "lng": 103.1509672
      },
      "city": {
        "id": 333,
        "name": "Indragiri Hilir",
        "lat": -0.1456733,
        "lng": 102.989615
      },
      "province": {
        "id": 26,
        "name": "Riau",
        "lat": 0.2933469,
        "lng": 101.7068294
      },
      "country": {
        "id": 228,
        "name": "INDONESIA",
        "code": "ID"
      },
      "id": 60175,
      "name": "Teluk Medan",
      "postcode": "29272",
      "lat": -0.5071402,
      "lng": 103.2721197
    },
    {
      "suburb": {
        "id": 5107,
        "name": "Enok",
        "lat": -0.4935896,
        "lng": 103.1509672
      },
      "city": {
        "id": 333,
        "name": "Indragiri Hilir",
        "lat": -0.1456733,
        "lng": 102.989615
      },