{
  "metadata": {
    "path": "/v3/location/areas?limit=1000&page=1",
    "http_status_code": 200,
    "http_status": "OK",
    "timestamp": 1647333645
  },
  "data": [
    {
      "suburb": {
        "id": 1,
        "name": "Pekutatan",
        "lat": -8.4101762,
        "lng": 114.8804853
      },
      "city": {
        "id": 1,
        "name": "Jembrana",
        "lat": -8.3233438,
        "lng": 114.6667939
      },
      "province": {
        "id": 1,
        "name": "Bali",
        "lat": -8.4095178,
        "lng": 115.188916
      },
      "country": {
        "id": 228,
        "name": "INDONESIA",
        "code": "ID"
      },
      "id": 1,
      "name": "Pulukan",
      "postcode": "82262",
      "lat": -8.3604757,
      "lng": 114.8686169
    },
    {
      "suburb": {
        "id": 1,
        "name": "Pekutatan",
        "lat": -8.4101762,
        "lng": 114.8804853
      },
      "city": {
        "id": 1,
        "name": "Jembrana",
        "lat": -8.3233438,
        "lng": 114.6667939
      },
      "province": {
        "id": 1,
        "name": "Bali",
        "lat": -8.4095178,
        "lng": 115.188916
      },
      "country": {
        "id": 228,
        "name": "INDONESIA",
        "code": "ID"
      },
      "id": 2,
      "name": "Pekutatan",
      "postcode": "82262",
      "lat": -8.4180143,
      "lng": 114.8389443
    },
    {
      "suburb": {
        "id": 1,
        "name": "Pekutatan",
        "lat": -8.4101762,
        "lng": 114.8804853
      },
      "city": {
        "id": 1,
        "name": "Jembrana",
        "lat": -8.3233438,
        "lng": 114.6667939
      },
      "province": {
        "id": 1,
        "name": "Bali",
        "lat": -8.4095178,
        "lng": 115.188916
      },
      "country": {
        "id": 228,
        "name": "INDONESIA",
        "code": "ID"
      },
      "id": 3,
      "name": "Pengeragoan (Pengragoan)",
      "postcode": "82262",
      "lat": -8.4435428,
      "lng": 114.9101544
    },
    {
      "suburb": {
        "id": 1,
        "name": "Pekutatan",
        "lat": -8.4101762,
        "lng": 114.8804853
      },
      "city": {
        "id": 1,
        "name": "Jembrana",
        "lat": -8.3233438,
        "lng": 114.6667939
      },
      "province": {
        "id": 1,
        "name": "Bali",
        "lat": -8.4095178,
        "lng": 115.188916
      },
      "country": {
        "id": 228,
        "name": "INDONESIA",
        "code": "ID"
      },
      "id": 4,
      "name": "Medewi",
      "postcode": "82262",
      "lat": -8.3682932,
      "lng": 114.8270745
    },
    {
      "suburb": {
        "id": 1,
        "name": "Pekutatan",
        "lat": -8.4101762,
        "lng": 114.8804853
      },
      "city": {
        "id": 1,
        "name": "Jembrana",
        "lat": -8.3233438,
        "lng": 114.6667939
      },
      "province": {
        "id": 1,
        "name": "Bali",
        "lat": -8.4095178,
        "lng": 115.188916
      },
      "country": {
        "id": 228,
        "name": "INDONESIA",
        "code": "ID"
      },
      "id": 5,
      "name": "Pangyangan",
      "postcode": "82262",
      "lat": -8.4389611,
      "lng": 114.8656498
    },
    {
      "suburb": {
        "id": 1,
        "name": "Pekutatan",
        "lat": -8.4101762,
        "lng": 114.8804853
      },
      "city": {
        "id": 1,
        "name": "Jembrana",
        "lat": -8.3233438,
        "lng": 114.6667939
      },
      "province": {
        "id": 1,
        "name": "Bali",
        "lat": -8.4095178,
        "lng": 115.188916
      },
      "country": {
        "id": 228,
        "name": "INDONESIA",
        "code": "ID"
      },
      "id": 6,
      "name": "Gumbrih",
      "postcode": "82262",
      "lat": -8.4249322,
      "lng": 114.8864193
    },
    {
      "suburb": {
        "id": 1,
        "name": "Pekutatan",
        "lat": -8.4101762,
        "lng": 114.8804853
      },
      "city": {
        "id": 1,
        "name": "Jembrana",
        "lat": -8.3233438,
        "lng": 114.6667939
      },
      "province": {
        "id": 1,
        "name": "Bali",
        "lat": -8.4095178,
        "lng": 115.188916
      },
      "country": {
        "id": 228,
        "name": "INDONESIA",
        "code": "ID"
      },
      "id": 7,
      "name": "Manggissari",
      "postcode": "82262",
      "lat": -8.3837341,
      "lng": 114.8982871
    },
    {
      "suburb": {
        "id": 1,
        "name": "Pekutatan",
        "lat": -8.4101762,
        "lng": 114.8804853
      },
      "city": {
        "id": 1,
        "name": "Jembrana",
        "lat": -8.3233438,
        "lng": 114.6667939
      },
      "province": {
        "id": 1,
        "name": "Bali",
        "lat": -8.4095178,
        "lng": 115.188916
      },
      "country": {
        "id": 228,
        "name": "INDONESIA",
        "code": "ID"
      },
      "id": 8,
      "name": "Asahduren",
      "postcode": "82262",
      "lat": -8.4063188,
      "lng": 114.8626826
    },
    {
      "suburb": {
        "id": 2,
        "name": "Mendoyo",
        "lat": -8.317084,
        "lng": 114.7617836
      },
      "city": {
        "id": 1,
        "name": "Jembrana",
        "lat": -8.3233438,
        "lng": 114.6667939
      },
      "province": {
        "id": 1,
        "name": "Bali",
        "lat": -8.4095178,
        "lng": 115.188916
      },
      "country": {
        "id": 228,
        "name": "INDONESIA",
        "code": "ID"
      },
      "id": 9,
      "name": "Yeh Embang Kauh",
      "postcode": "82261",
      "lat": -8.2875824,
      "lng": 114.7499112
    },
    {
      "suburb": {
        "id": 2,
        "name": "Mendoyo",
        "lat": -8.317084,
        "lng": 114.7617836
      },
      "city": {
        "id": 1,
        "name": "Jembrana",
        "lat": -8.3233438,
        "lng": 114.6667939
      },
      "province": {
        "id": 1,
        "name": "Bali",
        "lat": -8.4095178,
        "lng": 115.188916
      },
      "country": {
        "id": 228,
        "name": "INDONESIA",
        "code": "ID"
      },
      "id": 10,
      "name": "Yeh Sumbul",
      "postcode": "82261",
      "lat": -8.3722018,
      "lng": 114.8063014
    },
    {
      "suburb": {
        "id": 2,
        "name": "Mendoyo",
        "lat": -8.317084,
        "lng": 114.7617836
      },
      "city": {
        "id": 1,
        "name": "Jembrana",
        "lat": -8.3233438,
        "lng": 114.6667939
      },
      "province": {
        "id": 1,
        "name": "Bali",
        "lat": -8.4095178,
        "lng": 115.188916
      },
      "country": {
        "id": 228,
        "name": "INDONESIA",
        "code": "ID"
      },
      "id": 11,
      "name": "Yeh Embang Kangin",
      "postcode": "82261",
      "lat": -8.3395764,
      "lng": 114.8033337
    },
    {
      "suburb": {
        "id": 2,
        "name": "Mendoyo",
        "lat": -8.317084,
        "lng": 114.7617836
      },
      "city": {
        "id": 1,
        "name": "Jembrana",
        "lat": -8.3233438,
        "lng": 114.6667939
      },
      "province": {
        "id": 1,
        "name": "Bali",
        "lat": -8.4095178,
        "lng": 115.188916
      },
      "country": {
        "id": 228,
        "name": "INDONESIA",
        "code": "ID"
      },
      "id": 12,
      "name": "Yeh Embang",
      "postcode": "82261",
      "lat": -8.3310522,
      "lng": 114.7795914
    },
    {
      "suburb": {
        "id": 2,
        "name": "Mendoyo",
        "lat": -8.317084,
        "lng": 114.7617836
      },
      "city": {
        "id": 1,
        "name": "Jembrana",
        "lat": -8.3233438,
        "lng": 114.6667939
      },
      "province": {
        "id": 1,
        "name": "Bali",
        "lat": -8.4095178,
        "lng": 115.188916
      },
      "country": {
        "id": 228,
        "name": "INDONESIA",
        "code": "ID"
      },
      "id": 13,
      "name": "Tegal Cangkring",
      "postcode": "82261",
      "lat": -8.3769709,
      "lng": 114.6964808
    },
    {
      "suburb": {
        "id": 2,
        "name": "Mendoyo",
        "lat": -8.317084,
        "lng": 114.7617836
      },
      "city": {
        "id": 1,
        "name": "Jembrana",
        "lat": -8.3233438,
        "lng": 114.6667939
      },
      "province": {
        "id": 1,
        "name": "Bali",
        "lat": -8.4095178,
        "lng": 115.188916
      },
      "country": {
        "id": 228,
        "name": "INDONESIA",
        "code": "ID"
      },
      "id": 14,
      "name": "Pohsanten",
      "postcode": "82261",
      "lat": -8.3194508,
      "lng": 114.687575
    },
    {
      "suburb": {
        "id": 2,
        "name": "Mendoyo",
        "lat": -8.317084,
        "lng": 114.7617836
      },
      "city": {
        "id": 1,
        "name": "Jembrana",
        "lat": -8.3233438,
        "lng": 114.6667939
      },
      "province": {
        "id": 1,
        "name": "Bali",
        "lat": -8.4095178,
        "lng": 115.188916
      },
      "country": {
        "id": 228,
        "name": "INDONESIA",
        "code": "ID"
      },
      "id": 15,
      "name": "Pergung",
      "postcode": "82261",
      "lat": -8.3132281,
      "lng": 114.7053865
    },
    {
      "suburb": {
        "id": 2,
        "name": "Mendoyo",
        "lat": -8.317084,
        "lng": 114.7617836
      },
      "city": {
        "id": 1,
        "name": "Jembrana",
        "lat": -8.3233438,
        "lng": 114.6667939
      },
      "province": {
        "id": 1,
        "name": "Bali",
        "lat": -8.4095178,
        "lng": 115.188916
      },
      "country": {
        "id": 228,
        "name": "INDONESIA",
        "code": "ID"
      },
      "id": 16,
      "name": "Penyaringan",
      "postcode": "82261",
      "lat": -8.324092,
      "lng": 114.732102
    },
    {
      "suburb": {
        "id": 2,
        "name": "Mendoyo",
        "lat": -8.317084,
        "lng": 114.7617836
      },
      "city": {
        "id": 1,
        "name": "Jembrana",
        "lat": -8.3233438,
        "lng": 114.6667939
      },
      "province": {
        "id": 1,
        "name": "Bali",
        "lat": -8.4095178,
        "lng": 115.188916
      },
      "country": {
        "id": 228,
        "name": "INDONESIA",
        "code": "ID"
      },
      "id": 17,
      "name": "Mendoyo Dangin Tukad",
      "postcode": "82261",
      "lat": -8.3816621,
      "lng": 114.6638251
    },
    {
      "suburb": {
        "id": 2,
        "name": "Mendoyo",
        "lat": -8.317084,
        "lng": 114.7617836
      },
      "city": {
        "id": 1,
        "name": "Jembrana",
        "lat": -8.3233438,
        "lng": 114.6667939
      },
      "province": {
        "id": 1,
        "name": "Bali",
        "lat": -8.4095178,
        "lng": 115.188916
      },
      "country": {
        "id": 228,
        "name": "INDONESIA",
        "code": "ID"
      },
      "id": 18,
      "name": "Mendoyo Dauh Tukad",
      "postcode": "82261",
      "lat": -8.3408321,
      "lng": 114.6697627
    },
    {
      "suburb": {
        "id": 2,
        "name": "Mendoyo",
        "lat": -8.317084,
        "lng": 114.7617836
      },
      "city": {
        "id": 1,
        "name": "Jembrana",
        "lat": -8.3233438,
        "lng": 114.6667939
      },
      "province": {
        "id": 1,
        "name": "Bali",
        "lat": -8.4095178,
        "lng": 115.188916
      },
      "country": {
        "id": 228,
        "name": "INDONESIA",
        "code": "ID"
      },
      "id": 19,
      "name": "Delod Berawah",
      "postcode": "82261",
      "lat": -8.3960449,
      "lng": 114.6757002
    },
    {
      "suburb": {
        "id": 3,
        "name": "Melaya",
        "lat": -8.2300842,
        "lng": 114.5480227
      },
      "city": {
        "id": 1,
        "name": "Jembrana",
        "lat": -8.3233438,
        "lng": 114.6667939
      },
      "province": {
        "id": 1,
        "name": "Bali",
        "lat": -8.4095178,
        "lng": 115.188916
      },
      "country": {
        "id": 228,
        "name": "INDONESIA",
        "code": "ID"
      },
      "id": 20,
      "name": "Warnasari",
      "postcode": "82252",
      "lat": -8.2339792,
      "lng": 114.5658407
    },
    {
      "suburb": {
        "id": 3,
        "name": "Melaya",
        "lat": -8.2300842,
        "lng": 114.5480227
      },
      "city": {
        "id": 1,
        "name": "Jembrana",
        "lat": -8.3233438,
        "lng": 114.6667939
      },
      "province": {
        "id": 1,
        "name": "Bali",
        "lat": -8.4095178,
        "lng": 115.188916
      },
      "country": {
        "id": 228,
        "name": "INDONESIA",
        "code": "ID"
      },
      "id": 21,
      "name": "Tuwed",
      "postcode": "82252",
      "lat": -8.3194693,
      "lng": 114.5331737
    },
    {
      "suburb": {
        "id": 3,
        "name": "Melaya",
        "lat": -8.2300842,
        "lng": 114.5480227
      },
      "city": {
        "id": 1,
        "name": "Jembrana",
        "lat": -8.3233438,
        "lng": 114.6667939
      },
      "province": {
        "id": 1,
        "name": "Bali",
        "lat": -8.4095178,
        "lng": 115.188916
      },
      "country": {
        "id": 228,
        "name": "INDONESIA",
        "code": "ID"
      },
      "id": 22,
      "name": "Nusa Sari",
      "postcode": "82252",
      "lat": -8.277471,
      "lng": 114.5183241
    },
    {
      "suburb": {
        "id": 3,
        "name": "Melaya",
        "lat": -8.2300842,
        "lng": 114.5480227
      },
      "city": {
        "id": 1,
        "name": "Jembrana",
        "lat": -8.3233438,
        "lng": 114.6667939
      },
      "province": {
        "id": 1,
        "name": "Bali",
        "lat": -8.4095178,
        "lng": 115.188916
      },
      "country": {
        "id": 228,
        "name": "INDONESIA",
        "code": "ID"
      },
      "id": 23,
      "name": "Tukadaya",
      "postcode": "82252",
      "lat": -8.2635054,
      "lng": 114.577719
    },
    {
      "suburb": {
        "id": 3,
        "name": "Melaya",
        "lat": -8.2300842,
        "lng": 114.5480227
      },
      "city": {
        "id": 1,
        "name": "Jembrana",
        "lat": -8.3233438,
        "lng": 114.6667939
      },
      "province": {
        "id": 1,
        "name": "Bali",
        "lat": -8.4095178,
        "lng": 115.188916
      },
      "country": {
        "id": 228,
        "name": "INDONESIA",
        "code": "ID"
      },
      "id": 24,
      "name": "Melaya",
      "postcode": "82252",
      "lat": -8.2486946,
      "lng": 114.4945636
    },
    {
      "suburb": {
        "id": 3,
        "name": "Melaya",
        "lat": -8.2300842,
        "lng": 114.5480227
      },
      "city": {
        "id": 1,
        "name": "Jembrana",
        "lat": -8.3233438,
        "lng": 114.6667939
      },
      "province": {
        "id": 1,
        "name": "Bali",
        "lat": -8.4095178,
        "lng": 115.188916
      },
      "country": {
        "id": 228,
        "name": "INDONESIA",
        "code": "ID"
      },
      "id": 25,
      "name": "Manistutu",
      "postcode": "82252",
      "lat": -8.2829355,
      "lng": 114.5895968
    },
    {
      "suburb": {
        "id": 3,
        "name": "Melaya",
        "lat": -8.2300842,
        "lng": 114.5480227
      },
      "city": {
        "id": 1,
        "name": "Jembrana",
        "lat": -8.3233438,
        "lng": 114.6667939
      },
      "province": {
        "id": 1,
        "name": "Bali",
        "lat": -8.4095178,
        "lng": 115.188916
      },
      "country": {
        "id": 228,
        "name": "INDONESIA",
        "code": "ID"
      },
      "id": 26,
      "name": "Gilimanuk",
      "postcode": "82252",
      "lat": -8.2105827,
      "lng": 114.4589201
    },
    {
      "suburb": {
        "id": 3,
        "name": "Melaya",
        "lat": -8.2300842,
        "lng": 114.5480227
      },
      "city": {
        "id": 1,
        "name": "Jembrana",
        "lat": -8.3233438,
        "lng": 114.6667939
      },
      "province": {
        "id": 1,
        "name": "Bali",
        "lat": -8.4095178,
        "lng": 115.188916
      },
      "country": {
        "id": 228,
        "name": "INDONESIA",
        "code": "ID"
      },
      "id": 27,
      "name": "Ekasari",
      "postcode": "82252",
      "lat": -8.2145553,
      "lng": 114.5539621
    },
    {
      "suburb": {
        "id": 3,
        "name": "Melaya",
        "lat": -8.2300842,
        "lng": 114.5480227
      },
      "city": {
        "id": 1,
        "name": "Jembrana",
        "lat": -8.3233438,
        "lng": 114.6667939
      },
      "province": {
        "id": 1,
        "name": "Bali",
        "lat": -8.4095178,
        "lng": 115.188916
      },
      "country": {
        "id": 228,
        "name": "INDONESIA",
        "code": "ID"
      },
      "id": 28,
      "name": "Blimbingsari (Belimbingsari)",
      "postcode": "82252",
      "lat": -8.2222888,
      "lng": 114.5123841
    },
    {
      "suburb": {
        "id": 3,
        "name": "Melaya",
        "lat": -8.2300842,
        "lng": 114.5480227
      },
      "city": {
        "id": 1,
        "name": "Jembrana",
        "lat": -8.3233438,
        "lng": 114.6667939
      },
      "province": {
        "id": 1,
        "name": "Bali",
        "lat": -8.4095178,
        "lng": 115.188916
      },
      "country": {
        "id": 228,
        "name": "INDONESIA",
        "code": "ID"
      },
      "id": 29,
      "name": "Candikusuma",
      "postcode": "82252",
      "lat": -8.2945803,
      "lng": 114.5272339
    },
    {
      "suburb": {
        "id": 4,
        "name": "Jembrana",
        "lat": -8.360949,
        "lng": 114.6293476
      },
      "city": {
        "id": 1,
        "name": "Jembrana",
        "lat": -8.3233438,
        "lng": 114.6667939
      },
      "province": {
        "id": 1,
        "name": "Bali",
        "lat": -8.4095178,
        "lng": 115.188916
      },
      "country": {
        "id": 228,
        "name": "INDONESIA",
        "code": "ID"
      },
      "id": 30,
      "name": "Yeh Kuning",
      "postcode": "82218",
      "lat": -8.3972266,
      "lng": 114.6578874
    },
    {
      "suburb": {
        "id": 5,
        "name": "Negara",
        "lat": -8.3482464,
        "lng": 114.5955356
      },
      "city": {
        "id": 1,
        "name": "Jembrana",
        "lat": -8.3233438,
        "lng": 114.6667939
      },
      "province": {
        "id": 1,
        "name": "Bali",
        "lat": -8.4095178,
        "lng": 115.188916
      },
      "country": {
        "id": 228,
        "name": "INDONESIA",
        "code": "ID"
      },
      "id": 31,
      "name": "Tegal Badeng Timur",
      "postcode": "82218",
      "lat": -8.3708072,
      "lng": 114.598505
    },
    {
      "suburb": {
        "id": 5,
        "name": "Negara",
        "lat": -8.3482464,
        "lng": 114.5955356
      },
      "city": {
        "id": 1,
        "name": "Jembrana",
        "lat": -8.3233438,
        "lng": 114.6667939
      },
      "province": {
        "id": 1,
        "name": "Bali",
        "lat": -8.4095178,
        "lng": 115.188916
      },
      "country": {
        "id": 228,
        "name": "INDONESIA",
        "code": "ID"
      },
      "id": 32,
      "name": "Tegal Badeng Barat",
      "postcode": "82218",
      "lat": -8.3770402,
      "lng": 114.5806885
    },
    {
      "suburb": {
        "id": 5,
        "name": "Negara",
        "lat": -8.3482464,
        "lng": 114.5955356
      },
      "city": {
        "id": 1,
        "name": "Jembrana",
        "lat": -8.3233438,
        "lng": 114.6667939
      },
      "province": {
        "id": 1,
        "name": "Bali",
        "lat": -8.4095178,
        "lng": 115.188916
      },
      "country": {
        "id": 228,
        "name": "INDONESIA",
        "code": "ID"
      },
      "id": 33,
      "name": "Pengambengan",
      "postcode": "82218",
      "lat": -8.3961006,
      "lng": 114.598505
    },
    {
      "suburb": {
        "id": 4,
        "name": "Jembrana",
        "lat": -8.360949,
        "lng": 114.6293476
      },
      "city": {
        "id": 1,
        "name": "Jembrana",
        "lat": -8.3233438,
        "lng": 114.6667939
      },
      "province": {
        "id": 1,
        "name": "Bali",
        "lat": -8.4095178,
        "lng": 115.188916
      },
      "country": {
        "id": 228,
        "name": "INDONESIA",
        "code": "ID"
      },
      "id": 34,
      "name": "Perancak",
      "postcode": "82218",
      "lat": -8.3995879,
      "lng": 114.6222591
    },
    {
      "suburb": {
        "id": 4,
        "name": "Jembrana",
        "lat": -8.360949,
        "lng": 114.6293476
      },
      "city": {
        "id": 1,
        "name": "Jembrana",
        "lat": -8.3233438,
        "lng": 114.6667939
      },
      "province": {
        "id": 1,
        "name": "Bali",
        "lat": -8.4095178,
        "lng": 115.188916
      },
      "country": {
        "id": 228,
        "name": "INDONESIA",
        "code": "ID"
      },
      "id": 35,
      "name": "Sangkaragung",
      "postcode": "82218",
      "lat": -8.3828413,
      "lng": 114.6460117
    },
    {
      "suburb": {
        "id": 5,
        "name": "Negara",
        "lat": -8.3482464,
        "lng": 114.5955356
      },
      "city": {
        "id": 1,
        "name": "Jembrana",
        "lat": -8.3233438,
        "lng": 114.6667939
      },
      "province": {
        "id": 1,
        "name": "Bali",
        "lat": -8.4095178,
        "lng": 115.188916
      },
      "country": {
        "id": 228,
        "name": "INDONESIA",
        "code": "ID"
      },
      "id": 36,
      "name": "Kaliakah",
      "postcode": "82218",
      "lat": -8.3334694,
      "lng": 114.5895968
    },
    {
      "suburb": {
        "id": 4,
        "name": "Jembrana",
        "lat": -8.360949,
        "lng": 114.6293476
      },
      "city": {
        "id": 1,
        "name": "Jembrana",
        "lat": -8.3233438,
        "lng": 114.6667939
      },
      "province": {
        "id": 1,
        "name": "Bali",
        "lat": -8.4095178,
        "lng": 115.188916
      },
      "country": {
        "id": 228,
        "name": "INDONESIA",
        "code": "ID"
      },
      "id": 37,
      "name": "Dauhwaru",
      "postcode": "82218",
      "lat": -8.2681836,
      "lng": 114.6608562
    },
    {
      "suburb": {
        "id": 5,
        "name": "Negara",
        "lat": -8.3482464,
        "lng": 114.5955356
      },
      "city": {
        "id": 1,
        "name": "Jembrana",
        "lat": -8.3233438,
        "lng": 114.6667939
      },
      "province": {
        "id": 1,
        "name": "Bali",
        "lat": -8.4095178,
        "lng": 115.188916
      },
      "country": {
        "id": 228,
        "name": "INDONESIA",
        "code": "ID"
      },
      "id": 38,
      "name": "Cupel",
      "postcode": "82218",
      "lat": -8.3667339,
      "lng": 114.5643559
    },
    {
      "suburb": {
        "id": 4,
        "name": "Jembrana",
        "lat": -8.360949,
        "lng": 114.6293476
      },
      "city": {
        "id": 1,
        "name": "Jembrana",
        "lat": -8.3233438,
        "lng": 114.6667939
      },
      "province": {
        "id": 1,
        "name": "Bali",
        "lat": -8.4095178,
        "lng": 115.188916
      },
      "country": {
        "id": 228,
        "name": "INDONESIA",
        "code": "ID"
      },
      "id": 39,
      "name": "Budeng",
      "postcode": "82218",
      "lat": -8.3785697,
      "lng": 114.6341356
    },
    {
      "suburb": {
        "id": 4,
        "name": "Jembrana",
        "lat": -8.360949,
        "lng": 114.6293476
      },
      "city": {
        "id": 1,
        "name": "Jembrana",
        "lat": -8.3233438,
        "lng": 114.6667939
      },
      "province": {
        "id": 1,
        "name": "Bali",
        "lat": -8.4095178,
        "lng": 115.188916
      },
      "country": {
        "id": 228,
        "name": "INDONESIA",
        "code": "ID"
      },
      "id": 40,
      "name": "Dangin Tukadaya",
      "postcode": "82218",
      "lat": -8.361832,
      "lng": 114.6578874
    },
    {
      "suburb": {
        "id": 5,
        "name": "Negara",
        "lat": -8.3482464,
        "lng": 114.5955356
      },
      "city": {
        "id": 1,
        "name": "Jembrana",
        "lat": -8.3233438,
        "lng": 114.6667939
      },
      "province": {
        "id": 1,
        "name": "Bali",
        "lat": -8.4095178,
        "lng": 115.188916
      },
      "country": {
        "id": 228,
        "name": "INDONESIA",
        "code": "ID"
      },
      "id": 41,
      "name": "Banyubiru",
      "postcode": "82218",
      "lat": -8.3431969,
      "lng": 114.5569318
    },
    {
      "suburb": {
        "id": 5,
        "name": "Negara",
        "lat": -8.3482464,
        "lng": 114.5955356
      },
      "city": {
        "id": 1,
        "name": "Jembrana",
        "lat": -8.3233438,
        "lng": 114.6667939
      },
      "province": {
        "id": 1,
        "name": "Bali",
        "lat": -8.4095178,
        "lng": 115.188916
      },
      "country": {
        "id": 228,
        "name": "INDONESIA",
        "code": "ID"
      },
      "id": 42,
      "name": "Berangbang",
      "postcode": "82218",
      "lat": -8.291487,
      "lng": 114.6133515
    },
    {
      "suburb": {
        "id": 4,
        "name": "Jembrana",
        "lat": -8.360949,
        "lng": 114.6293476
      },
      "city": {
        "id": 1,
        "name": "Jembrana",
        "lat": -8.3233438,
        "lng": 114.6667939
      },
      "province": {
        "id": 1,
        "name": "Bali",
        "lat": -8.4095178,
        "lng": 115.188916
      },
      "country": {
        "id": 228,
        "name": "INDONESIA",
        "code": "ID"
      },
      "id": 43,
      "name": "Batuagung",
      "postcode": "82218",
      "lat": -8.3186824,
      "lng": 114.6608562
    },
    {
      "suburb": {
        "id": 5,
        "name": "Negara",
        "lat": -8.3482464,
        "lng": 114.5955356
      },
      "city": {
        "id": 1,
        "name": "Jembrana",
        "lat": -8.3233438,
        "lng": 114.6667939
      },
      "province": {
        "id": 1,
        "name": "Bali",
        "lat": -8.4095178,
        "lng": 115.188916
      },
      "country": {
        "id": 228,
        "name": "INDONESIA",
        "code": "ID"
      },
      "id": 44,
      "name": "Baluk",
      "postcode": "82218",
      "lat": -8.3568079,
      "lng": 114.5806885
    },
    {
      "suburb": {
        "id": 4,
        "name": "Jembrana",
        "lat": -8.360949,
        "lng": 114.6293476
      },
      "city": {
        "id": 1,
        "name": "Jembrana",
        "lat": -8.3233438,
        "lng": 114.6667939
      },
      "province": {
        "id": 1,
        "name": "Bali",
        "lat": -8.4095178,
        "lng": 115.188916
      },
      "country": {
        "id": 228,
        "name": "INDONESIA",
        "code": "ID"
      },
      "id": 45,
      "name": "Air Kuning",
      "postcode": "82218",
      "lat": -8.3980141,
      "lng": 114.6460117
    },
    {
      "suburb": {
        "id": 5,
        "name": "Negara",
        "lat": -8.3482464,
        "lng": 114.5955356
      },
      "city": {
        "id": 1,
        "name": "Jembrana",
        "lat": -8.3233438,
        "lng": 114.6667939
      },
      "province": {
        "id": 1,
        "name": "Bali",
        "lat": -8.4095178,
        "lng": 115.188916
      },
      "country": {
        "id": 228,
        "name": "INDONESIA",
        "code": "ID"
      },
      "id": 46,
      "name": "Loloan Barat",
      "postcode": "82215",
      "lat": -8.3661287,
      "lng": 114.6215168
    },
    {
      "suburb": {
        "id": 4,
        "name": "Jembrana",
        "lat": -8.360949,
        "lng": 114.6293476
      },
      "city": {
        "id": 1,
        "name": "Jembrana",
        "lat": -8.3233438,
        "lng": 114.6667939
      },
      "province": {
        "id": 1,
        "name": "Bali",
        "lat": -8.4095178,
        "lng": 115.188916
      },
      "country": {
        "id": 228,
        "name": "INDONESIA",
        "code": "ID"
      },
      "id": 47,
      "name": "Loloan Timur",
      "postcode": "82216",
      "lat": -8.3729349,
      "lng": 114.6237437
    },
    {
      "suburb": {
        "id": 5,
        "name": "Negara",
        "lat": -8.3482464,
        "lng": 114.5955356
      },
      "city": {
        "id": 1,
        "name": "Jembrana",
        "lat": -8.3233438,
        "lng": 114.6667939
      },
      "province": {
        "id": 1,
        "name": "Bali",
        "lat": -8.4095178,
        "lng": 115.188916
      },
      "country": {
        "id": 228,
        "name": "INDONESIA",
        "code": "ID"
      },
      "id": 48,
      "name": "Banjar Tengah",
      "postcode": "82213",
      "lat": -8.3585481,
      "lng": 114.6118669
    },
    {
      "suburb": {
        "id": 5,
        "name": "Negara",
        "lat": -8.3482464,
        "lng": 114.5955356
      },
      "city": {
        "id": 1,
        "name": "Jembrana",
        "lat": -8.3233438,
        "lng": 114.6667939
      },
      "province": {
        "id": 1,
        "name": "Bali",
        "lat": -8.4095178,
        "lng": 115.188916
      },
      "country": {
        "id": 228,
        "name": "INDONESIA",
        "code": "ID"
      },
      "id": 49,
      "name": "Lelateng",
      "postcode": "82214",
      "lat": -8.3787766,
      "lng": 114.6118669
    },
    {
      "suburb": {
        "id": 5,
        "name": "Negara",
        "lat": -8.3482464,
        "lng": 114.5955356
      },
      "city": {
        "id": 1,
        "name": "Jembrana",
        "lat": -8.3233438,
        "lng": 114.6667939
      },
      "province": {
        "id": 1,
        "name": "Bali",
        "lat": -8.4095178,
        "lng": 115.188916
      },
      "country": {
        "id": 228,
        "name": "INDONESIA",
        "code": "ID"
      },
      "id": 50,
      "name": "Baler Bale Agung",
      "postcode": "82212",
      "lat": -8.2879909,
      "lng": 114.6281974
    },
    {
      "suburb": {
        "id": 4,
        "name": "Jembrana",
        "lat": -8.360949,
        "lng": 114.6293476
      },
      "city": {
        "id": 1,
        "name": "Jembrana",
        "lat": -8.3233438,
        "lng": 114.6667939
      },
      "province": {
        "id": 1,
        "name": "Bali",
        "lat": -8.4095178,
        "lng": 115.188916
      },
      "country": {
        "id": 228,
        "name": "INDONESIA",
        "code": "ID"
      },
      "id": 51,
      "name": "Pendem",
      "postcode": "82211",
      "lat": -8.2922644,
      "lng": 114.6400737
    },
    {
      "suburb": {
        "id": 6,
        "name": "Baturiti",
        "lat": -8.3397885,
        "lng": 115.1770586
      },
      "city": {
        "id": 2,
        "name": "Tabanan",
        "lat": -8.4595561,
        "lng": 115.0465991
      },
      "province": {
        "id": 1,
        "name": "Bali",
        "lat": -8.4095178,
        "lng": 115.188916
      },
      "country": {
        "id": 228,
        "name": "INDONESIA",
        "code": "ID"
      },
      "id": 52,
      "name": "Perean Tengah",
      "postcode": "82191",
      "lat": -8.4366386,
      "lng": 115.1978087
    },
    {
      "suburb": {
        "id": 6,
        "name": "Baturiti",
        "lat": -8.3397885,
        "lng": 115.1770586
      },
      "city": {
        "id": 2,
        "name": "Tabanan",
        "lat": -8.4595561,
        "lng": 115.0465991
      },
      "province": {
        "id": 1,
        "name": "Bali",
        "lat": -8.4095178,
        "lng": 115.188916
      },
      "country": {
        "id": 228,
        "name": "INDONESIA",
        "code": "ID"
      },
      "id": 53,
      "name": "Perean",
      "postcode": "82191",
      "lat": -8.4269594,
      "lng": 115.1918802
    },
    {
      "suburb": {
        "id": 6,
        "name": "Baturiti",
        "lat": -8.3397885,
        "lng": 115.1770586
      },
      "city": {
        "id": 2,
        "name": "Tabanan",
        "lat": -8.4595561,
        "lng": 115.0465991
      },
      "province": {
        "id": 1,
        "name": "Bali",
        "lat": -8.4095178,
        "lng": 115.188916
      },
      "country": {
        "id": 228,
        "name": "INDONESIA",
        "code": "ID"
      },
      "id": 54,
      "name": "Perean Kangin",
      "postcode": "82191",
      "lat": -8.4307873,
      "lng": 115.2096652
    },
    {
      "suburb": {
        "id": 6,
        "name": "Baturiti",
        "lat": -8.3397885,
        "lng": 115.1770586
      },
      "city": {
        "id": 2,
        "name": "Tabanan",
        "lat": -8.4595561,
        "lng": 115.0465991
      },
      "province": {
        "id": 1,
        "name": "Bali",
        "lat": -8.4095178,
        "lng": 115.188916
      },
      "country": {
        "id": 228,
        "name": "INDONESIA",
        "code": "ID"
      },
      "id": 55,
      "name": "Luwus",
      "postcode": "82191",
      "lat": -8.3963135,
      "lng": 115.1978087
    },
    {
      "suburb": {
        "id": 6,
        "name": "Baturiti",
        "lat": -8.3397885,
        "lng": 115.1770586
      },
      "city": {
        "id": 2,
        "name": "Tabanan",
        "lat": -8.4595561,
        "lng": 115.0465991
      },
      "province": {
        "id": 1,
        "name": "Bali",
        "lat": -8.4095178,
        "lng": 115.188916
      },
      "country": {
        "id": 228,
        "name": "INDONESIA",
        "code": "ID"
      },
      "id": 56,
      "name": "Mekarsari",
      "postcode": "82191",
      "lat": -8.3765619,
      "lng": 115.1918802
    },
    {
      "suburb": {
        "id": 6,
        "name": "Baturiti",
        "lat": -8.3397885,
        "lng": 115.1770586
      },
      "city": {
        "id": 2,
        "name": "Tabanan",
        "lat": -8.4595561,
        "lng": 115.0465991
      },
      "province": {
        "id": 1,
        "name": "Bali",
        "lat": -8.4095178,
        "lng": 115.188916
      },
      "country": {
        "id": 228,
        "name": "INDONESIA",
        "code": "ID"
      },
      "id": 57,
      "name": "Baturiti",
      "postcode": "82191",
      "lat": -8.3366709,
      "lng": 115.1859517
    },
    {
      "suburb": {
        "id": 6,
        "name": "Baturiti",
        "lat": -8.3397885,
        "lng": 115.1770586
      },
      "city": {
        "id": 2,
        "name": "Tabanan",
        "lat": -8.4595561,
        "lng": 115.0465991
      },
      "province": {
        "id": 1,
        "name": "Bali",
        "lat": -8.4095178,
        "lng": 115.188916
      },
      "country": {
        "id": 228,
        "name": "INDONESIA",
        "code": "ID"
      },
      "id": 58,
      "name": "Candikuning",
      "postcode": "82191",
      "lat": -8.275547,
      "lng": 115.1592718
    },
    {
      "suburb": {
        "id": 6,
        "name": "Baturiti",
        "lat": -8.3397885,
        "lng": 115.1770586
      },
      "city": {
        "id": 2,
        "name": "Tabanan",
        "lat": -8.4595561,
        "lng": 115.0465991
      },
      "province": {
        "id": 1,
        "name": "Bali",
        "lat": -8.4095178,
        "lng": 115.188916
      },
      "country": {
        "id": 228,
        "name": "INDONESIA",
        "code": "ID"
      },
      "id": 59,
      "name": "Bangli",
      "postcode": "82191",
      "lat": -8.3437061,
      "lng": 115.1563072
    },
    {
      "suburb": {
        "id": 6,
        "name": "Baturiti",
        "lat": -8.3397885,
        "lng": 115.1770586
      },
      "city": {
        "id": 2,
        "name": "Tabanan",
        "lat": -8.4595561,
        "lng": 115.0465991
      },
      "province": {
        "id": 1,
        "name": "Bali",
        "lat": -8.4095178,
        "lng": 115.188916
      },
      "country": {
        "id": 228,
        "name": "INDONESIA",
        "code": "ID"
      },
      "id": 60,
      "name": "Batunya",
      "postcode": "82191",
      "lat": -8.2967999,
      "lng": 115.180023
    },
    {
      "suburb": {
        "id": 6,
        "name": "Baturiti",
        "lat": -8.3397885,
        "lng": 115.1770586
      },
      "city": {
        "id": 2,
        "name": "Tabanan",
        "lat": -8.4595561,
        "lng": 115.0465991
      },
      "province": {
        "id": 1,
        "name": "Bali",
        "lat": -8.4095178,
        "lng": 115.188916
      },
      "country": {
        "id": 228,
        "name": "INDONESIA",
        "code": "ID"
      },
      "id": 61,
      "name": "Antapan",
      "postcode": "82191",
      "lat": -8.3207685,
      "lng": 115.1978087
    },
    {
      "suburb": {
        "id": 6,
        "name": "Baturiti",
        "lat": -8.3397885,
        "lng": 115.1770586
      },
      "city": {
        "id": 2,
        "name": "Tabanan",
        "lat": -8.4595561,
        "lng": 115.0465991
      },
      "province": {
        "id": 1,
        "name": "Bali",
        "lat": -8.4095178,
        "lng": 115.188916
      },
      "country": {
        "id": 228,
        "name": "INDONESIA",
        "code": "ID"
      },
      "id": 62,
      "name": "Apuan",
      "postcode": "82191",
      "lat": -8.3711683,
      "lng": 115.1785408
    },
    {
      "suburb": {
        "id": 6,
        "name": "Baturiti",
        "lat": -8.3397885,
        "lng": 115.1770586
      },
      "city": {
        "id": 2,
        "name": "Tabanan",
        "lat": -8.4595561,
        "lng": 115.0465991
      },
      "province": {
        "id": 1,
        "name": "Bali",
        "lat": -8.4095178,
        "lng": 115.188916
      },
      "country": {
        "id": 228,
        "name": "INDONESIA",
        "code": "ID"
      },
      "id": 63,
      "name": "Angseri",
      "postcode": "82191",
      "lat": -8.3158109,
      "lng": 115.1592718
    },
    {
      "suburb": {
        "id": 7,
        "name": "Marga",
        "lat": -8.4460246,
        "lng": 115.1711298
      },
      "city": {
        "id": 2,
        "name": "Tabanan",
        "lat": -8.4595561,
        "lng": 115.0465991
      },
      "province": {
        "id": 1,
        "name": "Bali",
        "lat": -8.4095178,
        "lng": 115.188916
      },
      "country": {
        "id": 228,
        "name": "INDONESIA",
        "code": "ID"
      },
      "id": 64,
      "name": "Tegaljadi",
      "postcode": "82181",
      "lat": -8.5105269,
      "lng": 115.150378
    },
    {
      "suburb": {
        "id": 7,
        "name": "Marga",
        "lat": -8.4460246,
        "lng": 115.1711298
      },
      "city": {
        "id": 2,
        "name": "Tabanan",
        "lat": -8.4595561,
        "lng": 115.0465991
      },
      "province": {
        "id": 1,
        "name": "Bali",
        "lat": -8.4095178,
        "lng": 115.188916
      },
      "country": {
        "id": 228,
        "name": "INDONESIA",
        "code": "ID"
      },
      "id": 65,
      "name": "Tua",
      "postcode": "82181",
      "lat": -8.402562,
      "lng": 115.180023
    },
    {
      "suburb": {
        "id": 7,
        "name": "Marga",
        "lat": -8.4460246,
        "lng": 115.1711298
      },
      "city": {
        "id": 2,
        "name": "Tabanan",
        "lat": -8.4595561,
        "lng": 115.0465991
      },
      "province": {
        "id": 1,
        "name": "Bali",
        "lat": -8.4095178,
        "lng": 115.188916
      },
      "country": {
        "id": 228,
        "name": "INDONESIA",
        "code": "ID"
      },
      "id": 66,
      "name": "Peken Belayu",
      "postcode": "82181",
      "lat": -8.5205622,
      "lng": 115.1696476
    },
    {
      "suburb": {
        "id": 7,
        "name": "Marga",
        "lat": -8.4460246,
        "lng": 115.1711298
      },
      "city": {
        "id": 2,
        "name": "Tabanan",
        "lat": -8.4595561,
        "lng": 115.0465991
      },
      "province": {
        "id": 1,
        "name": "Bali",
        "lat": -8.4095178,
        "lng": 115.188916
      },
      "country": {
        "id": 228,
        "name": "INDONESIA",
        "code": "ID"
      },
      "id": 67,
      "name": "Petiga",
      "postcode": "82181",
      "lat": -8.4378527,
      "lng": 115.180023
    },
    {
      "suburb": {
        "id": 7,
        "name": "Marga",
        "lat": -8.4460246,
        "lng": 115.1711298
      },
      "city": {
        "id": 2,
        "name": "Tabanan",
        "lat": -8.4595561,
        "lng": 115.0465991
      },
      "province": {
        "id": 1,
        "name": "Bali",
        "lat": -8.4095178,
        "lng": 115.188916
      },
      "country": {
        "id": 228,
        "name": "INDONESIA",
        "code": "ID"
      },
      "id": 68,
      "name": "Selanbawak",
      "postcode": "82181",
      "lat": -8.4875464,
      "lng": 115.172612
    },
    {
      "suburb": {
        "id": 7,
        "name": "Marga",
        "lat": -8.4460246,
        "lng": 115.1711298
      },
      "city": {
        "id": 2,
        "name": "Tabanan",
        "lat": -8.4595561,
        "lng": 115.0465991
      },
      "province": {
        "id": 1,
        "name": "Bali",
        "lat": -8.4095178,
        "lng": 115.188916
      },
      "country": {
        "id": 228,
        "name": "INDONESIA",
        "code": "ID"
      },
      "id": 69,
      "name": "Marga Dauh Puri",
      "postcode": "82181",
      "lat": -8.4708997,
      "lng": 115.1577895
    },
    {
      "suburb": {
        "id": 7,
        "name": "Marga",
        "lat": -8.4460246,
        "lng": 115.1711298
      },
      "city": {
        "id": 2,
        "name": "Tabanan",
        "lat": -8.4595561,
        "lng": 115.0465991
      },
      "province": {
        "id": 1,
        "name": "Bali",
        "lat": -8.4095178,
        "lng": 115.188916
      },
      "country": {
        "id": 228,
        "name": "INDONESIA",
        "code": "ID"
      },
      "id": 70,
      "name": "Payangan",
      "postcode": "82181",
      "lat": -8.4336185,
      "lng": 115.1681653
    },
    {
      "suburb": {
        "id": 7,
        "name": "Marga",
        "lat": -8.4460246,
        "lng": 115.1711298
      },
      "city": {
        "id": 2,
        "name": "Tabanan",
        "lat": -8.4595561,
        "lng": 115.0465991
      },
      "province": {
        "id": 1,
        "name": "Bali",
        "lat": -8.4095178,
        "lng": 115.188916
      },
      "country": {
        "id": 228,
        "name": "INDONESIA",
        "code": "ID"
      },
      "id": 71,
      "name": "Marga",
      "postcode": "82181",
      "lat": -8.4790199,
      "lng": 115.1681653
    },
    {
      "suburb": {
        "id": 7,
        "name": "Marga",
        "lat": -8.4460246,
        "lng": 115.1711298
      },
      "city": {
        "id": 2,
        "name": "Tabanan",
        "lat": -8.4595561,
        "lng": 115.0465991
      },
      "province": {
        "id": 1,
        "name": "Bali",
        "lat": -8.4095178,
        "lng": 115.188916
      },
      "country": {
        "id": 228,
        "name": "INDONESIA",
        "code": "ID"
      },
      "id": 72,
      "name": "Marga Dajan Puri",
      "postcode": "82181",
      "lat": -8.4597949,
      "lng": 115.172612
    },
    {
      "suburb": {
        "id": 7,
        "name": "Marga",
        "lat": -8.4460246,
        "lng": 115.1711298
      },
      "city": {
        "id": 2,
        "name": "Tabanan",
        "lat": -8.4595561,
        "lng": 115.0465991
      },
      "province": {
        "id": 1,
        "name": "Bali",
        "lat": -8.4095178,
        "lng": 115.188916
      },
      "country": {
        "id": 228,
        "name": "INDONESIA",
        "code": "ID"
      },
      "id": 73,
      "name": "Kukuh",
      "postcode": "82181",
      "lat": -8.5202181,
      "lng": 115.1563072
    },
    {
      "suburb": {
        "id": 7,
        "name": "Marga",
        "lat": -8.4460246,
        "lng": 115.1711298
      },
      "city": {
        "id": 2,
        "name": "Tabanan",
        "lat": -8.4595561,
        "lng": 115.0465991
      },
      "province": {
        "id": 1,
        "name": "Bali",
        "lat": -8.4095178,
        "lng": 115.188916
      },
      "country": {
        "id": 228,
        "name": "INDONESIA",
        "code": "ID"
      },
      "id": 74,
      "name": "Kuwum",
      "postcode": "82181",
      "lat": -8.499208,
      "lng": 115.1681653
    },
    {
      "suburb": {
        "id": 7,
        "name": "Marga",
        "lat": -8.4460246,
        "lng": 115.1711298
      },
      "city": {
        "id": 2,
        "name": "Tabanan",
        "lat": -8.4595561,
        "lng": 115.0465991
      },
      "province": {
        "id": 1,
        "name": "Bali",
        "lat": -8.4095178,
        "lng": 115.188916
      },
      "country": {
        "id": 228,
        "name": "INDONESIA",
        "code": "ID"
      },
      "id": 75,
      "name": "Beringkit",
      "postcode": "82181",
      "lat": -8.5287493,
      "lng": 115.1607541
    },
    {
      "suburb": {
        "id": 7,
        "name": "Marga",
        "lat": -8.4460246,
        "lng": 115.1711298
      },
      "city": {
        "id": 2,
        "name": "Tabanan",
        "lat": -8.4595561,
        "lng": 115.0465991
      },
      "province": {
        "id": 1,
        "name": "Bali",
        "lat": -8.4095178,
        "lng": 115.188916
      },
      "country": {
        "id": 228,
        "name": "INDONESIA",
        "code": "ID"
      },
      "id": 76,
      "name": "Caubelayu",
      "postcode": "82181",
      "lat": -8.4564042,
      "lng": 115.203737
    },
    {
      "suburb": {
        "id": 7,
        "name": "Marga",
        "lat": -8.4460246,
        "lng": 115.1711298
      },
      "city": {
        "id": 2,
        "name": "Tabanan",
        "lat": -8.4595561,
        "lng": 115.0465991
      },
      "province": {
        "id": 1,
        "name": "Bali",
        "lat": -8.4095178,
        "lng": 115.188916
      },
      "country": {
        "id": 228,
        "name": "INDONESIA",
        "code": "ID"
      },
      "id": 77,
      "name": "Geluntung",
      "postcode": "82181",
      "lat": -8.4537932,
      "lng": 115.1681653
    },
    {
      "suburb": {
        "id": 7,
        "name": "Marga",
        "lat": -8.4460246,
        "lng": 115.1711298
      },
      "city": {
        "id": 2,
        "name": "Tabanan",
        "lat": -8.4595561,
        "lng": 115.0465991
      },
      "province": {
        "id": 1,
        "name": "Bali",
        "lat": -8.4095178,
        "lng": 115.188916
      },
      "country": {
        "id": 228,
        "name": "INDONESIA",
        "code": "ID"
      },
      "id": 78,
      "name": "Batannyuh",
      "postcode": "82181",
      "lat": -8.5093042,
      "lng": 115.1681653
    },
    {
      "suburb": {
        "id": 8,
        "name": "Pupuan",
        "lat": -8.360244,
        "lng": 115.0228736
      },
      "city": {
        "id": 2,
        "name": "Tabanan",
        "lat": -8.4595561,
        "lng": 115.0465991
      },
      "province": {
        "id": 1,
        "name": "Bali",
        "lat": -8.4095178,
        "lng": 115.188916
      },
      "country": {
        "id": 228,
        "name": "INDONESIA",
        "code": "ID"
      },
      "id": 79,
      "name": "Pujungan",
      "postcode": "82163",
      "lat": -8.3237654,
      "lng": 115.0406679
    },
    {
      "suburb": {
        "id": 8,
        "name": "Pupuan",
        "lat": -8.360244,
        "lng": 115.0228736
      },
      "city": {
        "id": 2,
        "name": "Tabanan",
        "lat": -8.4595561,
        "lng": 115.0465991
      },
      "province": {
        "id": 1,
        "name": "Bali",
        "lat": -8.4095178,
        "lng": 115.188916
      },
      "country": {
        "id": 228,
        "name": "INDONESIA",
        "code": "ID"
      },
      "id": 80,
      "name": "Pupuan",
      "postcode": "82163",
      "lat": -8.3183869,
      "lng": 115.0080443
    },
    {
      "suburb": {
        "id": 8,
        "name": "Pupuan",
        "lat": -8.360244,
        "lng": 115.0228736
      },
      "city": {
        "id": 2,
        "name": "Tabanan",
        "lat": -8.4595561,
        "lng": 115.0465991
      },
      "province": {
        "id": 1,
        "name": "Bali",
        "lat": -8.4095178,
        "lng": 115.188916
      },
      "country": {
        "id": 228,
        "name": "INDONESIA",
        "code": "ID"
      },
      "id": 81,
      "name": "Sanda",
      "postcode": "82163",
      "lat": -8.3532104,
      "lng": 115.0525302
    },
    {
      "suburb": {
        "id": 8,
        "name": "Pupuan",
        "lat": -8.360244,
        "lng": 115.0228736
      },
      "city": {
        "id": 2,
        "name": "Tabanan",
        "lat": -8.4595561,
        "lng": 115.0465991
      },
      "province": {
        "id": 1,
        "name": "Bali",
        "lat": -8.4095178,
        "lng": 115.188916
      },
      "country": {
        "id": 228,
        "name": "INDONESIA",
        "code": "ID"
      },
      "id": 82,
      "name": "Padangan",
      "postcode": "82163",
      "lat": -8.3587181,
      "lng": 115.0080443
    },
    {
      "suburb": {
        "id": 8,
        "name": "Pupuan",
        "lat": -8.360244,
        "lng": 115.0228736
      },
      "city": {
        "id": 2,
        "name": "Tabanan",
        "lat": -8.4595561,
        "lng": 115.0465991
      },
      "province": {
        "id": 1,
        "name": "Bali",
        "lat": -8.4095178,
        "lng": 115.188916
      },
      "country": {
        "id": 228,
        "name": "INDONESIA",
        "code": "ID"
      },
      "id": 83,
      "name": "Pajahan",
      "postcode": "82163",
      "lat": -8.3378142,
      "lng": 114.9813499
    },
    {
      "suburb": {
        "id": 8,
        "name": "Pupuan",
        "lat": -8.360244,
        "lng": 115.0228736
      },
      "city": {
        "id": 2,
        "name": "Tabanan",
        "lat": -8.4595561,
        "lng": 115.0465991
      },
      "province": {
        "id": 1,
        "name": "Bali",
        "lat": -8.4095178,
        "lng": 115.188916
      },
      "country": {
        "id": 228,
        "name": "INDONESIA",
        "code": "ID"
      },
      "id": 84,
      "name": "Kebon Padangan",
      "postcode": "82163",
      "lat": -8.3781642,
      "lng": 114.9813499
    },
    {
      "suburb": {
        "id": 8,
        "name": "Pupuan",
        "lat": -8.360244,
        "lng": 115.0228736
      },
      "city": {
        "id": 2,
        "name": "Tabanan",
        "lat": -8.4595561,
        "lng": 115.0465991
      },
      "province": {
        "id": 1,
        "name": "Bali",
        "lat": -8.4095178,
        "lng": 115.188916
      },
      "country": {
        "id": 228,
        "name": "INDONESIA",
        "code": "ID"
      },
      "id": 85,
      "name": "Munduk Temu",
      "postcode": "82163",
      "lat": -8.3696656,
      "lng": 114.9576197
    },
    {
      "suburb": {
        "id": 8,
        "name": "Pupuan",
        "lat": -8.360244,
        "lng": 115.0228736
      },
      "city": {
        "id": 2,
        "name": "Tabanan",
        "lat": -8.4595561,
        "lng": 115.0465991
      },
      "province": {
        "id": 1,
        "name": "Bali",
        "lat": -8.4095178,
        "lng": 115.188916
      },
      "country": {
        "id": 228,
        "name": "INDONESIA",
        "code": "ID"
      },
      "id": 86,
      "name": "Karya Sari",
      "postcode": "82163",
      "lat": -8.3733772,
      "lng": 115.0525302
    },
    {
      "suburb": {
        "id": 8,
        "name": "Pupuan",
        "lat": -8.360244,
        "lng": 115.0228736
      },
      "city": {
        "id": 2,
        "name": "Tabanan",
        "lat": -8.4595561,
        "lng": 115.0465991
      },
      "province": {
        "id": 1,
        "name": "Bali",
        "lat": -8.4095178,
        "lng": 115.188916
      },
      "country": {
        "id": 228,
        "name": "INDONESIA",
        "code": "ID"
      },
      "id": 87,
      "name": "Belimbing",
      "postcode": "82163",
      "lat": -8.4153332,
      "lng": 115.0288051
    },
    {
      "suburb": {
        "id": 8,
        "name": "Pupuan",
        "lat": -8.360244,
        "lng": 115.0228736
      },
      "city": {
        "id": 2,
        "name": "Tabanan",
        "lat": -8.4595561,
        "lng": 115.0465991
      },
      "province": {
        "id": 1,
        "name": "Bali",
        "lat": -8.4095178,
        "lng": 115.188916
      },
      "country": {
        "id": 228,
        "name": "INDONESIA",
        "code": "ID"
      },
      "id": 88,
      "name": "Jelijih Punggang",
      "postcode": "82163",
      "lat": -8.4095659,
      "lng": 115.0021124
    },
    {
      "suburb": {
        "id": 8,
        "name": "Pupuan",
        "lat": -8.360244,
        "lng": 115.0228736
      },
      "city": {
        "id": 2,
        "name": "Tabanan",
        "lat": -8.4595561,
        "lng": 115.0465991
      },
      "province": {
        "id": 1,
        "name": "Bali",
        "lat": -8.4095178,
        "lng": 115.188916
      },
      "country": {
        "id": 228,
        "name": "INDONESIA",
        "code": "ID"
      },
      "id": 89,
      "name": "Batungsel",
      "postcode": "82163",
      "lat": -8.3412059,
      "lng": 115.0436335
    },
    {
      "suburb": {
        "id": 8,
        "name": "Pupuan",
        "lat": -8.360244,
        "lng": 115.0228736
      },
      "city": {
        "id": 2,
        "name": "Tabanan",
        "lat": -8.4595561,
        "lng": 115.0465991
      },
      "province": {
        "id": 1,
        "name": "Bali",
        "lat": -8.4095178,
        "lng": 115.188916
      },
      "country": {
        "id": 228,
        "name": "INDONESIA",
        "code": "ID"
      },
      "id": 90,
      "name": "Belatungan",
      "postcode": "82163",
      "lat": -8.4038653,
      "lng": 114.9368545
    },
    {
      "suburb": {
        "id": 9,
        "name": "Selemadeg",
        "lat": -8.4549103,
        "lng": 115.0406679
      },
      "city": {
        "id": 2,
        "name": "Tabanan",
        "lat": -8.4595561,
        "lng": 115.0465991
      },
      "province": {
        "id": 1,
        "name": "Bali",
        "lat": -8.4095178,
        "lng": 115.188916
      },
      "country": {
        "id": 228,
        "name": "INDONESIA",
        "code": "ID"
      },
      "id": 91,
      "name": "Wanagiri Kauh",
      "postcode": "82162",
      "lat": -8.4118077,
      "lng": 115.0436335
    },
    {
      "suburb": {
        "id": 8,
        "name": "Pupuan",
        "lat": -8.360244,
        "lng": 115.0228736
      },
      "city": {
        "id": 2,
        "name": "Tabanan",
        "lat": -8.4595561,
        "lng": 115.0465991
      },
      "province": {
        "id": 1,
        "name": "Bali",
        "lat": -8.4095178,
        "lng": 115.188916
      },
      "country": {
        "id": 228,
        "name": "INDONESIA",
        "code": "ID"
      },
      "id": 92,
      "name": "Bantiran",
      "postcode": "82163",
      "lat": -8.3075674,
      "lng": 114.9813499
    },
    {
      "suburb": {
        "id": 9,
        "name": "Selemadeg",
        "lat": -8.4549103,
        "lng": 115.0406679
      },
      "city": {
        "id": 2,
        "name": "Tabanan",
        "lat": -8.4595561,
        "lng": 115.0465991
      },
      "province": {
        "id": 1,
        "name": "Bali",
        "lat": -8.4095178,
        "lng": 115.188916
      },
      "country": {
        "id": 228,
        "name": "INDONESIA",
        "code": "ID"
      },
      "id": 93,
      "name": "Wanagiri",
      "postcode": "82162",
      "lat": -8.412926,
      "lng": 115.0643921
    },
    {
      "suburb": {
        "id": 10,
        "name": "Salemadeg Barat",
        "lat": -8.453483,
        "lng": 114.9872821
      },
      "city": {
        "id": 2,
        "name": "Tabanan",
        "lat": -8.4595561,
        "lng": 115.0465991
      },
      "province": {
        "id": 1,
        "name": "Bali",
        "lat": -8.4095178,
        "lng": 115.188916
      },
      "country": {
        "id": 228,
        "name": "INDONESIA",
        "code": "ID"
      },
      "id": 94,
      "name": "Tiying Gading",
      "postcode": "82164",
      "lat": -8.4634921,
      "lng": 115.0258394
    },
    {
      "suburb": {
        "id": 11,
        "name": "Salamadeg Timur",
        "lat": -8.4835921,
        "lng": 115.0643921
      },
      "city": {
        "id": 2,
        "name": "Tabanan",
        "lat": -8.4595561,
        "lng": 115.0465991
      },
      "province": {
        "id": 1,
        "name": "Bali",
        "lat": -8.4095178,
        "lng": 115.188916
      },
      "country": {
        "id": 228,
        "name": "INDONESIA",
        "code": "ID"
      },
      "id": 95,
      "name": "Tangguntiti",
      "postcode": "82165",
      "lat": -8.542712,
      "lng": 115.0495647
    },
    {
      "suburb": {
        "id": 11,
        "name": "Salamadeg Timur",
        "lat": -8.4835921,
        "lng": 115.0643921
      },
      "city": {
        "id": 2,
        "name": "Tabanan",
        "lat": -8.4595561,
        "lng": 115.0465991
      },
      "province": {
        "id": 1,
        "name": "Bali",
        "lat": -8.4095178,
        "lng": 115.188916
      },
      "country": {
        "id": 228,
        "name": "INDONESIA",
        "code": "ID"
      },
      "id": 96,
      "name": "Tegal Mengkeb",
      "postcode": "82165",
      "lat": -8.5338225,
      "lng": 115.0317709
    },
    {
      "suburb": {
        "id": 9,
        "name": "Selemadeg",
        "lat": -8.4549103,
        "lng": 115.0406679
      },
      "city": {
        "id": 2,
        "name": "Tabanan",
        "lat": -8.4595561,
        "lng": 115.0465991
      },
      "province": {
        "id": 1,
        "name": "Bali",
        "lat": -8.4095178,
        "lng": 115.188916
      },
      "country": {
        "id": 228,
        "name": "INDONESIA",
        "code": "ID"
      },
      "id": 97,
      "name": "Selemadeg",
      "postcode": "82162",
      "lat": -8.4824827,
      "lng": 115.0436335
    },
    {
      "suburb": {
        "id": 9,
        "name": "Selemadeg",
        "lat": -8.4549103,
        "lng": 115.0406679
      },
      "city": {
        "id": 2,
        "name": "Tabanan",
        "lat": -8.4595561,
        "lng": 115.0465991
      },
      "province": {
        "id": 1,
        "name": "Bali",
        "lat": -8.4095178,
        "lng": 115.188916
      },
      "country": {
        "id": 228,
        "name": "INDONESIA",
        "code": "ID"
      },
      "id": 98,
      "name": "Serampingan",
      "postcode": "82162",
      "lat": -8.5081468,
      "lng": 115.0377022
    },
    {
      "suburb": {
        "id": 9,
        "name": "Selemadeg",
        "lat": -8.4549103,
        "lng": 115.0406679
      },
      "city": {
        "id": 2,
        "name": "Tabanan",
        "lat": -8.4595561,
        "lng": 115.0465991
      },
      "province": {
        "id": 1,
        "name": "Bali",
        "lat": -8.4095178,
        "lng": 115.188916
      },
      "country": {
        "id": 228,
        "name": "INDONESIA",
        "code": "ID"
      },
      "id": 99,
      "name": "Pupuan Sawah",
      "postcode": "82162",
      "lat": -8.4463305,
      "lng": 115.0554957
    },
    {
      "suburb": {
        "id": 10,
        "name": "Salemadeg Barat",
        "lat": -8.453483,
        "lng": 114.9872821
      },
      "city": {
        "id": 2,
        "name": "Tabanan",
        "lat": -8.4595561,
        "lng": 115.0465991
      },
      "province": {
        "id": 1,
        "name": "Bali",
        "lat": -8.4095178,
        "lng": 115.188916
      },
      "country": {
        "id": 228,
        "name": "INDONESIA",
        "code": "ID"
      },
      "id": 100,
      "name": "Selabih",
      "postcode": "82164",
      "lat": -8.4547719,
      "lng": 114.9309213
    },
    {
      "suburb": {
        "id": 10,
        "name": "Salemadeg Barat",
        "lat": -8.453483,
        "lng": 114.9872821
      },
      "city": {
        "id": 2,
        "name": "Tabanan",
        "lat": -8.4595561,
        "lng": 115.0465991
      },
      "province": {
        "id": 1,
        "name": "Bali",
        "lat": -8.4095178,
        "lng": 115.188916
      },
      "country": {
        "id": 228,
        "name": "INDONESIA",
        "code": "ID"
      },
      "id": 101,
      "name": "Mundeh",
      "postcode": "82164",
      "lat": -8.4193386,
      "lng": 114.969485
    },
    {
      "suburb": {
        "id": 10,
        "name": "Salemadeg Barat",
        "lat": -8.453483,
        "lng": 114.9872821
      },
      "city": {
        "id": 2,
        "name": "Tabanan",
        "lat": -8.4595561,
        "lng": 115.0465991
      },
      "province": {
        "id": 1,
        "name": "Bali",
        "lat": -8.4095178,
        "lng": 115.188916
      },
      "country": {
        "id": 228,
        "name": "INDONESIA",
        "code": "ID"
      },
      "id": 102,
      "name": "Mundeh Kangin",
      "postcode": "82164",
      "lat": -8.4379315,
      "lng": 114.9932143
    },
    {
      "suburb": {
        "id": 10,
        "name": "Salemadeg Barat",
        "lat": -8.453483,
        "lng": 114.9872821
      },
      "city": {
        "id": 2,
        "name": "Tabanan",
        "lat": -8.4595561,
        "lng": 115.0465991
      },
      "province": {
        "id": 1,
        "name": "Bali",
        "lat": -8.4095178,
        "lng": 115.188916
      },
      "country": {
        "id": 228,
        "name": "INDONESIA",
        "code": "ID"
      },
      "id": 103,
      "name": "Mundeh Kauh",
      "postcode": "82164",
      "lat": -8.427913,
      "lng": 114.9546533
    },
    {
      "suburb": {
        "id": 11,
        "name": "Salamadeg Timur",
        "lat": -8.4835921,
        "lng": 115.0643921
      },
      "city": {
        "id": 2,
        "name": "Tabanan",
        "lat": -8.4595561,
        "lng": 115.0465991
      },
      "province": {
        "id": 1,
        "name": "Bali",
        "lat": -8.4095178,
        "lng": 115.188916
      },
      "country": {
        "id": 228,
        "name": "INDONESIA",
        "code": "ID"
      },
      "id": 104,
      "name": "Megati",
      "postcode": "82165",
      "lat": -8.5019029,
      "lng": 115.0632432
    },
    {
      "suburb": {
        "id": 9,
        "name": "Selemadeg",
        "lat": -8.4549103,
        "lng": 115.0406679
      },
      "city": {
        "id": 2,
        "name": "Tabanan",
        "lat": -8.4595561,
        "lng": 115.0465991
      },
      "province": {
        "id": 1,
        "name": "Bali",
        "lat": -8.4095178,
        "lng": 115.188916
      },
      "country": {
        "id": 228,
        "name": "INDONESIA",
        "code": "ID"
      },
      "id": 105,
      "name": "Manikyang",
      "postcode": "82162",
      "lat": -8.4549103,
      "lng": 115.0406679
    },
    {
      "suburb": {
        "id": 10,
        "name": "Salemadeg Barat",
        "lat": -8.453483,
        "lng": 114.9872821
      },
      "city": {
        "id": 2,
        "name": "Tabanan",
        "lat": -8.4595561,
        "lng": 115.0465991
      },
      "province": {
        "id": 1,
        "name": "Bali",
        "lat": -8.4095178,
        "lng": 115.188916
      },
      "country": {
        "id": 228,
        "name": "INDONESIA",
        "code": "ID"
      },
      "id": 106,
      "name": "Lumbung Kauh",
      "postcode": "82164",
      "lat": -8.4690392,
      "lng": 114.9813499
    },
    {
      "suburb": {
        "id": 11,
        "name": "Salamadeg Timur",
        "lat": -8.4835921,
        "lng": 115.0643921
      },
      "city": {
        "id": 2,
        "name": "Tabanan",
        "lat": -8.4595561,
        "lng": 115.0465991
      },
      "province": {
        "id": 1,
        "name": "Bali",
        "lat": -8.4095178,
        "lng": 115.188916
      },
      "country": {
        "id": 228,
        "name": "INDONESIA",
        "code": "ID"
      },
      "id": 107,
      "name": "Mambang",
      "postcode": "82165",
      "lat": -8.5240055,
      "lng": 115.0643921
    },
    {
      "suburb": {
        "id": 10,
        "name": "Salemadeg Barat",
        "lat": -8.453483,
        "lng": 114.9872821
      },
      "city": {
        "id": 2,
        "name": "Tabanan",
        "lat": -8.4595561,
        "lng": 115.0465991
      },
      "province": {
        "id": 1,
        "name": "Bali",
        "lat": -8.4095178,
        "lng": 115.188916
      },
      "country": {
        "id": 228,
        "name": "INDONESIA",
        "code": "ID"
      },
      "id": 108,
      "name": "Lumbung",
      "postcode": "82164",
      "lat": -8.4775308,
      "lng": 115.0050783
    },
    {
      "suburb": {
        "id": 10,
        "name": "Salemadeg Barat",
        "lat": -8.453483,
        "lng": 114.9872821
      },
      "city": {
        "id": 2,
        "name": "Tabanan",
        "lat": -8.4595561,
        "lng": 115.0465991
      },
      "province": {
        "id": 1,
        "name": "Bali",
        "lat": -8.4095178,
        "lng": 115.188916
      },
      "country": {
        "id": 228,
        "name": "INDONESIA",
        "code": "ID"
      },
      "id": 109,
      "name": "Lalang Linggah",
      "postcode": "82164",
      "lat": -8.4807555,
      "lng": 114.9576197
    },
    {
      "suburb": {
        "id": 11,
        "name": "Salamadeg Timur",
        "lat": -8.4835921,
        "lng": 115.0643921
      },
      "city": {
        "id": 2,
        "name": "Tabanan",
        "lat": -8.4595561,
        "lng": 115.0465991
      },
      "province": {
        "id": 1,
        "name": "Bali",
        "lat": -8.4095178,
        "lng": 115.188916
      },
      "country": {
        "id": 228,
        "name": "INDONESIA",
        "code": "ID"
      },
      "id": 110,
      "name": "Gunung Salak",
      "postcode": "82165",
      "lat": -8.4455247,
      "lng": 115.0673575
    },
    {
      "suburb": {
        "id": 11,
        "name": "Salamadeg Timur",
        "lat": -8.4835921,
        "lng": 115.0643921
      },
      "city": {
        "id": 2,
        "name": "Tabanan",
        "lat": -8.4595561,
        "lng": 115.0465991
      },
      "province": {
        "id": 1,
        "name": "Bali",
        "lat": -8.4095178,
        "lng": 115.188916
      },
      "country": {
        "id": 228,
        "name": "INDONESIA",
        "code": "ID"
      },
      "id": 111,
      "name": "Gadung Sari",
      "postcode": "82165",
      "lat": -8.4435086,
      "lng": 115.0970101
    },
    {
      "suburb": {
        "id": 11,
        "name": "Salamadeg Timur",
        "lat": -8.4835921,
        "lng": 115.0643921
      },
      "city": {
        "id": 2,
        "name": "Tabanan",
        "lat": -8.4595561,
        "lng": 115.0465991
      },
      "province": {
        "id": 1,
        "name": "Bali",
        "lat": -8.4095178,
        "lng": 115.188916
      },
      "country": {
        "id": 228,
        "name": "INDONESIA",
        "code": "ID"
      },
      "id": 112,
      "name": "Gadungan",
      "postcode": "82165",
      "lat": -8.4679874,
      "lng": 115.0895972
    },
    {
      "suburb": {
        "id": 11,
        "name": "Salamadeg Timur",
        "lat": -8.4835921,
        "lng": 115.0643921
      },
      "city": {
        "id": 2,
        "name": "Tabanan",
        "lat": -8.4595561,
        "lng": 115.0465991
      },
      "province": {
        "id": 1,
        "name": "Bali",
        "lat": -8.4095178,
        "lng": 115.188916
      },
      "country": {
        "id": 228,
        "name": "INDONESIA",
        "code": "ID"
      },
      "id": 113,
      "name": "Beraban",
      "postcode": "82165",
      "lat": -8.553638,
      "lng": 115.0377022
    },
    {
      "suburb": {
        "id": 11,
        "name": "Salamadeg Timur",
        "lat": -8.4835921,
        "lng": 115.0643921
      },
      "city": {
        "id": 2,
        "name": "Tabanan",
        "lat": -8.4595561,
        "lng": 115.0465991
      },
      "province": {
        "id": 1,
        "name": "Bali",
        "lat": -8.4095178,
        "lng": 115.188916
      },
      "country": {
        "id": 228,
        "name": "INDONESIA",
        "code": "ID"
      },
      "id": 114,
      "name": "Dalang",
      "postcode": "82165",
      "lat": -8.4726838,
      "lng": 115.0762536
    },
    {
      "suburb": {
        "id": 9,
        "name": "Selemadeg",
        "lat": -8.4549103,
        "lng": 115.0406679
      },
      "city": {
        "id": 2,
        "name": "Tabanan",
        "lat": -8.4595561,
        "lng": 115.0465991
      },
      "province": {
        "id": 1,
        "name": "Bali",
        "lat": -8.4095178,
        "lng": 115.188916
      },
      "country": {
        "id": 228,
        "name": "INDONESIA",
        "code": "ID"
      },
      "id": 115,
      "name": "Berembeng",
      "postcode": "82162",
      "lat": -8.5190649,
      "lng": 115.0258394
    },
    {
      "suburb": {
        "id": 10,
        "name": "Salemadeg Barat",
        "lat": -8.453483,
        "lng": 114.9872821
      },
      "city": {
        "id": 2,
        "name": "Tabanan",
        "lat": -8.4595561,
        "lng": 115.0465991
      },
      "province": {
        "id": 1,
        "name": "Bali",
        "lat": -8.4095178,
        "lng": 115.188916
      },
      "country": {
        "id": 228,
        "name": "INDONESIA",
        "code": "ID"
      },
      "id": 116,
      "name": "Bengkel Sari",
      "postcode": "82164",
      "lat": -8.5008742,
      "lng": 114.9961804
    },
    {
      "suburb": {
        "id": 11,
        "name": "Salamadeg Timur",
        "lat": -8.4835921,
        "lng": 115.0643921
      },
      "city": {
        "id": 2,
        "name": "Tabanan",
        "lat": -8.4595561,
        "lng": 115.0465991
      },
      "province": {
        "id": 1,
        "name": "Bali",
        "lat": -8.4095178,
        "lng": 115.188916
      },
      "country": {
        "id": 228,
        "name": "INDONESIA",
        "code": "ID"
      },
      "id": 117,
      "name": "Bantas",
      "postcode": "82165",
      "lat": -8.5037958,
      "lng": 115.0643921
    },
    {
      "suburb": {
        "id": 9,
        "name": "Selemadeg",
        "lat": -8.4549103,
        "lng": 115.0406679
      },
      "city": {
        "id": 2,
        "name": "Tabanan",
        "lat": -8.4595561,
        "lng": 115.0465991
      },
      "province": {
        "id": 1,
        "name": "Bali",
        "lat": -8.4095178,
        "lng": 115.188916
      },
      "country": {
        "id": 228,
        "name": "INDONESIA",
        "code": "ID"
      },
      "id": 118,
      "name": "Bajera Utara",
      "postcode": "82162",
      "lat": -8.4832911,
      "lng": 115.0317709
    },
    {
      "suburb": {
        "id": 10,
        "name": "Salemadeg Barat",
        "lat": -8.453483,
        "lng": 114.9872821
      },
      "city": {
        "id": 2,
        "name": "Tabanan",
        "lat": -8.4595561,
        "lng": 115.0465991
      },
      "province": {
        "id": 1,
        "name": "Bali",
        "lat": -8.4095178,
        "lng": 115.188916
      },
      "country": {
        "id": 228,
        "name": "INDONESIA",
        "code": "ID"
      },
      "id": 119,
      "name": "Antosari",
      "postcode": "82164",
      "lat": -8.4996608,
      "lng": 115.0139761
    },
    {
      "suburb": {
        "id": 9,
        "name": "Selemadeg",
        "lat": -8.4549103,
        "lng": 115.0406679
      },
      "city": {
        "id": 2,
        "name": "Tabanan",
        "lat": -8.4595561,
        "lng": 115.0465991
      },
      "province": {
        "id": 1,
        "name": "Bali",
        "lat": -8.4095178,
        "lng": 115.188916
      },
      "country": {
        "id": 228,
        "name": "INDONESIA",
        "code": "ID"
      },
      "id": 120,
      "name": "Bajera",
      "postcode": "82162",
      "lat": -8.5039043,
      "lng": 115.0258394
    },
    {
      "suburb": {
        "id": 9,
        "name": "Selemadeg",
        "lat": -8.4549103,
        "lng": 115.0406679
      },
      "city": {
        "id": 2,
        "name": "Tabanan",
        "lat": -8.4595561,
        "lng": 115.0465991
      },
      "province": {
        "id": 1,
        "name": "Bali",
        "lat": -8.4095178,
        "lng": 115.188916
      },
      "country": {
        "id": 228,
        "name": "INDONESIA",
        "code": "ID"
      },
      "id": 121,
      "name": "Antap",
      "postcode": "82162",
      "lat": -8.5280672,
      "lng": 115.0050783
    },
    {
      "suburb": {
        "id": 10,
        "name": "Salemadeg Barat",
        "lat": -8.453483,
        "lng": 114.9872821
      },
      "city": {
        "id": 2,
        "name": "Tabanan",
        "lat": -8.4595561,
        "lng": 115.0465991
      },
      "province": {
        "id": 1,
        "name": "Bali",
        "lat": -8.4095178,
        "lng": 115.188916
      },
      "country": {
        "id": 228,
        "name": "INDONESIA",
        "code": "ID"
      },
      "id": 122,
      "name": "Angkah",
      "postcode": "82164",
      "lat": -8.4491484,
      "lng": 115.0139761
    },
    {
      "suburb": {
        "id": 12,
        "name": "Kerambitan",
        "lat": -8.5223784,
        "lng": 115.0881146
      },
      "city": {
        "id": 2,
        "name": "Tabanan",
        "lat": -8.4595561,
        "lng": 115.0465991
      },
      "province": {
        "id": 1,
        "name": "Bali",
        "lat": -8.4095178,
        "lng": 115.188916
      },
      "country": {
        "id": 228,
        "name": "INDONESIA",
        "code": "ID"
      },
      "id": 123,
      "name": "Tibu Biu (Tibubiyu)",
      "postcode": "82161",
      "lat": -8.5629351,
      "lng": 115.0495647
    },
    {
      "suburb": {
        "id": 12,
        "name": "Kerambitan",
        "lat": -8.5223784,
        "lng": 115.0881146
      },
      "city": {
        "id": 2,
        "name": "Tabanan",
        "lat": -8.4595561,
        "lng": 115.0465991
      },
      "province": {
        "id": 1,
        "name": "Bali",
        "lat": -8.4095178,
        "lng": 115.188916
      },
      "country": {
        "id": 228,
        "name": "INDONESIA",
        "code": "ID"
      },
      "id": 124,
      "name": "Timpag",
      "postcode": "82161",
      "lat": -8.4893441,
      "lng": 115.0910798
    },
    {
      "suburb": {
        "id": 12,
        "name": "Kerambitan",
        "lat": -8.5223784,
        "lng": 115.0881146
      },
      "city": {
        "id": 2,
        "name": "Tabanan",
        "lat": -8.4595561,
        "lng": 115.0465991
      },
      "province": {
        "id": 1,
        "name": "Bali",
        "lat": -8.4095178,
        "lng": 115.188916
      },
      "country": {
        "id": 228,
        "name": "INDONESIA",
        "code": "ID"
      },
      "id": 125,
      "name": "Tista",
      "postcode": "82161",
      "lat": -8.5422442,
      "lng": 115.0747709
    },
    {
      "suburb": {
        "id": 12,
        "name": "Kerambitan",
        "lat": -8.5223784,
        "lng": 115.0881146
      },
      "city": {
        "id": 2,
        "name": "Tabanan",
        "lat": -8.4595561,
        "lng": 115.0465991
      },
      "province": {
        "id": 1,
        "name": "Bali",
        "lat": -8.4095178,
        "lng": 115.188916
      },
      "country": {
        "id": 228,
        "name": "INDONESIA",
        "code": "ID"
      },
      "id": 126,
      "name": "Penarukan",
      "postcode": "82161",
      "lat": -8.5601401,
      "lng": 115.0718056
    },
    {
      "suburb": {
        "id": 12,
        "name": "Kerambitan",
        "lat": -8.5223784,
        "lng": 115.0881146
      },
      "city": {
        "id": 2,
        "name": "Tabanan",
        "lat": -8.4595561,
        "lng": 115.0465991
      },
      "province": {
        "id": 1,
        "name": "Bali",
        "lat": -8.4095178,
        "lng": 115.188916
      },
      "country": {
        "id": 228,
        "name": "INDONESIA",
        "code": "ID"
      },
      "id": 127,
      "name": "Samsam",
      "postcode": "82161",
      "lat": -8.5230721,
      "lng": 115.1148004
    },
    {
      "suburb": {
        "id": 12,
        "name": "Kerambitan",
        "lat": -8.5223784,
        "lng": 115.0881146
      },
      "city": {
        "id": 2,
        "name": "Tabanan",
        "lat": -8.4595561,
        "lng": 115.0465991
      },
      "province": {
        "id": 1,
        "name": "Bali",
        "lat": -8.4095178,
        "lng": 115.188916
      },
      "country": {
        "id": 228,
        "name": "INDONESIA",
        "code": "ID"
      },
      "id": 128,
      "name": "Sembung Gede",
      "postcode": "82161",
      "lat": -8.5095459,
      "lng": 115.0910798
    },
    {
      "suburb": {
        "id": 12,
        "name": "Kerambitan",
        "lat": -8.5223784,
        "lng": 115.0881146
      },
      "city": {
        "id": 2,
        "name": "Tabanan",
        "lat": -8.4595561,
        "lng": 115.0465991
      },
      "province": {
        "id": 1,
        "name": "Bali",
        "lat": -8.4095178,
        "lng": 115.188916
      },
      "country": {
        "id": 228,
        "name": "INDONESIA",
        "code": "ID"
      },
      "id": 129,
      "name": "Meliling",
      "postcode": "82161",
      "lat": -8.5154103,
      "lng": 115.0792189
    },
    {
      "suburb": {
        "id": 12,
        "name": "Kerambitan",
        "lat": -8.5223784,
        "lng": 115.0881146
      },
      "city": {
        "id": 2,
        "name": "Tabanan",
        "lat": -8.4595561,
        "lng": 115.0465991
      },
      "province": {
        "id": 1,
        "name": "Bali",
        "lat": -8.4095178,
        "lng": 115.188916
      },
      "country": {
        "id": 228,
        "name": "INDONESIA",
        "code": "ID"
      },
      "id": 130,
      "name": "Pangkung Karung",
      "postcode": "82161",
      "lat": -8.5495588,
      "lng": 115.0970101
    },
    {
      "suburb": {
        "id": 12,
        "name": "Kerambitan",
        "lat": -8.5223784,
        "lng": 115.0881146
      },
      "city": {
        "id": 2,
        "name": "Tabanan",
        "lat": -8.4595561,
        "lng": 115.0465991
      },
      "province": {
        "id": 1,
        "name": "Bali",
        "lat": -8.4095178,
        "lng": 115.188916
      },
      "country": {
        "id": 228,
        "name": "INDONESIA",
        "code": "ID"
      },
      "id": 131,
      "name": "Kerambitan",
      "postcode": "82161",
      "lat": -8.5521491,
      "lng": 115.0777363
    },
    {
      "suburb": {
        "id": 12,
        "name": "Kerambitan",
        "lat": -8.5223784,
        "lng": 115.0881146
      },
      "city": {
        "id": 2,
        "name": "Tabanan",
        "lat": -8.4595561,
        "lng": 115.0465991
      },
      "province": {
        "id": 1,
        "name": "Bali",
        "lat": -8.4095178,
        "lng": 115.188916
      },
      "country": {
        "id": 228,
        "name": "INDONESIA",
        "code": "ID"
      },
      "id": 132,
      "name": "Kesiut",
      "postcode": "82161",
      "lat": -8.4830786,
      "lng": 115.1088704
    },
    {
      "suburb": {
        "id": 12,
        "name": "Kerambitan",
        "lat": -8.5223784,
        "lng": 115.0881146
      },
      "city": {
        "id": 2,
        "name": "Tabanan",
        "lat": -8.4595561,
        "lng": 115.0465991
      },
      "province": {
        "id": 1,
        "name": "Bali",
        "lat": -8.4095178,
        "lng": 115.188916
      },
      "country": {
        "id": 228,
        "name": "INDONESIA",
        "code": "ID"
      },
      "id": 133,
      "name": "Kukuh",
      "postcode": "82161",
      "lat": -8.5398596,
      "lng": 115.0910798
    },
    {
      "suburb": {
        "id": 12,
        "name": "Kerambitan",
        "lat": -8.5223784,
        "lng": 115.0881146
      },
      "city": {
        "id": 2,
        "name": "Tabanan",
        "lat": -8.4595561,
        "lng": 115.0465991
      },
      "province": {
        "id": 1,
        "name": "Bali",
        "lat": -8.4095178,
        "lng": 115.188916
      },
      "country": {
        "id": 228,
        "name": "INDONESIA",
        "code": "ID"
      },
      "id": 134,
      "name": "Belumbang",
      "postcode": "82161",
      "lat": -8.5570628,
      "lng": 115.0614267
    },
    {
      "suburb": {
        "id": 12,
        "name": "Kerambitan",
        "lat": -8.5223784,
        "lng": 115.0881146
      },
      "city": {
        "id": 2,
        "name": "Tabanan",
        "lat": -8.4595561,
        "lng": 115.0465991
      },
      "province": {
        "id": 1,
        "name": "Bali",
        "lat": -8.4095178,
        "lng": 115.188916
      },
      "country": {
        "id": 228,
        "name": "INDONESIA",
        "code": "ID"
      },
      "id": 135,
      "name": "Kelating",
      "postcode": "82161",
      "lat": -8.5722315,
      "lng": 115.0614267
    },
    {
      "suburb": {
        "id": 12,
        "name": "Kerambitan",
        "lat": -8.5223784,
        "lng": 115.0881146
      },
      "city": {
        "id": 2,
        "name": "Tabanan",
        "lat": -8.4595561,
        "lng": 115.0465991
      },
      "province": {
        "id": 1,
        "name": "Bali",
        "lat": -8.4095178,
        "lng": 115.188916
      },
      "country": {
        "id": 228,
        "name": "INDONESIA",
        "code": "ID"
      },
      "id": 136,
      "name": "Batuaji",
      "postcode": "82161",
      "lat": -8.5137838,
      "lng": 115.1029403
    },
    {
      "suburb": {
        "id": 12,
        "name": "Kerambitan",
        "lat": -8.5223784,
        "lng": 115.0881146
      },
      "city": {
        "id": 2,
        "name": "Tabanan",
        "lat": -8.4595561,
        "lng": 115.0465991
      },
      "province": {
        "id": 1,
        "name": "Bali",
        "lat": -8.4095178,
        "lng": 115.188916
      },
      "country": {
        "id": 228,
        "name": "INDONESIA",
        "code": "ID"
      },
      "id": 137,
      "name": "Baturiti",
      "postcode": "82161",
      "lat": -8.5317295,
      "lng": 115.0807015
    },
    {
      "suburb": {
        "id": 13,
        "name": "Penebel",
        "lat": -8.3941828,
        "lng": 115.1177654
      },
      "city": {
        "id": 2,
        "name": "Tabanan",
        "lat": -8.4595561,
        "lng": 115.0465991
      },
      "province": {
        "id": 1,
        "name": "Bali",
        "lat": -8.4095178,
        "lng": 115.188916
      },
      "country": {
        "id": 228,
        "name": "INDONESIA",
        "code": "ID"
      },
      "id": 138,
      "name": "Wongaya Gede",
      "postcode": "82152",
      "lat": -8.3802612,
      "lng": 115.0999753
    },
    {
      "suburb": {
        "id": 13,
        "name": "Penebel",
        "lat": -8.3941828,
        "lng": 115.1177654
      },
      "city": {
        "id": 2,
        "name": "Tabanan",
        "lat": -8.4595561,
        "lng": 115.0465991
      },
      "province": {
        "id": 1,
        "name": "Bali",
        "lat": -8.4095178,
        "lng": 115.188916
      },
      "country": {
        "id": 228,
        "name": "INDONESIA",
        "code": "ID"
      },
      "id": 139,
      "name": "Tegalinggah",
      "postcode": "82152",
      "lat": -8.4415411,
      "lng": 115.1073879
    },
    {
      "suburb": {
        "id": 13,
        "name": "Penebel",
        "lat": -8.3941828,
        "lng": 115.1177654
      },
      "city": {
        "id": 2,
        "name": "Tabanan",
        "lat": -8.4595561,
        "lng": 115.0465991
      },
      "province": {
        "id": 1,
        "name": "Bali",
        "lat": -8.4095178,
        "lng": 115.188916
      },
      "country": {
        "id": 228,
        "name": "INDONESIA",
        "code": "ID"
      },
      "id": 140,
      "name": "Tengkudak",
      "postcode": "82152",
      "lat": -8.4170756,
      "lng": 115.1148004
    },
    {
      "suburb": {
        "id": 13,
        "name": "Penebel",
        "lat": -8.3941828,
        "lng": 115.1177654
      },
      "city": {
        "id": 2,
        "name": "Tabanan",
        "lat": -8.4595561,
        "lng": 115.0465991
      },
      "province": {
        "id": 1,
        "name": "Bali",
        "lat": -8.4095178,
        "lng": 115.188916
      },
      "country": {
        "id": 228,
        "name": "INDONESIA",
        "code": "ID"
      },
      "id": 141,
      "name": "Sangketan",
      "postcode": "82152",
      "lat": -8.4136407,
      "lng": 115.0910798
    },
    {
      "suburb": {
        "id": 13,
        "name": "Penebel",
        "lat": -8.3941828,
        "lng": 115.1177654
      },
      "city": {
        "id": 2,
        "name": "Tabanan",
        "lat": -8.4595561,
        "lng": 115.0465991
      },
      "province": {
        "id": 1,
        "name": "Bali",
        "lat": -8.4095178,
        "lng": 115.188916
      },
      "country": {
        "id": 228,
        "name": "INDONESIA",
        "code": "ID"
      },
      "id": 142,
      "name": "Senganan",
      "postcode": "82152",
      "lat": -8.3375491,
      "lng": 115.1355545
    },
    {
      "suburb": {
        "id": 13,
        "name": "Penebel",
        "lat": -8.3941828,
        "lng": 115.1177654
      },
      "city": {
        "id": 2,
        "name": "Tabanan",
        "lat": -8.4595561,
        "lng": 115.0465991
      },
      "province": {
        "id": 1,
        "name": "Bali",
        "lat": -8.4095178,
        "lng": 115.188916
      },
      "country": {
        "id": 228,
        "name": "INDONESIA",
        "code": "ID"
      },
      "id": 143,
      "name": "Tajen",
      "postcode": "82152",
      "lat": -8.4503678,
      "lng": 115.1444487
    },
    {
      "suburb": {
        "id": 13,
        "name": "Penebel",
        "lat": -8.3941828,
        "lng": 115.1177654
      },
      "city": {
        "id": 2,
        "name": "Tabanan",
        "lat": -8.4595561,
        "lng": 115.0465991
      },
      "province": {
        "id": 1,
        "name": "Bali",
        "lat": -8.4095178,
        "lng": 115.188916
      },
      "country": {
        "id": 228,
        "name": "INDONESIA",
        "code": "ID"
      },
      "id": 144,
      "name": "Rejasa",
      "postcode": "82152",
      "lat": -8.4624826,
      "lng": 115.1148004
    },
    {
      "suburb": {
        "id": 13,
        "name": "Penebel",
        "lat": -8.3941828,
        "lng": 115.1177654
      },
      "city": {
        "id": 2,
        "name": "Tabanan",
        "lat": -8.4595561,
        "lng": 115.0465991
      },
      "province": {
        "id": 1,
        "name": "Bali",
        "lat": -8.4095178,
        "lng": 115.188916
      },
      "country": {
        "id": 228,
        "name": "INDONESIA",
        "code": "ID"
      },
      "id": 145,
      "name": "Riang Gede",
      "postcode": "82152",
      "lat": -8.3941828,
      "lng": 115.1177654
    },
    {
      "suburb": {
        "id": 13,
        "name": "Penebel",
        "lat": -8.3941828,
        "lng": 115.1177654
      },
      "city": {
        "id": 2,
        "name": "Tabanan",
        "lat": -8.4595561,
        "lng": 115.0465991
      },
      "province": {
        "id": 1,
        "name": "Bali",
        "lat": -8.4095178,
        "lng": 115.188916
      },
      "country": {
        "id": 228,
        "name": "INDONESIA",
        "code": "ID"
      },
      "id": 146,
      "name": "Pesagi",
      "postcode": "82152",
      "lat": -8.4586486,
      "lng": 115.0970101
    },
    {
      "suburb": {
        "id": 13,
        "name": "Penebel",
        "lat": -8.3941828,
        "lng": 115.1177654
      },
      "city": {
        "id": 2,
        "name": "Tabanan",
        "lat": -8.4595561,
        "lng": 115.0465991
      },
      "province": {
        "id": 1,
        "name": "Bali",
        "lat": -8.4095178,
        "lng": 115.188916
      },
      "country": {
        "id": 228,
        "name": "INDONESIA",
        "code": "ID"
      },
      "id": 147,
      "name": "Pitra",
      "postcode": "82152",
      "lat": -8.4356384,
      "lng": 115.1385192
    },
    {
      "suburb": {
        "id": 13,
        "name": "Penebel",
        "lat": -8.3941828,
        "lng": 115.1177654
      },
      "city": {
        "id": 2,
        "name": "Tabanan",
        "lat": -8.4595561,
        "lng": 115.0465991
      },
      "province": {
        "id": 1,
        "name": "Bali",
        "lat": -8.4095178,
        "lng": 115.188916
      },
      "country": {
        "id": 228,
        "name": "INDONESIA",
        "code": "ID"
      },
      "id": 148,
      "name": "Penatahan",
      "postcode": "82152",
      "lat": -8.4364458,
      "lng": 115.12666
    },
    {
      "suburb": {
        "id": 13,
        "name": "Penebel",
        "lat": -8.3941828,
        "lng": 115.1177654
      },
      "city": {
        "id": 2,
        "name": "Tabanan",
        "lat": -8.4595561,
        "lng": 115.0465991
      },
      "province": {
        "id": 1,
        "name": "Bali",
        "lat": -8.4095178,
        "lng": 115.188916
      },
      "country": {
        "id": 228,
        "name": "INDONESIA",
        "code": "ID"
      },
      "id": 149,
      "name": "Penebel",
      "postcode": "82152",
      "lat": -8.4173818,
      "lng": 115.1474134
    },
    {
      "suburb": {
        "id": 13,
        "name": "Penebel",
        "lat": -8.3941828,
        "lng": 115.1177654
      },
      "city": {
        "id": 2,
        "name": "Tabanan",
        "lat": -8.4595561,
        "lng": 115.0465991
      },
      "province": {
        "id": 1,
        "name": "Bali",
        "lat": -8.4095178,
        "lng": 115.188916
      },
      "country": {
        "id": 228,
        "name": "INDONESIA",
        "code": "ID"
      },
      "id": 150,
      "name": "Jatiluwih",
      "postcode": "82152",
      "lat": -8.3492215,
      "lng": 115.1118354
    },
    {
      "suburb": {
        "id": 13,
        "name": "Penebel",
        "lat": -8.3941828,
        "lng": 115.1177654
      },
      "city": {
        "id": 2,
        "name": "Tabanan",
        "lat": -8.4595561,
        "lng": 115.0465991
      },
      "province": {
        "id": 1,
        "name": "Bali",
        "lat": -8.4095178,
        "lng": 115.188916
      },
      "country": {
        "id": 228,
        "name": "INDONESIA",
        "code": "ID"
      },
      "id": 151,
      "name": "Jegu",
      "postcode": "82152",
      "lat": -8.456627,
      "lng": 115.12666
    },
    {
      "suburb": {
        "id": 13,
        "name": "Penebel",
        "lat": -8.3941828,
        "lng": 115.1177654
      },
      "city": {
        "id": 2,
        "name": "Tabanan",
        "lat": -8.4595561,
        "lng": 115.0465991
      },
      "province": {
        "id": 1,
        "name": "Bali",
        "lat": -8.4095178,
        "lng": 115.188916
      },
      "country": {
        "id": 228,
        "name": "INDONESIA",
        "code": "ID"
      },
      "id": 152,
      "name": "Mengeste",
      "postcode": "82152",
      "lat": -8.3980192,
      "lng": 115.1355545
    },
    {
      "suburb": {
        "id": 13,
        "name": "Penebel",
        "lat": -8.3941828,
        "lng": 115.1177654
      },
      "city": {
        "id": 2,
        "name": "Tabanan",
        "lat": -8.4595561,
        "lng": 115.0465991
      },
      "province": {
        "id": 1,
        "name": "Bali",
        "lat": -8.4095178,
        "lng": 115.188916
      },
      "country": {
        "id": 228,
        "name": "INDONESIA",
        "code": "ID"
      },
      "id": 153,
      "name": "Buruan",
      "postcode": "82152",
      "lat": -8.4752482,
      "lng": 115.1311073
    },
    {
      "suburb": {
        "id": 13,
        "name": "Penebel",
        "lat": -8.3941828,
        "lng": 115.1177654
      },
      "city": {
        "id": 2,
        "name": "Tabanan",
        "lat": -8.4595561,
        "lng": 115.0465991
      },
      "province": {
        "id": 1,
        "name": "Bali",
        "lat": -8.4095178,
        "lng": 115.188916
      },
      "country": {
        "id": 228,
        "name": "INDONESIA",
        "code": "ID"
      },
      "id": 154,
      "name": "Biaung",
      "postcode": "82152",
      "lat": -8.4188949,
      "lng": 115.1622363
    },
    {
      "suburb": {
        "id": 13,
        "name": "Penebel",
        "lat": -8.3941828,
        "lng": 115.1177654
      },
      "city": {
        "id": 2,
        "name": "Tabanan",
        "lat": -8.4595561,
        "lng": 115.0465991
      },
      "province": {
        "id": 1,
        "name": "Bali",
        "lat": -8.4095178,
        "lng": 115.188916
      },
      "country": {
        "id": 228,
        "name": "INDONESIA",
        "code": "ID"
      },
      "id": 155,
      "name": "Babahan",
      "postcode": "82152",
      "lat": -8.3944936,
      "lng": 115.150378
    },
    {
      "suburb": {
        "id": 14,
        "name": "Kediri",
        "lat": -8.5852167,
        "lng": 115.1296249
      },
      "city": {
        "id": 2,
        "name": "Tabanan",
        "lat": -8.4595561,
        "lng": 115.0465991
      },
      "province": {
        "id": 1,
        "name": "Bali",
        "lat": -8.4095178,
        "lng": 115.188916
      },
      "country": {
        "id": 228,
        "name": "INDONESIA",
        "code": "ID"
      },
      "id": 156,
      "name": "Banjar Anyar",
      "postcode": "82123",
      "lat": -8.5361861,
      "lng": 115.1444487
    },
    {
      "suburb": {
        "id": 14,
        "name": "Kediri",
        "lat": -8.5852167,
        "lng": 115.1296249
      },
      "city": {
        "id": 2,
        "name": "Tabanan",
        "lat": -8.4595561,
        "lng": 115.0465991
      },
      "province": {
        "id": 1,
        "name": "Bali",
        "lat": -8.4095178,
        "lng": 115.188916
      },
      "country": {
        "id": 228,
        "name": "INDONESIA",
        "code": "ID"
      },
      "id": 157,
      "name": "Pangkung Tibah",
      "postcode": "82121",
      "lat": -8.6009375,
      "lng": 115.0851494
    },
    {
      "suburb": {
        "id": 14,
        "name": "Kediri",
        "lat": -8.5852167,
        "lng": 115.1296249
      },
      "city": {
        "id": 2,
        "name": "Tabanan",
        "lat": -8.4595561,
        "lng": 115.0465991
      },
      "province": {
        "id": 1,
        "name": "Bali",
        "lat": -8.4095178,
        "lng": 115.188916
      },
      "country": {
        "id": 228,
        "name": "INDONESIA",
        "code": "ID"
      },
      "id": 158,
      "name": "Pejaten",
      "postcode": "82121",
      "lat": -8.57538,
      "lng": 115.1073879
    },
    {
      "suburb": {
        "id": 14,
        "name": "Kediri",
        "lat": -8.5852167,
        "lng": 115.1296249
      },
      "city": {
        "id": 2,
        "name": "Tabanan",
        "lat": -8.4595561,
        "lng": 115.0465991
      },
      "province": {
        "id": 1,
        "name": "Bali",
        "lat": -8.4095178,
        "lng": 115.188916
      },
      "country": {
        "id": 228,
        "name": "INDONESIA",
        "code": "ID"
      },
      "id": 159,
      "name": "Pandak Bandung",
      "postcode": "82121",
      "lat": -8.5774289,
      "lng": 115.1325897
    },
    {
      "suburb": {
        "id": 14,
        "name": "Kediri",
        "lat": -8.5852167,
        "lng": 115.1296249
      },
      "city": {
        "id": 2,
        "name": "Tabanan",
        "lat": -8.4595561,
        "lng": 115.0465991
      },
      "province": {
        "id": 1,
        "name": "Bali",
        "lat": -8.4095178,
        "lng": 115.188916
      },
      "country": {
        "id": 228,
        "name": "INDONESIA",
        "code": "ID"
      },
      "id": 160,
      "name": "Pandak Gede",
      "postcode": "82121",
      "lat": -8.5938272,
      "lng": 115.1148004
    },
    {
      "suburb": {
        "id": 14,
        "name": "Kediri",
        "lat": -8.5852167,
        "lng": 115.1296249
      },
      "city": {
        "id": 2,
        "name": "Tabanan",
        "lat": -8.4595561,
        "lng": 115.0465991
      },
      "province": {
        "id": 1,
        "name": "Bali",
        "lat": -8.4095178,
        "lng": 115.188916
      },
      "country": {
        "id": 228,
        "name": "INDONESIA",
        "code": "ID"
      },
      "id": 161,
      "name": "Nyambu",
      "postcode": "82121",
      "lat": -8.5805017,
      "lng": 115.1429663
    },
    {
      "suburb": {
        "id": 14,
        "name": "Kediri",
        "lat": -8.5852167,
        "lng": 115.1296249
      },
      "city": {
        "id": 2,
        "name": "Tabanan",
        "lat": -8.4595561,
        "lng": 115.0465991
      },
      "province": {
        "id": 1,
        "name": "Bali",
        "lat": -8.4095178,
        "lng": 115.188916
      },
      "country": {
        "id": 228,
        "name": "INDONESIA",
        "code": "ID"
      },
      "id": 162,
      "name": "Nyitdah",
      "postcode": "82121",
      "lat": -8.5837149,
      "lng": 115.1148004
    },
    {
      "suburb": {
        "id": 14,
        "name": "Kediri",
        "lat": -8.5852167,
        "lng": 115.1296249
      },
      "city": {
        "id": 2,
        "name": "Tabanan",
        "lat": -8.4595561,
        "lng": 115.0465991
      },
      "province": {
        "id": 1,
        "name": "Bali",
        "lat": -8.4095178,
        "lng": 115.188916
      },
      "country": {
        "id": 228,
        "name": "INDONESIA",
        "code": "ID"
      },
      "id": 163,
      "name": "Kaba-Kaba",
      "postcode": "82121",
      "lat": -8.5972395,
      "lng": 115.1385192
    },
    {
      "suburb": {
        "id": 14,
        "name": "Kediri",
        "lat": -8.5852167,
        "lng": 115.1296249
      },
      "city": {
        "id": 2,
        "name": "Tabanan",
        "lat": -8.4595561,
        "lng": 115.0465991
      },
      "province": {
        "id": 1,
        "name": "Bali",
        "lat": -8.4095178,
        "lng": 115.188916
      },
      "country": {
        "id": 228,
        "name": "INDONESIA",
        "code": "ID"
      },
      "id": 164,
      "name": "Kediri",
      "postcode": "82121",
      "lat": -8.5622664,
      "lng": 115.1325897
    },
    {
      "suburb": {
        "id": 14,
        "name": "Kediri",
        "lat": -8.5852167,
        "lng": 115.1296249
      },
      "city": {
        "id": 2,
        "name": "Tabanan",
        "lat": -8.4595561,
        "lng": 115.0465991
      },
      "province": {
        "id": 1,
        "name": "Bali",
        "lat": -8.4095178,
        "lng": 115.188916
      },
      "country": {
        "id": 228,
        "name": "INDONESIA",
        "code": "ID"
      },
      "id": 165,
      "name": "Buwit",
      "postcode": "82121",
      "lat": -8.6046912,
      "lng": 115.1222127
    },
    {
      "suburb": {
        "id": 14,
        "name": "Kediri",
        "lat": -8.5852167,
        "lng": 115.1296249
      },
      "city": {
        "id": 2,
        "name": "Tabanan",
        "lat": -8.4595561,
        "lng": 115.0465991
      },