{
  "metadata": {
    "path": "/v3/location/areas?limit=1000&page=32",
    "http_status_code": 200,
    "http_status": "OK",
    "timestamp": 1647336199
  },
  "data": [
    {
      "suburb": {
        "id": 2665,
        "name": "Sungai Laur",
        "lat": -0.7408805,
        "lng": 110.5692179
      },
      "city": {
        "id": 150,
        "name": "Ketapang",
        "lat": -1.5697615,
        "lng": 110.5215459
      },
      "province": {
        "id": 12,
        "name": "Kalimantan Barat",
        "lat": -0.2787808,
        "lng": 111.4752851
      },
      "country": {
        "id": 228,
        "name": "INDONESIA",
        "code": "ID"
      },
      "id": 31012,
      "name": "Teluk Mutiara",
      "postcode": "78872",
      "lat": -0.9418888,
      "lng": 110.5632588
    },
    {
      "suburb": {
        "id": 2665,
        "name": "Sungai Laur",
        "lat": -0.7408805,
        "lng": 110.5692179
      },
      "city": {
        "id": 150,
        "name": "Ketapang",
        "lat": -1.5697615,
        "lng": 110.5215459
      },
      "province": {
        "id": 12,
        "name": "Kalimantan Barat",
        "lat": -0.2787808,
        "lng": 111.4752851
      },
      "country": {
        "id": 228,
        "name": "INDONESIA",
        "code": "ID"
      },
      "id": 31013,
      "name": "Tanjung Maju",
      "postcode": "78872",
      "lat": -0.6789421,
      "lng": 110.4857934
    },
    {
      "suburb": {
        "id": 2665,
        "name": "Sungai Laur",
        "lat": -0.7408805,
        "lng": 110.5692179
      },
      "city": {
        "id": 150,
        "name": "Ketapang",
        "lat": -1.5697615,
        "lng": 110.5215459
      },
      "province": {
        "id": 12,
        "name": "Kalimantan Barat",
        "lat": -0.2787808,
        "lng": 111.4752851
      },
      "country": {
        "id": 228,
        "name": "INDONESIA",
        "code": "ID"
      },
      "id": 31014,
      "name": "Teluk Bayur",
      "postcode": "78872",
      "lat": -1.1084903,
      "lng": 110.4857934
    },
    {
      "suburb": {
        "id": 2665,
        "name": "Sungai Laur",
        "lat": -0.7408805,
        "lng": 110.5692179
      },
      "city": {
        "id": 150,
        "name": "Ketapang",
        "lat": -1.5697615,
        "lng": 110.5215459
      },
      "province": {
        "id": 12,
        "name": "Kalimantan Barat",
        "lat": -0.2787808,
        "lng": 111.4752851
      },
      "country": {
        "id": 228,
        "name": "INDONESIA",
        "code": "ID"
      },
      "id": 31015,
      "name": "Sungai Daka",
      "postcode": "78872",
      "lat": -0.9472867,
      "lng": 110.4142923
    },
    {
      "suburb": {
        "id": 2665,
        "name": "Sungai Laur",
        "lat": -0.7408805,
        "lng": 110.5692179
      },
      "city": {
        "id": 150,
        "name": "Ketapang",
        "lat": -1.5697615,
        "lng": 110.5215459
      },
      "province": {
        "id": 12,
        "name": "Kalimantan Barat",
        "lat": -0.2787808,
        "lng": 111.4752851
      },
      "country": {
        "id": 228,
        "name": "INDONESIA",
        "code": "ID"
      },
      "id": 31016,
      "name": "Tanjung Beringin",
      "postcode": "78872",
      "lat": -0.7855106,
      "lng": 110.5572997
    },
    {
      "suburb": {
        "id": 2665,
        "name": "Sungai Laur",
        "lat": -0.7408805,
        "lng": 110.5692179
      },
      "city": {
        "id": 150,
        "name": "Ketapang",
        "lat": -1.5697615,
        "lng": 110.5215459
      },
      "province": {
        "id": 12,
        "name": "Kalimantan Barat",
        "lat": -0.2787808,
        "lng": 111.4752851
      },
      "country": {
        "id": 228,
        "name": "INDONESIA",
        "code": "ID"
      },
      "id": 31017,
      "name": "Sepotong",
      "postcode": "78872",
      "lat": -0.8213342,
      "lng": 110.5334637
    },
    {
      "suburb": {
        "id": 2665,
        "name": "Sungai Laur",
        "lat": -0.7408805,
        "lng": 110.5692179
      },
      "city": {
        "id": 150,
        "name": "Ketapang",
        "lat": -1.5697615,
        "lng": 110.5215459
      },
      "province": {
        "id": 12,
        "name": "Kalimantan Barat",
        "lat": -0.2787808,
        "lng": 111.4752851
      },
      "country": {
        "id": 228,
        "name": "INDONESIA",
        "code": "ID"
      },
      "id": 31018,
      "name": "Sinar Kuri",
      "postcode": "78872",
      "lat": -0.9025543,
      "lng": 110.402376
    },
    {
      "suburb": {
        "id": 2665,
        "name": "Sungai Laur",
        "lat": -0.7408805,
        "lng": 110.5692179
      },
      "city": {
        "id": 150,
        "name": "Ketapang",
        "lat": -1.5697615,
        "lng": 110.5215459
      },
      "province": {
        "id": 12,
        "name": "Kalimantan Barat",
        "lat": -0.2787808,
        "lng": 111.4752851
      },
      "country": {
        "id": 228,
        "name": "INDONESIA",
        "code": "ID"
      },
      "id": 31019,
      "name": "Sukaramai",
      "postcode": "78872",
      "lat": -0.6164627,
      "lng": 110.5453816
    },
    {
      "suburb": {
        "id": 2665,
        "name": "Sungai Laur",
        "lat": -0.7408805,
        "lng": 110.5692179
      },
      "city": {
        "id": 150,
        "name": "Ketapang",
        "lat": -1.5697615,
        "lng": 110.5215459
      },
      "province": {
        "id": 12,
        "name": "Kalimantan Barat",
        "lat": -0.2787808,
        "lng": 111.4752851
      },
      "country": {
        "id": 228,
        "name": "INDONESIA",
        "code": "ID"
      },
      "id": 31020,
      "name": "Sempurna",
      "postcode": "78872",
      "lat": -1.1625214,
      "lng": 110.4857934
    },
    {
      "suburb": {
        "id": 2665,
        "name": "Sungai Laur",
        "lat": -0.7408805,
        "lng": 110.5692179
      },
      "city": {
        "id": 150,
        "name": "Ketapang",
        "lat": -1.5697615,
        "lng": 110.5215459
      },
      "province": {
        "id": 12,
        "name": "Kalimantan Barat",
        "lat": -0.2787808,
        "lng": 111.4752851
      },
      "country": {
        "id": 228,
        "name": "INDONESIA",
        "code": "ID"
      },
      "id": 31021,
      "name": "Randau Limat",
      "postcode": "78872",
      "lat": -0.6513897,
      "lng": 110.6884072
    },
    {
      "suburb": {
        "id": 2665,
        "name": "Sungai Laur",
        "lat": -0.7408805,
        "lng": 110.5692179
      },
      "city": {
        "id": 150,
        "name": "Ketapang",
        "lat": -1.5697615,
        "lng": 110.5215459
      },
      "province": {
        "id": 12,
        "name": "Kalimantan Barat",
        "lat": -0.2787808,
        "lng": 111.4752851
      },
      "country": {
        "id": 228,
        "name": "INDONESIA",
        "code": "ID"
      },
      "id": 31022,
      "name": "Riam Bunut",
      "postcode": "78872",
      "lat": -0.978338,
      "lng": 110.4679176
    },
    {
      "suburb": {
        "id": 2665,
        "name": "Sungai Laur",
        "lat": -0.7408805,
        "lng": 110.5692179
      },
      "city": {
        "id": 150,
        "name": "Ketapang",
        "lat": -1.5697615,
        "lng": 110.5215459
      },
      "province": {
        "id": 12,
        "name": "Kalimantan Barat",
        "lat": -0.2787808,
        "lng": 111.4752851
      },
      "country": {
        "id": 228,
        "name": "INDONESIA",
        "code": "ID"
      },
      "id": 31023,
      "name": "Selangkut Raya",
      "postcode": "78872",
      "lat": -0.7316869,
      "lng": 110.628811
    },
    {
      "suburb": {
        "id": 2665,
        "name": "Sungai Laur",
        "lat": -0.7408805,
        "lng": 110.5692179
      },
      "city": {
        "id": 150,
        "name": "Ketapang",
        "lat": -1.5697615,
        "lng": 110.5215459
      },
      "province": {
        "id": 12,
        "name": "Kalimantan Barat",
        "lat": -0.2787808,
        "lng": 111.4752851
      },
      "country": {
        "id": 228,
        "name": "INDONESIA",
        "code": "ID"
      },
      "id": 31024,
      "name": "Lanjut Mekar Sari",
      "postcode": "78872",
      "lat": -0.9105914,
      "lng": 110.5572997
    },
    {
      "suburb": {
        "id": 2665,
        "name": "Sungai Laur",
        "lat": -0.7408805,
        "lng": 110.5692179
      },
      "city": {
        "id": 150,
        "name": "Ketapang",
        "lat": -1.5697615,
        "lng": 110.5215459
      },
      "province": {
        "id": 12,
        "name": "Kalimantan Barat",
        "lat": -0.2787808,
        "lng": 111.4752851
      },
      "country": {
        "id": 228,
        "name": "INDONESIA",
        "code": "ID"
      },
      "id": 31025,
      "name": "Mekar Harapan",
      "postcode": "78872",
      "lat": -1.0187628,
      "lng": 110.4619591
    },
    {
      "suburb": {
        "id": 2665,
        "name": "Sungai Laur",
        "lat": -0.7408805,
        "lng": 110.5692179
      },
      "city": {
        "id": 150,
        "name": "Ketapang",
        "lat": -1.5697615,
        "lng": 110.5215459
      },
      "province": {
        "id": 12,
        "name": "Kalimantan Barat",
        "lat": -0.2787808,
        "lng": 111.4752851
      },
      "country": {
        "id": 228,
        "name": "INDONESIA",
        "code": "ID"
      },
      "id": 31026,
      "name": "Harapan Baru",
      "postcode": "78872",
      "lat": -0.7320301,
      "lng": 110.5572997
    },
    {
      "suburb": {
        "id": 2665,
        "name": "Sungai Laur",
        "lat": -0.7408805,
        "lng": 110.5692179
      },
      "city": {
        "id": 150,
        "name": "Ketapang",
        "lat": -1.5697615,
        "lng": 110.5215459
      },
      "province": {
        "id": 12,
        "name": "Kalimantan Barat",
        "lat": -0.2787808,
        "lng": 111.4752851
      },
      "country": {
        "id": 228,
        "name": "INDONESIA",
        "code": "ID"
      },
      "id": 31027,
      "name": "Kepari",
      "postcode": "78872",
      "lat": -0.8748122,
      "lng": 110.5572997
    },
    {
      "suburb": {
        "id": 2665,
        "name": "Sungai Laur",
        "lat": -0.7408805,
        "lng": 110.5692179
      },
      "city": {
        "id": 150,
        "name": "Ketapang",
        "lat": -1.5697615,
        "lng": 110.5215459
      },
      "province": {
        "id": 12,
        "name": "Kalimantan Barat",
        "lat": -0.2787808,
        "lng": 111.4752851
      },
      "country": {
        "id": 228,
        "name": "INDONESIA",
        "code": "ID"
      },
      "id": 31028,
      "name": "Banyun Sari",
      "postcode": "78872",
      "lat": -0.7408805,
      "lng": 110.5692179
    },
    {
      "suburb": {
        "id": 2665,
        "name": "Sungai Laur",
        "lat": -0.7408805,
        "lng": 110.5692179
      },
      "city": {
        "id": 150,
        "name": "Ketapang",
        "lat": -1.5697615,
        "lng": 110.5215459
      },
      "province": {
        "id": 12,
        "name": "Kalimantan Barat",
        "lat": -0.2787808,
        "lng": 111.4752851
      },
      "country": {
        "id": 228,
        "name": "INDONESIA",
        "code": "ID"
      },
      "id": 31029,
      "name": "Bengaras",
      "postcode": "78872",
      "lat": -0.9646232,
      "lng": 110.5096283
    },
    {
      "suburb": {
        "id": 2666,
        "name": "Hulu Sungai",
        "lat": -0.9889562,
        "lng": 110.902977
      },
      "city": {
        "id": 150,
        "name": "Ketapang",
        "lat": -1.5697615,
        "lng": 110.5215459
      },
      "province": {
        "id": 12,
        "name": "Kalimantan Barat",
        "lat": -0.2787808,
        "lng": 111.4752851
      },
      "country": {
        "id": 228,
        "name": "INDONESIA",
        "code": "ID"
      },
      "id": 31030,
      "name": "Senduruhan",
      "postcode": "78871",
      "lat": -0.9540894,
      "lng": 110.7599266
    },
    {
      "suburb": {
        "id": 2666,
        "name": "Hulu Sungai",
        "lat": -0.9889562,
        "lng": 110.902977
      },
      "city": {
        "id": 150,
        "name": "Ketapang",
        "lat": -1.5697615,
        "lng": 110.5215459
      },
      "province": {
        "id": 12,
        "name": "Kalimantan Barat",
        "lat": -0.2787808,
        "lng": 111.4752851
      },
      "country": {
        "id": 228,
        "name": "INDONESIA",
        "code": "ID"
      },
      "id": 31031,
      "name": "Sungai Bengaras",
      "postcode": "78871",
      "lat": -0.9889562,
      "lng": 110.902977
    },
    {
      "suburb": {
        "id": 2666,
        "name": "Hulu Sungai",
        "lat": -0.9889562,
        "lng": 110.902977
      },
      "city": {
        "id": 150,
        "name": "Ketapang",
        "lat": -1.5697615,
        "lng": 110.5215459
      },
      "province": {
        "id": 12,
        "name": "Kalimantan Barat",
        "lat": -0.2787808,
        "lng": 111.4752851
      },
      "country": {
        "id": 228,
        "name": "INDONESIA",
        "code": "ID"
      },
      "id": 31032,
      "name": "Sekunkun",
      "postcode": "78871",
      "lat": -0.9889562,
      "lng": 110.902977
    },
    {
      "suburb": {
        "id": 2667,
        "name": "Sandai",
        "lat": -1.2430304,
        "lng": 110.5692179
      },
      "city": {
        "id": 150,
        "name": "Ketapang",
        "lat": -1.5697615,
        "lng": 110.5215459
      },
      "province": {
        "id": 12,
        "name": "Kalimantan Barat",
        "lat": -0.2787808,
        "lng": 111.4752851
      },
      "country": {
        "id": 228,
        "name": "INDONESIA",
        "code": "ID"
      },
      "id": 31033,
      "name": "Sandai Kiri",
      "postcode": "78871",
      "lat": -1.216438,
      "lng": 110.5096283
    },
    {
      "suburb": {
        "id": 2666,
        "name": "Hulu Sungai",
        "lat": -0.9889562,
        "lng": 110.902977
      },
      "city": {
        "id": 150,
        "name": "Ketapang",
        "lat": -1.5697615,
        "lng": 110.5215459
      },
      "province": {
        "id": 12,
        "name": "Kalimantan Barat",
        "lat": -0.2787808,
        "lng": 111.4752851
      },
      "country": {
        "id": 228,
        "name": "INDONESIA",
        "code": "ID"
      },
      "id": 31034,
      "name": "Riam Dadap",
      "postcode": "78871",
      "lat": -1.1959557,
      "lng": 110.8195292
    },
    {
      "suburb": {
        "id": 2667,
        "name": "Sandai",
        "lat": -1.2430304,
        "lng": 110.5692179
      },
      "city": {
        "id": 150,
        "name": "Ketapang",
        "lat": -1.5697615,
        "lng": 110.5215459
      },
      "province": {
        "id": 12,
        "name": "Kalimantan Barat",
        "lat": -0.2787808,
        "lng": 111.4752851
      },
      "country": {
        "id": 228,
        "name": "INDONESIA",
        "code": "ID"
      },
      "id": 31035,
      "name": "Sandai Kanan",
      "postcode": "78871",
      "lat": -1.2430304,
      "lng": 110.5692179
    },
    {
      "suburb": {
        "id": 2667,
        "name": "Sandai",
        "lat": -1.2430304,
        "lng": 110.5692179
      },
      "city": {
        "id": 150,
        "name": "Ketapang",
        "lat": -1.5697615,
        "lng": 110.5215459
      },
      "province": {
        "id": 12,
        "name": "Kalimantan Barat",
        "lat": -0.2787808,
        "lng": 111.4752851
      },
      "country": {
        "id": 228,
        "name": "INDONESIA",
        "code": "ID"
      },
      "id": 31036,
      "name": "Randau",
      "postcode": "78871",
      "lat": -1.0448155,
      "lng": 110.5930548
    },
    {
      "suburb": {
        "id": 2667,
        "name": "Sandai",
        "lat": -1.2430304,
        "lng": 110.5692179
      },
      "city": {
        "id": 150,
        "name": "Ketapang",
        "lat": -1.5697615,
        "lng": 110.5215459
      },
      "province": {
        "id": 12,
        "name": "Kalimantan Barat",
        "lat": -0.2787808,
        "lng": 111.4752851
      },
      "country": {
        "id": 228,
        "name": "INDONESIA",
        "code": "ID"
      },
      "id": 31037,
      "name": "Randau Jungkal",
      "postcode": "78871",
      "lat": -1.1879863,
      "lng": 110.6884072
    },
    {
      "suburb": {
        "id": 2667,
        "name": "Sandai",
        "lat": -1.2430304,
        "lng": 110.5692179
      },
      "city": {
        "id": 150,
        "name": "Ketapang",
        "lat": -1.5697615,
        "lng": 110.5215459
      },
      "province": {
        "id": 12,
        "name": "Kalimantan Barat",
        "lat": -0.2787808,
        "lng": 111.4752851
      },
      "country": {
        "id": 228,
        "name": "INDONESIA",
        "code": "ID"
      },
      "id": 31038,
      "name": "Penjawaan",
      "postcode": "78871",
      "lat": -1.2708075,
      "lng": 110.4857934
    },
    {
      "suburb": {
        "id": 2667,
        "name": "Sandai",
        "lat": -1.2430304,
        "lng": 110.5692179
      },
      "city": {
        "id": 150,
        "name": "Ketapang",
        "lat": -1.5697615,
        "lng": 110.5215459
      },
      "province": {
        "id": 12,
        "name": "Kalimantan Barat",
        "lat": -0.2787808,
        "lng": 111.4752851
      },
      "country": {
        "id": 228,
        "name": "INDONESIA",
        "code": "ID"
      },
      "id": 31039,
      "name": "Petai Patah",
      "postcode": "78871",
      "lat": -1.2156793,
      "lng": 110.6049734
    },
    {
      "suburb": {
        "id": 2667,
        "name": "Sandai",
        "lat": -1.2430304,
        "lng": 110.5692179
      },
      "city": {
        "id": 150,
        "name": "Ketapang",
        "lat": -1.5697615,
        "lng": 110.5215459
      },
      "province": {
        "id": 12,
        "name": "Kalimantan Barat",
        "lat": -0.2787808,
        "lng": 111.4752851
      },
      "country": {
        "id": 228,
        "name": "INDONESIA",
        "code": "ID"
      },
      "id": 31040,
      "name": "Muara Jekak",
      "postcode": "78871",
      "lat": -1.2160591,
      "lng": 110.5572997
    },
    {
      "suburb": {
        "id": 2667,
        "name": "Sandai",
        "lat": -1.2430304,
        "lng": 110.5692179
      },
      "city": {
        "id": 150,
        "name": "Ketapang",
        "lat": -1.5697615,
        "lng": 110.5215459
      },
      "province": {
        "id": 12,
        "name": "Kalimantan Barat",
        "lat": -0.2787808,
        "lng": 111.4752851
      },
      "country": {
        "id": 228,
        "name": "INDONESIA",
        "code": "ID"
      },
      "id": 31041,
      "name": "Pendamaran Indah",
      "postcode": "78871",
      "lat": -1.1259663,
      "lng": 110.5572997
    },
    {
      "suburb": {
        "id": 2667,
        "name": "Sandai",
        "lat": -1.2430304,
        "lng": 110.5692179
      },
      "city": {
        "id": 150,
        "name": "Ketapang",
        "lat": -1.5697615,
        "lng": 110.5215459
      },
      "province": {
        "id": 12,
        "name": "Kalimantan Barat",
        "lat": -0.2787808,
        "lng": 111.4752851
      },
      "country": {
        "id": 228,
        "name": "INDONESIA",
        "code": "ID"
      },
      "id": 31042,
      "name": "Merimbang Jaya",
      "postcode": "78871",
      "lat": -1.1074533,
      "lng": 110.628811
    },
    {
      "suburb": {
        "id": 2666,
        "name": "Hulu Sungai",
        "lat": -0.9889562,
        "lng": 110.902977
      },
      "city": {
        "id": 150,
        "name": "Ketapang",
        "lat": -1.5697615,
        "lng": 110.5215459
      },
      "province": {
        "id": 12,
        "name": "Kalimantan Barat",
        "lat": -0.2787808,
        "lng": 111.4752851
      },
      "country": {
        "id": 228,
        "name": "INDONESIA",
        "code": "ID"
      },
      "id": 31043,
      "name": "Menyumbung",
      "postcode": "78871",
      "lat": -1.0170129,
      "lng": 110.7241664
    },
    {
      "suburb": {
        "id": 2666,
        "name": "Hulu Sungai",
        "lat": -0.9889562,
        "lng": 110.902977
      },
      "city": {
        "id": 150,
        "name": "Ketapang",
        "lat": -1.5697615,
        "lng": 110.5215459
      },
      "province": {
        "id": 12,
        "name": "Kalimantan Barat",
        "lat": -0.2787808,
        "lng": 111.4752851
      },
      "country": {
        "id": 228,
        "name": "INDONESIA",
        "code": "ID"
      },
      "id": 31044,
      "name": "Krio Hulu",
      "postcode": "78871",
      "lat": -0.880895,
      "lng": 111.0460407
    },
    {
      "suburb": {
        "id": 2666,
        "name": "Hulu Sungai",
        "lat": -0.9889562,
        "lng": 110.902977
      },
      "city": {
        "id": 150,
        "name": "Ketapang",
        "lat": -1.5697615,
        "lng": 110.5215459
      },
      "province": {
        "id": 12,
        "name": "Kalimantan Barat",
        "lat": -0.2787808,
        "lng": 111.4752851
      },
      "country": {
        "id": 228,
        "name": "INDONESIA",
        "code": "ID"
      },
      "id": 31045,
      "name": "Lubuk Kakap",
      "postcode": "78871",
      "lat": -1.3103046,
      "lng": 111.1414226
    },
    {
      "suburb": {
        "id": 2666,
        "name": "Hulu Sungai",
        "lat": -0.9889562,
        "lng": 110.902977
      },
      "city": {
        "id": 150,
        "name": "Ketapang",
        "lat": -1.5697615,
        "lng": 110.5215459
      },
      "province": {
        "id": 12,
        "name": "Kalimantan Barat",
        "lat": -0.2787808,
        "lng": 111.4752851
      },
      "country": {
        "id": 228,
        "name": "INDONESIA",
        "code": "ID"
      },
      "id": 31046,
      "name": "Kenyabur",
      "postcode": "78871",
      "lat": -0.6499457,
      "lng": 111.022196
    },
    {
      "suburb": {
        "id": 2667,
        "name": "Sandai",
        "lat": -1.2430304,
        "lng": 110.5692179
      },
      "city": {
        "id": 150,
        "name": "Ketapang",
        "lat": -1.5697615,
        "lng": 110.5215459
      },
      "province": {
        "id": 12,
        "name": "Kalimantan Barat",
        "lat": -0.2787808,
        "lng": 111.4752851
      },
      "country": {
        "id": 228,
        "name": "INDONESIA",
        "code": "ID"
      },
      "id": 31047,
      "name": "Jago Bersatu",
      "postcode": "78871",
      "lat": -1.2213763,
      "lng": 110.4560006
    },
    {
      "suburb": {
        "id": 2666,
        "name": "Hulu Sungai",
        "lat": -0.9889562,
        "lng": 110.902977
      },
      "city": {
        "id": 150,
        "name": "Ketapang",
        "lat": -1.5697615,
        "lng": 110.5215459
      },
      "province": {
        "id": 12,
        "name": "Kalimantan Barat",
        "lat": -0.2787808,
        "lng": 111.4752851
      },
      "country": {
        "id": 228,
        "name": "INDONESIA",
        "code": "ID"
      },
      "id": 31048,
      "name": "Cinta Manis",
      "postcode": "78871",
      "lat": -1.1419933,
      "lng": 110.8195292
    },
    {
      "suburb": {
        "id": 2667,
        "name": "Sandai",
        "lat": -1.2430304,
        "lng": 110.5692179
      },
      "city": {
        "id": 150,
        "name": "Ketapang",
        "lat": -1.5697615,
        "lng": 110.5215459
      },
      "province": {
        "id": 12,
        "name": "Kalimantan Barat",
        "lat": -0.2787808,
        "lng": 111.4752851
      },
      "country": {
        "id": 228,
        "name": "INDONESIA",
        "code": "ID"
      },
      "id": 31049,
      "name": "Demit",
      "postcode": "78871",
      "lat": -1.2509785,
      "lng": 110.7003268
    },
    {
      "suburb": {
        "id": 2666,
        "name": "Hulu Sungai",
        "lat": -0.9889562,
        "lng": 110.902977
      },
      "city": {
        "id": 150,
        "name": "Ketapang",
        "lat": -1.5697615,
        "lng": 110.5215459
      },
      "province": {
        "id": 12,
        "name": "Kalimantan Barat",
        "lat": -0.2787808,
        "lng": 111.4752851
      },
      "country": {
        "id": 228,
        "name": "INDONESIA",
        "code": "ID"
      },
      "id": 31050,
      "name": "Benua Krio",
      "postcode": "78871",
      "lat": -1.0797278,
      "lng": 110.7360863
    },
    {
      "suburb": {
        "id": 2666,
        "name": "Hulu Sungai",
        "lat": -0.9889562,
        "lng": 110.902977
      },
      "city": {
        "id": 150,
        "name": "Ketapang",
        "lat": -1.5697615,
        "lng": 110.5215459
      },
      "province": {
        "id": 12,
        "name": "Kalimantan Barat",
        "lat": -0.2787808,
        "lng": 111.4752851
      },
      "country": {
        "id": 228,
        "name": "INDONESIA",
        "code": "ID"
      },
      "id": 31051,
      "name": "Beginci Darat",
      "postcode": "78871",
      "lat": -1.1671993,
      "lng": 111.0460407
    },
    {
      "suburb": {
        "id": 2666,
        "name": "Hulu Sungai",
        "lat": -0.9889562,
        "lng": 110.902977
      },
      "city": {
        "id": 150,
        "name": "Ketapang",
        "lat": -1.5697615,
        "lng": 110.5215459
      },
      "province": {
        "id": 12,
        "name": "Kalimantan Barat",
        "lat": -0.2787808,
        "lng": 111.4752851
      },
      "country": {
        "id": 228,
        "name": "INDONESIA",
        "code": "ID"
      },
      "id": 31052,
      "name": "Batu Lapis",
      "postcode": "78871",
      "lat": -1.3306601,
      "lng": 110.8791343
    },
    {
      "suburb": {
        "id": 2668,
        "name": "Manis Mata",
        "lat": -2.4815176,
        "lng": 111.0460407
      },
      "city": {
        "id": 150,
        "name": "Ketapang",
        "lat": -1.5697615,
        "lng": 110.5215459
      },
      "province": {
        "id": 12,
        "name": "Kalimantan Barat",
        "lat": -0.2787808,
        "lng": 111.4752851
      },
      "country": {
        "id": 228,
        "name": "INDONESIA",
        "code": "ID"
      },
      "id": 31053,
      "name": "Terusan",
      "postcode": "78864",
      "lat": -2.2338469,
      "lng": 110.9148985
    },
    {
      "suburb": {
        "id": 2667,
        "name": "Sandai",
        "lat": -1.2430304,
        "lng": 110.5692179
      },
      "city": {
        "id": 150,
        "name": "Ketapang",
        "lat": -1.5697615,
        "lng": 110.5215459
      },
      "province": {
        "id": 12,
        "name": "Kalimantan Barat",
        "lat": -0.2787808,
        "lng": 111.4752851
      },
      "country": {
        "id": 228,
        "name": "INDONESIA",
        "code": "ID"
      },
      "id": 31054,
      "name": "Alam Pakuan",
      "postcode": "78871",
      "lat": -1.0532171,
      "lng": 110.6764877
    },
    {
      "suburb": {
        "id": 2668,
        "name": "Manis Mata",
        "lat": -2.4815176,
        "lng": 111.0460407
      },
      "city": {
        "id": 150,
        "name": "Ketapang",
        "lat": -1.5697615,
        "lng": 110.5215459
      },
      "province": {
        "id": 12,
        "name": "Kalimantan Barat",
        "lat": -0.2787808,
        "lng": 111.4752851
      },
      "country": {
        "id": 228,
        "name": "INDONESIA",
        "code": "ID"
      },
      "id": 31055,
      "name": "Sungai Buluh",
      "postcode": "78864",
      "lat": -2.574753,
      "lng": 111.022196
    },
    {
      "suburb": {
        "id": 2668,
        "name": "Manis Mata",
        "lat": -2.4815176,
        "lng": 111.0460407
      },
      "city": {
        "id": 150,
        "name": "Ketapang",
        "lat": -1.5697615,
        "lng": 110.5215459
      },
      "province": {
        "id": 12,
        "name": "Kalimantan Barat",
        "lat": -0.2787808,
        "lng": 111.4752851
      },
      "country": {
        "id": 228,
        "name": "INDONESIA",
        "code": "ID"
      },
      "id": 31056,
      "name": "Suak Burung",
      "postcode": "78864",
      "lat": -2.3424678,
      "lng": 111.0579632
    },
    {
      "suburb": {
        "id": 2668,
        "name": "Manis Mata",
        "lat": -2.4815176,
        "lng": 111.0460407
      },
      "city": {
        "id": 150,
        "name": "Ketapang",
        "lat": -1.5697615,
        "lng": 110.5215459
      },
      "province": {
        "id": 12,
        "name": "Kalimantan Barat",
        "lat": -0.2787808,
        "lng": 111.4752851
      },
      "country": {
        "id": 228,
        "name": "INDONESIA",
        "code": "ID"
      },
      "id": 31057,
      "name": "Suka Ramai",
      "postcode": "78864",
      "lat": -2.7219639,
      "lng": 111.1175767
    },
    {
      "suburb": {
        "id": 2668,
        "name": "Manis Mata",
        "lat": -2.4815176,
        "lng": 111.0460407
      },
      "city": {
        "id": 150,
        "name": "Ketapang",
        "lat": -1.5697615,
        "lng": 110.5215459
      },
      "province": {
        "id": 12,
        "name": "Kalimantan Barat",
        "lat": -0.2787808,
        "lng": 111.4752851
      },
      "country": {
        "id": 228,
        "name": "INDONESIA",
        "code": "ID"
      },
      "id": 31058,
      "name": "Sengkuang Merabung",
      "postcode": "78864",
      "lat": -2.4815176,
      "lng": 111.0460407
    },
    {
      "suburb": {
        "id": 2668,
        "name": "Manis Mata",
        "lat": -2.4815176,
        "lng": 111.0460407
      },
      "city": {
        "id": 150,
        "name": "Ketapang",
        "lat": -1.5697615,
        "lng": 110.5215459
      },
      "province": {
        "id": 12,
        "name": "Kalimantan Barat",
        "lat": -0.2787808,
        "lng": 111.4752851
      },
      "country": {
        "id": 228,
        "name": "INDONESIA",
        "code": "ID"
      },
      "id": 31059,
      "name": "Silat",
      "postcode": "78864",
      "lat": -2.279098,
      "lng": 110.9745074
    },
    {
      "suburb": {
        "id": 2668,
        "name": "Manis Mata",
        "lat": -2.4815176,
        "lng": 111.0460407
      },
      "city": {
        "id": 150,
        "name": "Ketapang",
        "lat": -1.5697615,
        "lng": 110.5215459
      },
      "province": {
        "id": 12,
        "name": "Kalimantan Barat",
        "lat": -0.2787808,
        "lng": 111.4752851
      },
      "country": {
        "id": 228,
        "name": "INDONESIA",
        "code": "ID"
      },
      "id": 31060,
      "name": "Pelempangan",
      "postcode": "78864",
      "lat": -2.1399757,
      "lng": 111.0341183
    },
    {
      "suburb": {
        "id": 2668,
        "name": "Manis Mata",
        "lat": -2.4815176,
        "lng": 111.0460407
      },
      "city": {
        "id": 150,
        "name": "Ketapang",
        "lat": -1.5697615,
        "lng": 110.5215459
      },
      "province": {
        "id": 12,
        "name": "Kalimantan Barat",
        "lat": -0.2787808,
        "lng": 111.4752851
      },
      "country": {
        "id": 228,
        "name": "INDONESIA",
        "code": "ID"
      },
      "id": 31061,
      "name": "Ratu Elok",
      "postcode": "78864",
      "lat": -2.4933712,
      "lng": 110.8910556
    },
    {
      "suburb": {
        "id": 2668,
        "name": "Manis Mata",
        "lat": -2.4815176,
        "lng": 111.0460407
      },
      "city": {
        "id": 150,
        "name": "Ketapang",
        "lat": -1.5697615,
        "lng": 110.5215459
      },
      "province": {
        "id": 12,
        "name": "Kalimantan Barat",
        "lat": -0.2787808,
        "lng": 111.4752851
      },
      "country": {
        "id": 228,
        "name": "INDONESIA",
        "code": "ID"
      },
      "id": 31062,
      "name": "Seguling",
      "postcode": "78864",
      "lat": -2.5826005,
      "lng": 111.1056539
    },
    {
      "suburb": {
        "id": 2668,
        "name": "Manis Mata",
        "lat": -2.4815176,
        "lng": 111.0460407
      },
      "city": {
        "id": 150,
        "name": "Ketapang",
        "lat": -1.5697615,
        "lng": 110.5215459
      },
      "province": {
        "id": 12,
        "name": "Kalimantan Barat",
        "lat": -0.2787808,
        "lng": 111.4752851
      },
      "country": {
        "id": 228,
        "name": "INDONESIA",
        "code": "ID"
      },
      "id": 31063,
      "name": "Mekar Jaya",
      "postcode": "78864",
      "lat": -2.3617103,
      "lng": 111.0102737
    },
    {
      "suburb": {
        "id": 2668,
        "name": "Manis Mata",
        "lat": -2.4815176,
        "lng": 111.0460407
      },
      "city": {
        "id": 150,
        "name": "Ketapang",
        "lat": -1.5697615,
        "lng": 110.5215459
      },
      "province": {
        "id": 12,
        "name": "Kalimantan Barat",
        "lat": -0.2787808,
        "lng": 111.4752851
      },
      "country": {
        "id": 228,
        "name": "INDONESIA",
        "code": "ID"
      },
      "id": 31064,
      "name": "Pakit Selaba",
      "postcode": "78864",
      "lat": -2.2139868,
      "lng": 111.0102737
    },
    {
      "suburb": {
        "id": 2668,
        "name": "Manis Mata",
        "lat": -2.4815176,
        "lng": 111.0460407
      },
      "city": {
        "id": 150,
        "name": "Ketapang",
        "lat": -1.5697615,
        "lng": 110.5215459
      },
      "province": {
        "id": 12,
        "name": "Kalimantan Barat",
        "lat": -0.2787808,
        "lng": 111.4752851
      },
      "country": {
        "id": 228,
        "name": "INDONESIA",
        "code": "ID"
      },
      "id": 31065,
      "name": "Lembah Mukti",
      "postcode": "78864",
      "lat": -2.3309289,
      "lng": 110.9089378
    },
    {
      "suburb": {
        "id": 2668,
        "name": "Manis Mata",
        "lat": -2.4815176,
        "lng": 111.0460407
      },
      "city": {
        "id": 150,
        "name": "Ketapang",
        "lat": -1.5697615,
        "lng": 110.5215459
      },
      "province": {
        "id": 12,
        "name": "Kalimantan Barat",
        "lat": -0.2787808,
        "lng": 111.4752851
      },
      "country": {
        "id": 228,
        "name": "INDONESIA",
        "code": "ID"
      },
      "id": 31066,
      "name": "Manis Mata",
      "postcode": "78864",
      "lat": -2.454689,
      "lng": 110.9864294
    },
    {
      "suburb": {
        "id": 2668,
        "name": "Manis Mata",
        "lat": -2.4815176,
        "lng": 111.0460407
      },
      "city": {
        "id": 150,
        "name": "Ketapang",
        "lat": -1.5697615,
        "lng": 110.5215459
      },
      "province": {
        "id": 12,
        "name": "Kalimantan Barat",
        "lat": -0.2787808,
        "lng": 111.4752851
      },
      "country": {
        "id": 228,
        "name": "INDONESIA",
        "code": "ID"
      },
      "id": 31067,
      "name": "Kemuning",
      "postcode": "78864",
      "lat": -2.2105232,
      "lng": 110.9327809
    },
    {
      "suburb": {
        "id": 2668,
        "name": "Manis Mata",
        "lat": -2.4815176,
        "lng": 111.0460407
      },
      "city": {
        "id": 150,
        "name": "Ketapang",
        "lat": -1.5697615,
        "lng": 110.5215459
      },
      "province": {
        "id": 12,
        "name": "Kalimantan Barat",
        "lat": -0.2787808,
        "lng": 111.4752851
      },
      "country": {
        "id": 228,
        "name": "INDONESIA",
        "code": "ID"
      },
      "id": 31068,
      "name": "Kelampai",
      "postcode": "78864",
      "lat": -2.1406592,
      "lng": 110.9864294
    },
    {
      "suburb": {
        "id": 2668,
        "name": "Manis Mata",
        "lat": -2.4815176,
        "lng": 111.0460407
      },
      "city": {
        "id": 150,
        "name": "Ketapang",
        "lat": -1.5697615,
        "lng": 110.5215459
      },
      "province": {
        "id": 12,
        "name": "Kalimantan Barat",
        "lat": -0.2787808,
        "lng": 111.4752851
      },
      "country": {
        "id": 228,
        "name": "INDONESIA",
        "code": "ID"
      },
      "id": 31069,
      "name": "Kelimantan",
      "postcode": "78864",
      "lat": -2.3294449,
      "lng": 111.0043126
    },
    {
      "suburb": {
        "id": 2668,
        "name": "Manis Mata",
        "lat": -2.4815176,
        "lng": 111.0460407
      },
      "city": {
        "id": 150,
        "name": "Ketapang",
        "lat": -1.5697615,
        "lng": 110.5215459
      },
      "province": {
        "id": 12,
        "name": "Kalimantan Barat",
        "lat": -0.2787808,
        "lng": 111.4752851
      },
      "country": {
        "id": 228,
        "name": "INDONESIA",
        "code": "ID"
      },
      "id": 31070,
      "name": "Jambi",
      "postcode": "78864",
      "lat": -2.6864214,
      "lng": 111.022196
    },
    {
      "suburb": {
        "id": 2668,
        "name": "Manis Mata",
        "lat": -2.4815176,
        "lng": 111.0460407
      },
      "city": {
        "id": 150,
        "name": "Ketapang",
        "lat": -1.5697615,
        "lng": 110.5215459
      },
      "province": {
        "id": 12,
        "name": "Kalimantan Barat",
        "lat": -0.2787808,
        "lng": 111.4752851
      },
      "country": {
        "id": 228,
        "name": "INDONESIA",
        "code": "ID"
      },
      "id": 31071,
      "name": "Bukit Gajah",
      "postcode": "78864",
      "lat": -2.3314837,
      "lng": 110.8731737
    },
    {
      "suburb": {
        "id": 2668,
        "name": "Manis Mata",
        "lat": -2.4815176,
        "lng": 111.0460407
      },
      "city": {
        "id": 150,
        "name": "Ketapang",
        "lat": -1.5697615,
        "lng": 110.5215459
      },
      "province": {
        "id": 12,
        "name": "Kalimantan Barat",
        "lat": -0.2787808,
        "lng": 111.4752851
      },
      "country": {
        "id": 228,
        "name": "INDONESIA",
        "code": "ID"
      },
      "id": 31072,
      "name": "Batu Sedau",
      "postcode": "78864",
      "lat": -2.3979544,
      "lng": 111.0579632
    },
    {
      "suburb": {
        "id": 2668,
        "name": "Manis Mata",
        "lat": -2.4815176,
        "lng": 111.0460407
      },
      "city": {
        "id": 150,
        "name": "Ketapang",
        "lat": -1.5697615,
        "lng": 110.5215459
      },
      "province": {
        "id": 12,
        "name": "Kalimantan Barat",
        "lat": -0.2787808,
        "lng": 111.4752851
      },
      "country": {
        "id": 228,
        "name": "INDONESIA",
        "code": "ID"
      },
      "id": 31073,
      "name": "Air Dekakah",
      "postcode": "78864",
      "lat": -2.3439642,
      "lng": 110.9625854
    },
    {
      "suburb": {
        "id": 2668,
        "name": "Manis Mata",
        "lat": -2.4815176,
        "lng": 111.0460407
      },
      "city": {
        "id": 150,
        "name": "Ketapang",
        "lat": -1.5697615,
        "lng": 110.5215459
      },
      "province": {
        "id": 12,
        "name": "Kalimantan Barat",
        "lat": -0.2787808,
        "lng": 111.4752851
      },
      "country": {
        "id": 228,
        "name": "INDONESIA",
        "code": "ID"
      },
      "id": 31074,
      "name": "Asam Besar",
      "postcode": "78864",
      "lat": -2.3907981,
      "lng": 110.9268201
    },
    {
      "suburb": {
        "id": 2669,
        "name": "Singkup",
        "lat": -2.321899,
        "lng": 110.5930548
      },
      "city": {
        "id": 150,
        "name": "Ketapang",
        "lat": -1.5697615,
        "lng": 110.5215459
      },
      "province": {
        "id": 12,
        "name": "Kalimantan Barat",
        "lat": -0.2787808,
        "lng": 111.4752851
      },
      "country": {
        "id": 228,
        "name": "INDONESIA",
        "code": "ID"
      },
      "id": 31075,
      "name": "Sukasari",
      "postcode": "78863",
      "lat": -2.3869841,
      "lng": 110.5811363
    },
    {
      "suburb": {
        "id": 2669,
        "name": "Singkup",
        "lat": -2.321899,
        "lng": 110.5930548
      },
      "city": {
        "id": 150,
        "name": "Ketapang",
        "lat": -1.5697615,
        "lng": 110.5215459
      },
      "province": {
        "id": 12,
        "name": "Kalimantan Barat",
        "lat": -0.2787808,
        "lng": 111.4752851
      },
      "country": {
        "id": 228,
        "name": "INDONESIA",
        "code": "ID"
      },
      "id": 31076,
      "name": "Tanah Hitam",
      "postcode": "78863",
      "lat": -2.4324535,
      "lng": 110.64073
    },
    {
      "suburb": {
        "id": 2670,
        "name": "Air Upas",
        "lat": -2.4119921,
        "lng": 110.7599266
      },
      "city": {
        "id": 150,
        "name": "Ketapang",
        "lat": -1.5697615,
        "lng": 110.5215459
      },
      "province": {
        "id": 12,
        "name": "Kalimantan Barat",
        "lat": -0.2787808,
        "lng": 111.4752851
      },
      "country": {
        "id": 228,
        "name": "INDONESIA",
        "code": "ID"
      },
      "id": 31077,
      "name": "Sukaria",
      "postcode": "78863",
      "lat": -2.2732846,
      "lng": 110.7480064
    },
    {
      "suburb": {
        "id": 2669,
        "name": "Singkup",
        "lat": -2.321899,
        "lng": 110.5930548
      },
      "city": {
        "id": 150,
        "name": "Ketapang",
        "lat": -1.5697615,
        "lng": 110.5215459
      },
      "province": {
        "id": 12,
        "name": "Kalimantan Barat",
        "lat": -0.2787808,
        "lng": 111.4752851
      },
      "country": {
        "id": 228,
        "name": "INDONESIA",
        "code": "ID"
      },
      "id": 31078,
      "name": "Sukaraja",
      "postcode": "78863",
      "lat": -2.3313462,
      "lng": 110.5811363
    },
    {
      "suburb": {
        "id": 2671,
        "name": "Marau",
        "lat": -2.1175779,
        "lng": 110.6645683
      },
      "city": {
        "id": 150,
        "name": "Ketapang",
        "lat": -1.5697615,
        "lng": 110.5215459
      },
      "province": {
        "id": 12,
        "name": "Kalimantan Barat",
        "lat": -0.2787808,
        "lng": 111.4752851
      },
      "country": {
        "id": 228,
        "name": "INDONESIA",
        "code": "ID"
      },
      "id": 31079,
      "name": "Suka Karya",
      "postcode": "78863",
      "lat": -2.1631721,
      "lng": 110.7003268
    },
    {
      "suburb": {
        "id": 2669,
        "name": "Singkup",
        "lat": -2.321899,
        "lng": 110.5930548
      },
      "city": {
        "id": 150,
        "name": "Ketapang",
        "lat": -1.5697615,
        "lng": 110.5215459
      },
      "province": {
        "id": 12,
        "name": "Kalimantan Barat",
        "lat": -0.2787808,
        "lng": 111.4752851
      },
      "country": {
        "id": 228,
        "name": "INDONESIA",
        "code": "ID"
      },
      "id": 31080,
      "name": "Sukaharja",
      "postcode": "78863",
      "lat": -2.3487822,
      "lng": 110.6526491
    },
    {
      "suburb": {
        "id": 2669,
        "name": "Singkup",
        "lat": -2.321899,
        "lng": 110.5930548
      },
      "city": {
        "id": 150,
        "name": "Ketapang",
        "lat": -1.5697615,
        "lng": 110.5215459
      },
      "province": {
        "id": 12,
        "name": "Kalimantan Barat",
        "lat": -0.2787808,
        "lng": 111.4752851
      },
      "country": {
        "id": 228,
        "name": "INDONESIA",
        "code": "ID"
      },
      "id": 31081,
      "name": "Sukamulya",
      "postcode": "78863",
      "lat": -2.2478493,
      "lng": 110.5930548
    },
    {
      "suburb": {
        "id": 2671,
        "name": "Marau",
        "lat": -2.1175779,
        "lng": 110.6645683
      },
      "city": {
        "id": 150,
        "name": "Ketapang",
        "lat": -1.5697615,
        "lng": 110.5215459
      },
      "province": {
        "id": 12,
        "name": "Kalimantan Barat",
        "lat": -0.2787808,
        "lng": 111.4752851
      },
      "country": {
        "id": 228,
        "name": "INDONESIA",
        "code": "ID"
      },
      "id": 31082,
      "name": "Runjai Jaya",
      "postcode": "78863",
      "lat": -2.1062069,
      "lng": 110.8195292
    },
    {
      "suburb": {
        "id": 2670,
        "name": "Air Upas",
        "lat": -2.4119921,
        "lng": 110.7599266
      },
      "city": {
        "id": 150,
        "name": "Ketapang",
        "lat": -1.5697615,
        "lng": 110.5215459
      },
      "province": {
        "id": 12,
        "name": "Kalimantan Barat",
        "lat": -0.2787808,
        "lng": 111.4752851
      },
      "country": {
        "id": 228,
        "name": "INDONESIA",
        "code": "ID"
      },
      "id": 31083,
      "name": "Sari Bekayas",
      "postcode": "78863",
      "lat": -2.3041071,
      "lng": 110.8493314
    },
    {
      "suburb": {
        "id": 2671,
        "name": "Marau",
        "lat": -2.1175779,
        "lng": 110.6645683
      },
      "city": {
        "id": 150,
        "name": "Ketapang",
        "lat": -1.5697615,
        "lng": 110.5215459
      },
      "province": {
        "id": 12,
        "name": "Kalimantan Barat",
        "lat": -0.2787808,
        "lng": 111.4752851
      },
      "country": {
        "id": 228,
        "name": "INDONESIA",
        "code": "ID"
      },
      "id": 31084,
      "name": "Rangkong",
      "postcode": "78863",
      "lat": -2.1175779,
      "lng": 110.6645683
    },
    {
      "suburb": {
        "id": 2671,
        "name": "Marau",
        "lat": -2.1175779,
        "lng": 110.6645683
      },
      "city": {
        "id": 150,
        "name": "Ketapang",
        "lat": -1.5697615,
        "lng": 110.5215459
      },
      "province": {
        "id": 12,
        "name": "Kalimantan Barat",
        "lat": -0.2787808,
        "lng": 111.4752851
      },
      "country": {
        "id": 228,
        "name": "INDONESIA",
        "code": "ID"
      },
      "id": 31085,
      "name": "Riam Batu Gadig",
      "postcode": "78863",
      "lat": -2.088791,
      "lng": 110.7480064
    },
    {
      "suburb": {
        "id": 2671,
        "name": "Marau",
        "lat": -2.1175779,
        "lng": 110.6645683
      },
      "city": {
        "id": 150,
        "name": "Ketapang",
        "lat": -1.5697615,
        "lng": 110.5215459
      },
      "province": {
        "id": 12,
        "name": "Kalimantan Barat",
        "lat": -0.2787808,
        "lng": 111.4752851
      },
      "country": {
        "id": 228,
        "name": "INDONESIA",
        "code": "ID"
      },
      "id": 31086,
      "name": "Randai",
      "postcode": "78863",
      "lat": -2.110504,
      "lng": 110.5096283
    },
    {
      "suburb": {
        "id": 2669,
        "name": "Singkup",
        "lat": -2.321899,
        "lng": 110.5930548
      },
      "city": {
        "id": 150,
        "name": "Ketapang",
        "lat": -1.5697615,
        "lng": 110.5215459
      },
      "province": {
        "id": 12,
        "name": "Kalimantan Barat",
        "lat": -0.2787808,
        "lng": 111.4752851
      },
      "country": {
        "id": 228,
        "name": "INDONESIA",
        "code": "ID"
      },
      "id": 31087,
      "name": "Pantai Ketikal",
      "postcode": "78863",
      "lat": -2.4973045,
      "lng": 110.6526491
    },
    {
      "suburb": {
        "id": 2671,
        "name": "Marau",
        "lat": -2.1175779,
        "lng": 110.6645683
      },
      "city": {
        "id": 150,
        "name": "Ketapang",
        "lat": -1.5697615,
        "lng": 110.5215459
      },
      "province": {
        "id": 12,
        "name": "Kalimantan Barat",
        "lat": -0.2787808,
        "lng": 111.4752851
      },
      "country": {
        "id": 228,
        "name": "INDONESIA",
        "code": "ID"
      },
      "id": 31088,
      "name": "Planjau Jaya",
      "postcode": "78863",
      "lat": -2.2747132,
      "lng": 110.6526491
    },
    {
      "suburb": {
        "id": 2669,
        "name": "Singkup",
        "lat": -2.321899,
        "lng": 110.5930548
      },
      "city": {
        "id": 150,
        "name": "Ketapang",
        "lat": -1.5697615,
        "lng": 110.5215459
      },
      "province": {
        "id": 12,
        "name": "Kalimantan Barat",
        "lat": -0.2787808,
        "lng": 111.4752851
      },
      "country": {
        "id": 228,
        "name": "INDONESIA",
        "code": "ID"
      },
      "id": 31089,
      "name": "Muntai",
      "postcode": "78863",
      "lat": -2.3902214,
      "lng": 110.670528
    },
    {
      "suburb": {
        "id": 2670,
        "name": "Air Upas",
        "lat": -2.4119921,
        "lng": 110.7599266
      },
      "city": {
        "id": 150,
        "name": "Ketapang",
        "lat": -1.5697615,
        "lng": 110.5215459
      },
      "province": {
        "id": 12,
        "name": "Kalimantan Barat",
        "lat": -0.2787808,
        "lng": 111.4752851
      },
      "country": {
        "id": 228,
        "name": "INDONESIA",
        "code": "ID"
      },
      "id": 31090,
      "name": "Mekar Jaya",
      "postcode": "78863",
      "lat": -2.272209,
      "lng": 110.8195292
    },
    {
      "suburb": {
        "id": 2670,
        "name": "Air Upas",
        "lat": -2.4119921,
        "lng": 110.7599266
      },
      "city": {
        "id": 150,
        "name": "Ketapang",
        "lat": -1.5697615,
        "lng": 110.5215459
      },
      "province": {
        "id": 12,
        "name": "Kalimantan Barat",
        "lat": -0.2787808,
        "lng": 111.4752851
      },
      "country": {
        "id": 228,
        "name": "INDONESIA",
        "code": "ID"
      },
      "id": 31091,
      "name": "Membuluh Baru",
      "postcode": "78863",
      "lat": -2.3938247,
      "lng": 110.7360863
    },
    {
      "suburb": {
        "id": 2670,
        "name": "Air Upas",
        "lat": -2.4119921,
        "lng": 110.7599266
      },
      "city": {
        "id": 150,
        "name": "Ketapang",
        "lat": -1.5697615,
        "lng": 110.5215459
      },
      "province": {
        "id": 12,
        "name": "Kalimantan Barat",
        "lat": -0.2787808,
        "lng": 111.4752851
      },
      "country": {
        "id": 228,
        "name": "INDONESIA",
        "code": "ID"
      },
      "id": 31092,
      "name": "Harapan Baru",
      "postcode": "78863",
      "lat": -2.2714899,
      "lng": 110.8672131
    },
    {
      "suburb": {
        "id": 2671,
        "name": "Marau",
        "lat": -2.1175779,
        "lng": 110.6645683
      },
      "city": {
        "id": 150,
        "name": "Ketapang",
        "lat": -1.5697615,
        "lng": 110.5215459
      },
      "province": {
        "id": 12,
        "name": "Kalimantan Barat",
        "lat": -0.2787808,
        "lng": 111.4752851
      },
      "country": {
        "id": 228,
        "name": "INDONESIA",
        "code": "ID"
      },
      "id": 31093,
      "name": "Karya Baru",
      "postcode": "78863",
      "lat": -2.237025,
      "lng": 110.7003268
    },
    {
      "suburb": {
        "id": 2670,
        "name": "Air Upas",
        "lat": -2.4119921,
        "lng": 110.7599266
      },
      "city": {
        "id": 150,
        "name": "Ketapang",
        "lat": -1.5697615,
        "lng": 110.5215459
      },
      "province": {
        "id": 12,
        "name": "Kalimantan Barat",
        "lat": -0.2787808,
        "lng": 111.4752851
      },
      "country": {
        "id": 228,
        "name": "INDONESIA",
        "code": "ID"
      },
      "id": 31094,
      "name": "Gahang",
      "postcode": "78863",
      "lat": -2.3155438,
      "lng": 110.7062867
    },
    {
      "suburb": {
        "id": 2669,
        "name": "Singkup",
        "lat": -2.321899,
        "lng": 110.5930548
      },
      "city": {
        "id": 150,
        "name": "Ketapang",
        "lat": -1.5697615,
        "lng": 110.5215459
      },
      "province": {
        "id": 12,
        "name": "Kalimantan Barat",
        "lat": -0.2787808,
        "lng": 111.4752851
      },
      "country": {
        "id": 228,
        "name": "INDONESIA",
        "code": "ID"
      },
      "id": 31095,
      "name": "Bukit Kelambing",
      "postcode": "78863",
      "lat": -2.3716763,
      "lng": 110.670528
    },
    {
      "suburb": {
        "id": 2671,
        "name": "Marau",
        "lat": -2.1175779,
        "lng": 110.6645683
      },
      "city": {
        "id": 150,
        "name": "Ketapang",
        "lat": -1.5697615,
        "lng": 110.5215459
      },
      "province": {
        "id": 12,
        "name": "Kalimantan Barat",
        "lat": -0.2787808,
        "lng": 111.4752851
      },
      "country": {
        "id": 228,
        "name": "INDONESIA",
        "code": "ID"
      },
      "id": 31096,
      "name": "Batu Payung",
      "postcode": "78863",
      "lat": -2.0271059,
      "lng": 110.5453816
    },
    {
      "suburb": {
        "id": 2671,
        "name": "Marau",
        "lat": -2.1175779,
        "lng": 110.6645683
      },
      "city": {
        "id": 150,
        "name": "Ketapang",
        "lat": -1.5697615,
        "lng": 110.5215459
      },
      "province": {
        "id": 12,
        "name": "Kalimantan Barat",
        "lat": -0.2787808,
        "lng": 111.4752851
      },
      "country": {
        "id": 228,
        "name": "INDONESIA",
        "code": "ID"
      },
      "id": 31097,
      "name": "Belaban",
      "postcode": "78863",
      "lat": -2.0994796,
      "lng": 110.64073
    },
    {
      "suburb": {
        "id": 2670,
        "name": "Air Upas",
        "lat": -2.4119921,
        "lng": 110.7599266
      },
      "city": {
        "id": 150,
        "name": "Ketapang",
        "lat": -1.5697615,
        "lng": 110.5215459
      },
      "province": {
        "id": 12,
        "name": "Kalimantan Barat",
        "lat": -0.2787808,
        "lng": 111.4752851
      },
      "country": {
        "id": 228,
        "name": "INDONESIA",
        "code": "ID"
      },
      "id": 31098,
      "name": "Banda Sari",
      "postcode": "78863",
      "lat": -2.295407,
      "lng": 110.8135688
    },
    {
      "suburb": {
        "id": 2671,
        "name": "Marau",
        "lat": -2.1175779,
        "lng": 110.6645683
      },
      "city": {
        "id": 150,
        "name": "Ketapang",
        "lat": -1.5697615,
        "lng": 110.5215459
      },
      "province": {
        "id": 12,
        "name": "Kalimantan Barat",
        "lat": -0.2787808,
        "lng": 111.4752851
      },
      "country": {
        "id": 228,
        "name": "INDONESIA",
        "code": "ID"
      },
      "id": 31099,
      "name": "Bantan Sari",
      "postcode": "78863",
      "lat": -2.2074007,
      "lng": 110.83145
    },
    {
      "suburb": {
        "id": 2670,
        "name": "Air Upas",
        "lat": -2.4119921,
        "lng": 110.7599266
      },
      "city": {
        "id": 150,
        "name": "Ketapang",
        "lat": -1.5697615,
        "lng": 110.5215459
      },
      "province": {
        "id": 12,
        "name": "Kalimantan Barat",
        "lat": -0.2787808,
        "lng": 111.4752851
      },
      "country": {
        "id": 228,
        "name": "INDONESIA",
        "code": "ID"
      },
      "id": 31100,
      "name": "Air Durian Jaya",
      "postcode": "78863",
      "lat": -2.4680612,
      "lng": 110.7360863
    },
    {
      "suburb": {
        "id": 2670,
        "name": "Air Upas",
        "lat": -2.4119921,
        "lng": 110.7599266
      },
      "city": {
        "id": 150,
        "name": "Ketapang",
        "lat": -1.5697615,
        "lng": 110.5215459
      },
      "province": {
        "id": 12,
        "name": "Kalimantan Barat",
        "lat": -0.2787808,
        "lng": 111.4752851
      },
      "country": {
        "id": 228,
        "name": "INDONESIA",
        "code": "ID"
      },
      "id": 31101,
      "name": "Air Upas",
      "postcode": "78863",
      "lat": -2.3552678,
      "lng": 110.83145
    },
    {
      "suburb": {
        "id": 2672,
        "name": "Kendawangan",
        "lat": -2.6749655,
        "lng": 110.6168921
      },
      "city": {
        "id": 150,
        "name": "Ketapang",
        "lat": -1.5697615,
        "lng": 110.5215459
      },
      "province": {
        "id": 12,
        "name": "Kalimantan Barat",
        "lat": -0.2787808,
        "lng": 111.4752851
      },
      "country": {
        "id": 228,
        "name": "INDONESIA",
        "code": "ID"
      },
      "id": 31102,
      "name": "Sungai Jelayan",
      "postcode": "78862",
      "lat": -2.1668866,
      "lng": 110.4381254
    },
    {
      "suburb": {
        "id": 2672,
        "name": "Kendawangan",
        "lat": -2.6749655,
        "lng": 110.6168921
      },
      "city": {
        "id": 150,
        "name": "Ketapang",
        "lat": -1.5697615,
        "lng": 110.5215459
      },
      "province": {
        "id": 12,
        "name": "Kalimantan Barat",
        "lat": -0.2787808,
        "lng": 111.4752851
      },
      "country": {
        "id": 228,
        "name": "INDONESIA",
        "code": "ID"
      },
      "id": 31103,
      "name": "Suka Harapan",
      "postcode": "78862",
      "lat": -2.4244941,
      "lng": 110.5572997
    },
    {
      "suburb": {
        "id": 2672,
        "name": "Kendawangan",
        "lat": -2.6749655,
        "lng": 110.6168921
      },
      "city": {
        "id": 150,
        "name": "Ketapang",
        "lat": -1.5697615,
        "lng": 110.5215459
      },
      "province": {
        "id": 12,
        "name": "Kalimantan Barat",
        "lat": -0.2787808,
        "lng": 111.4752851
      },
      "country": {
        "id": 228,
        "name": "INDONESIA",
        "code": "ID"
      },
      "id": 31104,
      "name": "Suka Damai",
      "postcode": "78862",
      "lat": -2.5024436,
      "lng": 110.6228515
    },
    {
      "suburb": {
        "id": 2672,
        "name": "Kendawangan",
        "lat": -2.6749655,
        "lng": 110.6168921
      },
      "city": {
        "id": 150,
        "name": "Ketapang",
        "lat": -1.5697615,
        "lng": 110.5215459
      },
      "province": {
        "id": 12,
        "name": "Kalimantan Barat",
        "lat": -0.2787808,
        "lng": 111.4752851
      },
      "country": {
        "id": 228,
        "name": "INDONESIA",
        "code": "ID"
      },
      "id": 31105,
      "name": "Selimatan Jaya",
      "postcode": "78862",
      "lat": -2.3509823,
      "lng": 110.5096283
    },
    {
      "suburb": {
        "id": 2672,
        "name": "Kendawangan",
        "lat": -2.6749655,
        "lng": 110.6168921
      },
      "city": {
        "id": 150,
        "name": "Ketapang",
        "lat": -1.5697615,
        "lng": 110.5215459
      },
      "province": {
        "id": 12,
        "name": "Kalimantan Barat",
        "lat": -0.2787808,
        "lng": 111.4752851
      },
      "country": {
        "id": 228,
        "name": "INDONESIA",
        "code": "ID"
      },
      "id": 31106,
      "name": "Seriam",
      "postcode": "78862",
      "lat": -2.5471928,
      "lng": 110.4500422
    },
    {
      "suburb": {
        "id": 2672,
        "name": "Kendawangan",
        "lat": -2.6749655,
        "lng": 110.6168921
      },
      "city": {
        "id": 150,
        "name": "Ketapang",
        "lat": -1.5697615,
        "lng": 110.5215459
      },
      "province": {
        "id": 12,
        "name": "Kalimantan Barat",
        "lat": -0.2787808,
        "lng": 111.4752851
      },
      "country": {
        "id": 228,
        "name": "INDONESIA",
        "code": "ID"
      },
      "id": 31107,
      "name": "Pangkalan Batu",
      "postcode": "78862",
      "lat": -2.2506448,
      "lng": 110.402376
    },
    {
      "suburb": {
        "id": 2672,
        "name": "Kendawangan",
        "lat": -2.6749655,
        "lng": 110.6168921
      },
      "city": {
        "id": 150,
        "name": "Ketapang",
        "lat": -1.5697615,
        "lng": 110.5215459
      },
      "province": {
        "id": 12,
        "name": "Kalimantan Barat",
        "lat": -0.2787808,
        "lng": 111.4752851
      },
      "country": {
        "id": 228,
        "name": "INDONESIA",
        "code": "ID"
      },
      "id": 31108,
      "name": "Pembedilan",
      "postcode": "78862",
      "lat": -2.789776,
      "lng": 110.4738762
    },
    {
      "suburb": {
        "id": 2672,
        "name": "Kendawangan",
        "lat": -2.6749655,
        "lng": 110.6168921
      },
      "city": {
        "id": 150,
        "name": "Ketapang",
        "lat": -1.5697615,
        "lng": 110.5215459
      },
      "province": {
        "id": 12,
        "name": "Kalimantan Barat",
        "lat": -0.2787808,
        "lng": 111.4752851
      },
      "country": {
        "id": 228,
        "name": "INDONESIA",
        "code": "ID"
      },
      "id": 31109,
      "name": "Natai Kuini",
      "postcode": "78862",
      "lat": -2.9161517,
      "lng": 110.7360863
    },
    {
      "suburb": {
        "id": 2672,
        "name": "Kendawangan",
        "lat": -2.6749655,
        "lng": 110.6168921
      },
      "city": {
        "id": 150,
        "name": "Ketapang",
        "lat": -1.5697615,
        "lng": 110.5215459
      },
      "province": {
        "id": 12,
        "name": "Kalimantan Barat",
        "lat": -0.2787808,
        "lng": 111.4752851
      },
      "country": {
        "id": 228,
        "name": "INDONESIA",
        "code": "ID"
      },
      "id": 31110,
      "name": "Kendawangan Kiri",
      "postcode": "78862",
      "lat": -2.4764983,
      "lng": 110.2117373
    },
    {
      "suburb": {
        "id": 2672,
        "name": "Kendawangan",
        "lat": -2.6749655,
        "lng": 110.6168921
      },
      "city": {
        "id": 150,
        "name": "Ketapang",
        "lat": -1.5697615,
        "lng": 110.5215459
      },
      "province": {
        "id": 12,
        "name": "Kalimantan Barat",
        "lat": -0.2787808,
        "lng": 111.4752851
      },
      "country": {
        "id": 228,
        "name": "INDONESIA",
        "code": "ID"
      },
      "id": 31111,
      "name": "Keramat Jaya",
      "postcode": "78862",
      "lat": -2.5980157,
      "lng": 110.1998238
    },
    {
      "suburb": {
        "id": 2672,
        "name": "Kendawangan",
        "lat": -2.6749655,
        "lng": 110.6168921
      },
      "city": {
        "id": 150,
        "name": "Ketapang",
        "lat": -1.5697615,
        "lng": 110.5215459
      },
      "province": {
        "id": 12,
        "name": "Kalimantan Barat",
        "lat": -0.2787808,
        "lng": 111.4752851
      },
      "country": {
        "id": 228,
        "name": "INDONESIA",
        "code": "ID"
      },
      "id": 31112,
      "name": "Mekar Utama",
      "postcode": "78862",
      "lat": -2.3269346,
      "lng": 110.2593928
    },
    {
      "suburb": {
        "id": 2672,
        "name": "Kendawangan",
        "lat": -2.6749655,
        "lng": 110.6168921
      },
      "city": {
        "id": 150,
        "name": "Ketapang",
        "lat": -1.5697615,
        "lng": 110.5215459
      },
      "province": {
        "id": 12,
        "name": "Kalimantan Barat",
        "lat": -0.2787808,
        "lng": 111.4752851
      },
      "country": {
        "id": 228,
        "name": "INDONESIA",
        "code": "ID"
      },
      "id": 31113,
      "name": "Kendawangan Kanan",
      "postcode": "78862",
      "lat": -2.6417263,
      "lng": 110.3785438
    },
    {
      "suburb": {
        "id": 2672,
        "name": "Kendawangan",
        "lat": -2.6749655,
        "lng": 110.6168921
      },
      "city": {
        "id": 150,
        "name": "Ketapang",
        "lat": -1.5697615,
        "lng": 110.5215459
      },
      "province": {
        "id": 12,
        "name": "Kalimantan Barat",
        "lat": -0.2787808,
        "lng": 111.4752851
      },
      "country": {
        "id": 228,
        "name": "INDONESIA",
        "code": "ID"
      },
      "id": 31114,
      "name": "Banjar Sari",
      "postcode": "78862",
      "lat": -2.4369917,
      "lng": 110.3547123
    },
    {
      "suburb": {
        "id": 2672,
        "name": "Kendawangan",
        "lat": -2.6749655,
        "lng": 110.6168921
      },
      "city": {
        "id": 150,
        "name": "Ketapang",
        "lat": -1.5697615,
        "lng": 110.5215459
      },
      "province": {
        "id": 12,
        "name": "Kalimantan Barat",
        "lat": -0.2787808,
        "lng": 111.4752851
      },
      "country": {
        "id": 228,
        "name": "INDONESIA",
        "code": "ID"
      },
      "id": 31115,
      "name": "Danau Buntar",
      "postcode": "78862",
      "lat": -2.6889871,
      "lng": 110.8791343
    },
    {
      "suburb": {
        "id": 2672,
        "name": "Kendawangan",
        "lat": -2.6749655,
        "lng": 110.6168921
      },
      "city": {
        "id": 150,
        "name": "Ketapang",
        "lat": -1.5697615,
        "lng": 110.5215459
      },
      "province": {
        "id": 12,
        "name": "Kalimantan Barat",
        "lat": -0.2787808,
        "lng": 111.4752851
      },
      "country": {
        "id": 228,
        "name": "INDONESIA",
        "code": "ID"
      },
      "id": 31116,
      "name": "Kedondong",
      "postcode": "78862",
      "lat": -2.2975002,
      "lng": 110.366628
    },
    {
      "suburb": {
        "id": 2672,
        "name": "Kendawangan",
        "lat": -2.6749655,
        "lng": 110.6168921
      },
      "city": {
        "id": 150,
        "name": "Ketapang",
        "lat": -1.5697615,
        "lng": 110.5215459
      },
      "province": {
        "id": 12,
        "name": "Kalimantan Barat",
        "lat": -0.2787808,
        "lng": 111.4752851
      },
      "country": {
        "id": 228,
        "name": "INDONESIA",
        "code": "ID"
      },
      "id": 31117,
      "name": "Air Tarap",
      "postcode": "78862",
      "lat": -2.5416246,
      "lng": 110.7837673
    },
    {
      "suburb": {
        "id": 2672,
        "name": "Kendawangan",
        "lat": -2.6749655,
        "lng": 110.6168921
      },
      "city": {
        "id": 150,
        "name": "Ketapang",
        "lat": -1.5697615,
        "lng": 110.5215459
      },
      "province": {
        "id": 12,
        "name": "Kalimantan Barat",
        "lat": -0.2787808,
        "lng": 111.4752851
      },
      "country": {
        "id": 228,
        "name": "INDONESIA",
        "code": "ID"
      },
      "id": 31118,
      "name": "Bangkal Serai",
      "postcode": "78862",
      "lat": -2.5083663,
      "lng": 110.5453816
    },
    {
      "suburb": {
        "id": 2672,
        "name": "Kendawangan",
        "lat": -2.6749655,
        "lng": 110.6168921
      },
      "city": {
        "id": 150,
        "name": "Ketapang",
        "lat": -1.5697615,
        "lng": 110.5215459
      },
      "province": {
        "id": 12,
        "name": "Kalimantan Barat",
        "lat": -0.2787808,
        "lng": 111.4752851
      },
      "country": {
        "id": 228,
        "name": "INDONESIA",
        "code": "ID"
      },
      "id": 31119,
      "name": "Air Hitam Hulu",
      "postcode": "78862",
      "lat": -2.6550446,
      "lng": 110.6884072
    },
    {
      "suburb": {
        "id": 2672,
        "name": "Kendawangan",
        "lat": -2.6749655,
        "lng": 110.6168921
      },
      "city": {
        "id": 150,
        "name": "Ketapang",
        "lat": -1.5697615,
        "lng": 110.5215459
      },
      "province": {
        "id": 12,
        "name": "Kalimantan Barat",
        "lat": -0.2787808,
        "lng": 111.4752851
      },
      "country": {
        "id": 228,
        "name": "INDONESIA",
        "code": "ID"
      },
      "id": 31120,
      "name": "Air Hitam Besar",
      "postcode": "78862",
      "lat": -2.8411534,
      "lng": 110.7360863
    },
    {
      "suburb": {
        "id": 2673,
        "name": "Seponti",
        "lat": -0.8335152,
        "lng": 109.925868
      },
      "city": {
        "id": 151,
        "name": "Kayong Utara",
        "lat": -0.9225877,
        "lng": 110.0449662
      },
      "province": {
        "id": 12,
        "name": "Kalimantan Barat",
        "lat": -0.2787808,
        "lng": 111.4752851
      },
      "country": {
        "id": 228,
        "name": "INDONESIA",
        "code": "ID"
      },
      "id": 31121,
      "name": "Wonorejo",
      "postcode": "78857",
      "lat": -0.8924115,
      "lng": 109.8246516
    },
    {
      "suburb": {
        "id": 2673,
        "name": "Seponti",
        "lat": -0.8335152,
        "lng": 109.925868
      },
      "city": {
        "id": 151,
        "name": "Kayong Utara",
        "lat": -0.9225877,
        "lng": 110.0449662
      },
      "province": {
        "id": 12,
        "name": "Kalimantan Barat",
        "lat": -0.2787808,
        "lng": 111.4752851
      },
      "country": {
        "id": 228,
        "name": "INDONESIA",
        "code": "ID"
      },
      "id": 31122,
      "name": "Seponti Jaya",
      "postcode": "78857",
      "lat": -0.8564848,
      "lng": 109.8246516
    },
    {
      "suburb": {
        "id": 2673,
        "name": "Seponti",
        "lat": -0.8335152,
        "lng": 109.925868
      },
      "city": {
        "id": 151,
        "name": "Kayong Utara",
        "lat": -0.9225877,
        "lng": 110.0449662
      },
      "province": {
        "id": 12,
        "name": "Kalimantan Barat",
        "lat": -0.2787808,
        "lng": 111.4752851
      },
      "country": {
        "id": 228,
        "name": "INDONESIA",
        "code": "ID"
      },
      "id": 31123,
      "name": "Telaga Arum",
      "postcode": "78857",
      "lat": -0.883228,
      "lng": 109.8603732
    },
    {
      "suburb": {
        "id": 2673,
        "name": "Seponti",
        "lat": -0.8335152,
        "lng": 109.925868
      },
      "city": {
        "id": 151,
        "name": "Kayong Utara",
        "lat": -0.9225877,
        "lng": 110.0449662
      },
      "province": {
        "id": 12,
        "name": "Kalimantan Barat",
        "lat": -0.2787808,
        "lng": 111.4752851
      },
      "country": {
        "id": 228,
        "name": "INDONESIA",
        "code": "ID"
      },
      "id": 31124,
      "name": "Podo Rukun",
      "postcode": "78857",
      "lat": -0.8972067,
      "lng": 109.7710732
    },
    {
      "suburb": {
        "id": 2673,
        "name": "Seponti",
        "lat": -0.8335152,
        "lng": 109.925868
      },
      "city": {
        "id": 151,
        "name": "Kayong Utara",
        "lat": -0.9225877,
        "lng": 110.0449662
      },
      "province": {
        "id": 12,
        "name": "Kalimantan Barat",
        "lat": -0.2787808,
        "lng": 111.4752851
      },
      "country": {
        "id": 228,
        "name": "INDONESIA",
        "code": "ID"
      },
      "id": 31125,
      "name": "Sei/Sungai Sepeti",
      "postcode": "78857",
      "lat": -0.860489,
      "lng": 109.9139594
    },
    {
      "suburb": {
        "id": 2673,
        "name": "Seponti",
        "lat": -0.8335152,
        "lng": 109.925868
      },
      "city": {
        "id": 151,
        "name": "Kayong Utara",
        "lat": -0.9225877,
        "lng": 110.0449662
      },
      "province": {
        "id": 12,
        "name": "Kalimantan Barat",
        "lat": -0.2787808,
        "lng": 111.4752851
      },
      "country": {
        "id": 228,
        "name": "INDONESIA",
        "code": "ID"
      },
      "id": 31126,
      "name": "Durian Sebatang",
      "postcode": "78857",
      "lat": -0.7974253,
      "lng": 109.9735048
    },
    {
      "suburb": {
        "id": 2674,
        "name": "Teluk Batang",
        "lat": -0.9415477,
        "lng": 109.8782348
      },
      "city": {
        "id": 151,
        "name": "Kayong Utara",
        "lat": -0.9225877,
        "lng": 110.0449662
      },
      "province": {
        "id": 12,
        "name": "Kalimantan Barat",
        "lat": -0.2787808,
        "lng": 111.4752851
      },
      "country": {
        "id": 228,
        "name": "INDONESIA",
        "code": "ID"
      },
      "id": 31127,
      "name": "Teluk Batang Selatan",
      "postcode": "78856",
      "lat": -0.9916056,
      "lng": 109.7889321
    },
    {
      "suburb": {
        "id": 2674,
        "name": "Teluk Batang",
        "lat": -0.9415477,
        "lng": 109.8782348
      },
      "city": {
        "id": 151,
        "name": "Kayong Utara",
        "lat": -0.9225877,
        "lng": 110.0449662
      },
      "province": {
        "id": 12,
        "name": "Kalimantan Barat",
        "lat": -0.2787808,
        "lng": 111.4752851
      },
      "country": {
        "id": 228,
        "name": "INDONESIA",
        "code": "ID"
      },
      "id": 31128,
      "name": "Teluk Batang Utara",
      "postcode": "78856",
      "lat": -0.9647983,
      "lng": 109.7532148
    },
    {
      "suburb": {
        "id": 2674,
        "name": "Teluk Batang",
        "lat": -0.9415477,
        "lng": 109.8782348
      },
      "city": {
        "id": 151,
        "name": "Kayong Utara",
        "lat": -0.9225877,
        "lng": 110.0449662
      },
      "province": {
        "id": 12,
        "name": "Kalimantan Barat",
        "lat": -0.2787808,
        "lng": 111.4752851
      },
      "country": {
        "id": 228,
        "name": "INDONESIA",
        "code": "ID"
      },
      "id": 31129,
      "name": "Sei/Sungai Paduan",
      "postcode": "78856",
      "lat": -0.9820067,
      "lng": 109.8841887
    },
    {
      "suburb": {
        "id": 2674,
        "name": "Teluk Batang",
        "lat": -0.9415477,
        "lng": 109.8782348
      },
      "city": {
        "id": 151,
        "name": "Kayong Utara",
        "lat": -0.9225877,
        "lng": 110.0449662
      },
      "province": {
        "id": 12,
        "name": "Kalimantan Barat",
        "lat": -0.2787808,
        "lng": 111.4752851
      },
      "country": {
        "id": 228,
        "name": "INDONESIA",
        "code": "ID"
      },
      "id": 31130,
      "name": "Teluk Batang",
      "postcode": "78856",
      "lat": -0.9736606,
      "lng": 109.7770261
    },
    {
      "suburb": {
        "id": 2674,
        "name": "Teluk Batang",
        "lat": -0.9415477,
        "lng": 109.8782348
      },
      "city": {
        "id": 151,
        "name": "Kayong Utara",
        "lat": -0.9225877,
        "lng": 110.0449662
      },
      "province": {
        "id": 12,
        "name": "Kalimantan Barat",
        "lat": -0.2787808,
        "lng": 111.4752851
      },
      "country": {
        "id": 228,
        "name": "INDONESIA",
        "code": "ID"
      },
      "id": 31131,
      "name": "Banyu Abang",
      "postcode": "78856",
      "lat": -0.9326244,
      "lng": 109.866327
    },
    {
      "suburb": {
        "id": 2674,
        "name": "Teluk Batang",
        "lat": -0.9415477,
        "lng": 109.8782348
      },
      "city": {
        "id": 151,
        "name": "Kayong Utara",
        "lat": -0.9225877,
        "lng": 110.0449662
      },
      "province": {
        "id": 12,
        "name": "Kalimantan Barat",
        "lat": -0.2787808,
        "lng": 111.4752851
      },
      "country": {
        "id": 228,
        "name": "INDONESIA",
        "code": "ID"
      },
      "id": 31132,
      "name": "Mas Bangun",
      "postcode": "78856",
      "lat": -0.9377877,
      "lng": 109.7532148
    },
    {
      "suburb": {
        "id": 2675,
        "name": "Pulau Maya (Pulau Maya Karimata)",
        "lat": -1.1055975,
        "lng": 109.6163185
      },
      "city": {
        "id": 151,
        "name": "Kayong Utara",
        "lat": -0.9225877,
        "lng": 110.0449662
      },
      "province": {
        "id": 12,
        "name": "Kalimantan Barat",
        "lat": -0.2787808,
        "lng": 111.4752851
      },
      "country": {
        "id": 228,
        "name": "INDONESIA",
        "code": "ID"
      },
      "id": 31133,
      "name": "Tanjung Satai",
      "postcode": "78855",
      "lat": -1.2330037,
      "lng": 109.5449078
    },
    {
      "suburb": {
        "id": 2674,
        "name": "Teluk Batang",
        "lat": -0.9415477,
        "lng": 109.8782348
      },
      "city": {
        "id": 151,
        "name": "Kayong Utara",
        "lat": -0.9225877,
        "lng": 110.0449662
      },
      "province": {
        "id": 12,
        "name": "Kalimantan Barat",
        "lat": -0.2787808,
        "lng": 111.4752851
      },
      "country": {
        "id": 228,
        "name": "INDONESIA",
        "code": "ID"
      },
      "id": 31134,
      "name": "Alur Bandung",
      "postcode": "78856",
      "lat": -1.0277429,
      "lng": 109.7770261
    },
    {
      "suburb": {
        "id": 2675,
        "name": "Pulau Maya (Pulau Maya Karimata)",
        "lat": -1.1055975,
        "lng": 109.6163185
      },
      "city": {
        "id": 151,
        "name": "Kayong Utara",
        "lat": -0.9225877,
        "lng": 110.0449662
      },
      "province": {
        "id": 12,
        "name": "Kalimantan Barat",
        "lat": -0.2787808,
        "lng": 111.4752851
      },
      "country": {
        "id": 228,
        "name": "INDONESIA",
        "code": "ID"
      },
      "id": 31135,
      "name": "Satai Lestari",
      "postcode": "78855",
      "lat": -1.1324956,
      "lng": 109.6520274
    },
    {
      "suburb": {
        "id": 2676,
        "name": "Kepulauan Karimata",
        "lat": -1.6038919,
        "lng": 108.9264524
      },
      "city": {
        "id": 151,
        "name": "Kayong Utara",
        "lat": -0.9225877,
        "lng": 110.0449662
      },
      "province": {
        "id": 12,
        "name": "Kalimantan Barat",
        "lat": -0.2787808,
        "lng": 111.4752851
      },
      "country": {
        "id": 228,
        "name": "INDONESIA",
        "code": "ID"
      },
      "id": 31136,
      "name": "Pelapis",
      "postcode": "78855",
      "lat": -1.2308443,
      "lng": 109.2296297
    },
    {
      "suburb": {
        "id": 2676,
        "name": "Kepulauan Karimata",
        "lat": -1.6038919,
        "lng": 108.9264524
      },
      "city": {
        "id": 151,
        "name": "Kayong Utara",
        "lat": -0.9225877,
        "lng": 110.0449662
      },
      "province": {
        "id": 12,
        "name": "Kalimantan Barat",
        "lat": -0.2787808,
        "lng": 111.4752851
      },
      "country": {
        "id": 228,
        "name": "INDONESIA",
        "code": "ID"
      },
      "id": 31137,
      "name": "Padang",
      "postcode": "78855",
      "lat": -1.638609,
      "lng": 108.952953
    },
    {
      "suburb": {
        "id": 2675,
        "name": "Pulau Maya (Pulau Maya Karimata)",
        "lat": -1.1055975,
        "lng": 109.6163185
      },
      "city": {
        "id": 151,
        "name": "Kayong Utara",
        "lat": -0.9225877,
        "lng": 110.0449662
      },
      "province": {
        "id": 12,
        "name": "Kalimantan Barat",
        "lat": -0.2787808,
        "lng": 111.4752851
      },
      "country": {
        "id": 228,
        "name": "INDONESIA",
        "code": "ID"
      },
      "id": 31138,
      "name": "Kemboja (Kamboja)",
      "postcode": "78855",
      "lat": -1.0870242,
      "lng": 109.6877385
    },
    {
      "suburb": {
        "id": 2675,
        "name": "Pulau Maya (Pulau Maya Karimata)",
        "lat": -1.1055975,
        "lng": 109.6163185
      },
      "city": {
        "id": 151,
        "name": "Kayong Utara",
        "lat": -0.9225877,
        "lng": 110.0449662
      },
      "province": {
        "id": 12,
        "name": "Kalimantan Barat",
        "lat": -0.2787808,
        "lng": 111.4752851
      },
      "country": {
        "id": 228,
        "name": "INDONESIA",
        "code": "ID"
      },
      "id": 31139,
      "name": "Dusun Besar",
      "postcode": "78855",
      "lat": -1.1245246,
      "lng": 109.4973059
    },
    {
      "suburb": {
        "id": 2675,
        "name": "Pulau Maya (Pulau Maya Karimata)",
        "lat": -1.1055975,
        "lng": 109.6163185
      },
      "city": {
        "id": 151,
        "name": "Kayong Utara",
        "lat": -0.9225877,
        "lng": 110.0449662
      },
      "province": {
        "id": 12,
        "name": "Kalimantan Barat",
        "lat": -0.2787808,
        "lng": 111.4752851
      },
      "country": {
        "id": 228,
        "name": "INDONESIA",
        "code": "ID"
      },
      "id": 31140,
      "name": "Dusun Kecil",
      "postcode": "78855",
      "lat": -1.0518204,
      "lng": 109.5449078
    },
    {
      "suburb": {
        "id": 2676,
        "name": "Kepulauan Karimata",
        "lat": -1.6038919,
        "lng": 108.9264524
      },
      "city": {
        "id": 151,
        "name": "Kayong Utara",
        "lat": -0.9225877,
        "lng": 110.0449662
      },
      "province": {
        "id": 12,
        "name": "Kalimantan Barat",
        "lat": -0.2787808,
        "lng": 111.4752851
      },
      "country": {
        "id": 228,
        "name": "INDONESIA",
        "code": "ID"
      },
      "id": 31141,
      "name": "Betok Jaya",
      "postcode": "78855",
      "lat": -1.6507242,
      "lng": 108.8432656
    },
    {
      "suburb": {
        "id": 2677,
        "name": "Simpang Hulu",
        "lat": -0.528662,
        "lng": 110.2832217
      },
      "city": {
        "id": 150,
        "name": "Ketapang",
        "lat": -1.5697615,
        "lng": 110.5215459
      },
      "province": {
        "id": 12,
        "name": "Kalimantan Barat",
        "lat": -0.2787808,
        "lng": 111.4752851
      },
      "country": {
        "id": 228,
        "name": "INDONESIA",
        "code": "ID"
      },
      "id": 31142,
      "name": "Semandang Kiri",
      "postcode": "78854",
      "lat": -0.6258789,
      "lng": 110.4142923
    },
    {
      "suburb": {
        "id": 2678,
        "name": "Simpang Dua",
        "lat": -0.7422589,
        "lng": 110.2832217
      },
      "city": {
        "id": 150,
        "name": "Ketapang",
        "lat": -1.5697615,
        "lng": 110.5215459
      },
      "province": {
        "id": 12,
        "name": "Kalimantan Barat",
        "lat": -0.2787808,
        "lng": 111.4752851
      },
      "country": {
        "id": 228,
        "name": "INDONESIA",
        "code": "ID"
      },
      "id": 31143,
      "name": "Semandang Kanan",
      "postcode": "78854",
      "lat": -0.7240783,
      "lng": 110.3547123
    },
    {
      "suburb": {
        "id": 2677,
        "name": "Simpang Hulu",
        "lat": -0.528662,
        "lng": 110.2832217
      },
      "city": {
        "id": 150,
        "name": "Ketapang",
        "lat": -1.5697615,
        "lng": 110.5215459
      },
      "province": {
        "id": 12,
        "name": "Kalimantan Barat",
        "lat": -0.2787808,
        "lng": 111.4752851
      },
      "country": {
        "id": 228,
        "name": "INDONESIA",
        "code": "ID"
      },
      "id": 31144,
      "name": "Sekucing Labai",
      "postcode": "78854",
      "lat": -0.4758167,
      "lng": 110.1640846
    },
    {
      "suburb": {
        "id": 2677,
        "name": "Simpang Hulu",
        "lat": -0.528662,
        "lng": 110.2832217
      },
      "city": {
        "id": 150,
        "name": "Ketapang",
        "lat": -1.5697615,
        "lng": 110.5215459
      },
      "province": {
        "id": 12,
        "name": "Kalimantan Barat",
        "lat": -0.2787808,
        "lng": 111.4752851
      },
      "country": {
        "id": 228,
        "name": "INDONESIA",
        "code": "ID"
      },
      "id": 31145,
      "name": "Semandang Hulu",
      "postcode": "78854",
      "lat": -0.5456556,
      "lng": 110.4977108
    },
    {
      "suburb": {
        "id": 2677,
        "name": "Simpang Hulu",
        "lat": -0.528662,
        "lng": 110.2832217
      },
      "city": {
        "id": 150,
        "name": "Ketapang",
        "lat": -1.5697615,
        "lng": 110.5215459
      },
      "province": {
        "id": 12,
        "name": "Kalimantan Barat",
        "lat": -0.2787808,
        "lng": 111.4752851
      },
      "country": {
        "id": 228,
        "name": "INDONESIA",
        "code": "ID"
      },
      "id": 31146,
      "name": "Paoh Concong",
      "postcode": "78854",
      "lat": -0.6792581,
      "lng": 110.4142923
    },
    {
      "suburb": {
        "id": 2677,
        "name": "Simpang Hulu",
        "lat": -0.528662,
        "lng": 110.2832217
      },
      "city": {
        "id": 150,
        "name": "Ketapang",
        "lat": -1.5697615,
        "lng": 110.5215459
      },
      "province": {
        "id": 12,
        "name": "Kalimantan Barat",
        "lat": -0.2787808,
        "lng": 111.4752851
      },
      "country": {
        "id": 228,
        "name": "INDONESIA",
        "code": "ID"
      },
      "id": 31147,
      "name": "Sekucing Kualan",
      "postcode": "78854",
      "lat": -0.5554231,
      "lng": 110.2474787
    },
    {
      "suburb": {
        "id": 2678,
        "name": "Simpang Dua",
        "lat": -0.7422589,
        "lng": 110.2832217
      },
      "city": {
        "id": 150,
        "name": "Ketapang",
        "lat": -1.5697615,
        "lng": 110.5215459
      },
      "province": {
        "id": 12,
        "name": "Kalimantan Barat",
        "lat": -0.2787808,
        "lng": 111.4752851
      },
      "country": {
        "id": 228,
        "name": "INDONESIA",
        "code": "ID"
      },
      "id": 31148,
      "name": "Mekar Raya",
      "postcode": "78854",
      "lat": -0.8314869,
      "lng": 110.3070512
    },
    {
      "suburb": {
        "id": 2677,
        "name": "Simpang Hulu",
        "lat": -0.528662,
        "lng": 110.2832217
      },
      "city": {
        "id": 150,
        "name": "Ketapang",
        "lat": -1.5697615,
        "lng": 110.5215459
      },
      "province": {
        "id": 12,
        "name": "Kalimantan Barat",
        "lat": -0.2787808,
        "lng": 111.4752851
      },
      "country": {
        "id": 228,
        "name": "INDONESIA",
        "code": "ID"
      },
      "id": 31149,
      "name": "Legong",
      "postcode": "78854",
      "lat": -0.4656886,
      "lng": 110.5811363
    },
    {
      "suburb": {
        "id": 2677,
        "name": "Simpang Hulu",
        "lat": -0.528662,
        "lng": 110.2832217
      },
      "city": {
        "id": 150,
        "name": "Ketapang",
        "lat": -1.5697615,
        "lng": 110.5215459
      },
      "province": {
        "id": 12,
        "name": "Kalimantan Barat",
        "lat": -0.2787808,
        "lng": 111.4752851
      },
      "country": {
        "id": 228,
        "name": "INDONESIA",
        "code": "ID"
      },
      "id": 31150,
      "name": "Merawa",
      "postcode": "78854",
      "lat": -0.4837547,
      "lng": 110.4619591
    },
    {
      "suburb": {
        "id": 2677,
        "name": "Simpang Hulu",
        "lat": -0.528662,
        "lng": 110.2832217
      },
      "city": {
        "id": 150,
        "name": "Ketapang",
        "lat": -1.5697615,
        "lng": 110.5215459
      },
      "province": {
        "id": 12,
        "name": "Kalimantan Barat",
        "lat": -0.2787808,
        "lng": 111.4752851
      },
      "country": {
        "id": 228,
        "name": "INDONESIA",
        "code": "ID"
      },
      "id": 31151,
      "name": "Kualan Tengah",
      "postcode": "78854",
      "lat": -0.4041875,
      "lng": 110.4500422
    },
    {
      "suburb": {
        "id": 2677,
        "name": "Simpang Hulu",
        "lat": -0.528662,
        "lng": 110.2832217
      },
      "city": {
        "id": 150,
        "name": "Ketapang",
        "lat": -1.5697615,
        "lng": 110.5215459
      },
      "province": {
        "id": 12,
        "name": "Kalimantan Barat",
        "lat": -0.2787808,
        "lng": 111.4752851
      },
      "country": {
        "id": 228,
        "name": "INDONESIA",
        "code": "ID"
      },
      "id": 31152,
      "name": "Labai Hilir",
      "postcode": "78854",
      "lat": -0.6187379,
      "lng": 109.9735048
    },
    {
      "suburb": {
        "id": 2677,
        "name": "Simpang Hulu",
        "lat": -0.528662,
        "lng": 110.2832217
      },
      "city": {
        "id": 150,
        "name": "Ketapang",
        "lat": -1.5697615,
        "lng": 110.5215459
      },
      "province": {
        "id": 12,
        "name": "Kalimantan Barat",
        "lat": -0.2787808,
        "lng": 111.4752851
      },
      "country": {
        "id": 228,
        "name": "INDONESIA",
        "code": "ID"
      },
      "id": 31153,
      "name": "Kualan Hilir",
      "postcode": "78854",
      "lat": -0.6179865,
      "lng": 110.1640846
    },
    {
      "suburb": {
        "id": 2677,
        "name": "Simpang Hulu",
        "lat": -0.528662,
        "lng": 110.2832217
      },
      "city": {
        "id": 150,
        "name": "Ketapang",
        "lat": -1.5697615,
        "lng": 110.5215459
      },
      "province": {
        "id": 12,
        "name": "Kalimantan Barat",
        "lat": -0.2787808,
        "lng": 111.4752851
      },
      "country": {
        "id": 228,
        "name": "INDONESIA",
        "code": "ID"
      },
      "id": 31154,
      "name": "Kualan Hulu",
      "postcode": "78854",
      "lat": -0.4039362,
      "lng": 110.5453816
    },
    {
      "suburb": {
        "id": 2678,
        "name": "Simpang Dua",
        "lat": -0.7422589,
        "lng": 110.2832217
      },
      "city": {
        "id": 150,
        "name": "Ketapang",
        "lat": -1.5697615,
        "lng": 110.5215459
      },
      "province": {
        "id": 12,
        "name": "Kalimantan Barat",
        "lat": -0.2787808,
        "lng": 111.4752851
      },
      "country": {
        "id": 228,
        "name": "INDONESIA",
        "code": "ID"
      },
      "id": 31155,
      "name": "Gema",
      "postcode": "78854",
      "lat": -0.8219722,
      "lng": 110.4142923
    },
    {
      "suburb": {
        "id": 2678,
        "name": "Simpang Dua",
        "lat": -0.7422589,
        "lng": 110.2832217
      },
      "city": {
        "id": 150,
        "name": "Ketapang",
        "lat": -1.5697615,
        "lng": 110.5215459
      },
      "province": {
        "id": 12,
        "name": "Kalimantan Barat",
        "lat": -0.2787808,
        "lng": 111.4752851
      },
      "country": {
        "id": 228,
        "name": "INDONESIA",
        "code": "ID"
      },
      "id": 31156,
      "name": "Kampar Sebomban",
      "postcode": "78854",
      "lat": -0.7427141,
      "lng": 110.1879106
    },
    {
      "suburb": {
        "id": 2677,
        "name": "Simpang Hulu",
        "lat": -0.528662,
        "lng": 110.2832217
      },
      "city": {
        "id": 150,
        "name": "Ketapang",
        "lat": -1.5697615,
        "lng": 110.5215459
      },
      "province": {
        "id": 12,
        "name": "Kalimantan Barat",
        "lat": -0.2787808,
        "lng": 111.4752851
      },
      "country": {
        "id": 228,
        "name": "INDONESIA",
        "code": "ID"
      },
      "id": 31157,
      "name": "Kenanga",
      "postcode": "78854",
      "lat": -0.5187826,
      "lng": 110.5811363
    },
    {
      "suburb": {
        "id": 2678,
        "name": "Simpang Dua",
        "lat": -0.7422589,
        "lng": 110.2832217
      },
      "city": {
        "id": 150,
        "name": "Ketapang",
        "lat": -1.5697615,
        "lng": 110.5215459
      },
      "province": {
        "id": 12,
        "name": "Kalimantan Barat",
        "lat": -0.2787808,
        "lng": 111.4752851
      },
      "country": {
        "id": 228,
        "name": "INDONESIA",
        "code": "ID"
      },
      "id": 31158,
      "name": "Batu Daya",
      "postcode": "78854",
      "lat": -0.8626401,
      "lng": 110.3368391
    },
    {
      "suburb": {
        "id": 2677,
        "name": "Simpang Hulu",
        "lat": -0.528662,
        "lng": 110.2832217
      },
      "city": {
        "id": 150,
        "name": "Ketapang",
        "lat": -1.5697615,
        "lng": 110.5215459
      },
      "province": {
        "id": 12,
        "name": "Kalimantan Barat",
        "lat": -0.2787808,
        "lng": 111.4752851
      },
      "country": {
        "id": 228,
        "name": "INDONESIA",
        "code": "ID"
      },
      "id": 31159,
      "name": "Balai Pinang Hulu",
      "postcode": "78854",
      "lat": -0.5016219,
      "lng": 110.4142923
    },
    {
      "suburb": {
        "id": 2679,
        "name": "Simpang Hilir",
        "lat": -1.0652462,
        "lng": 110.2355647
      },
      "city": {
        "id": 151,
        "name": "Kayong Utara",
        "lat": -0.9225877,
        "lng": 110.0449662
      },
      "province": {
        "id": 12,
        "name": "Kalimantan Barat",
        "lat": -0.2787808,
        "lng": 111.4752851
      },
      "country": {
        "id": 228,
        "name": "INDONESIA",
        "code": "ID"
      },
      "id": 31160,
      "name": "Teluk Melano",
      "postcode": "78853",
      "lat": -1.0652462,
      "lng": 110.2355647
    },
    {
      "suburb": {
        "id": 2677,
        "name": "Simpang Hulu",
        "lat": -0.528662,
        "lng": 110.2832217
      },
      "city": {
        "id": 150,
        "name": "Ketapang",
        "lat": -1.5697615,
        "lng": 110.5215459
      },
      "province": {
        "id": 12,
        "name": "Kalimantan Barat",
        "lat": -0.2787808,
        "lng": 111.4752851
      },
      "country": {
        "id": 228,
        "name": "INDONESIA",
        "code": "ID"
      },
      "id": 31161,
      "name": "Balai Pinang",
      "postcode": "78854",
      "lat": -0.546163,
      "lng": 110.3547123
    },
    {
      "suburb": {
        "id": 2679,
        "name": "Simpang Hilir",
        "lat": -1.0652462,
        "lng": 110.2355647
      },
      "city": {
        "id": 151,
        "name": "Kayong Utara",
        "lat": -0.9225877,
        "lng": 110.0449662
      },
      "province": {
        "id": 12,
        "name": "Kalimantan Barat",
        "lat": -0.2787808,
        "lng": 111.4752851
      },
      "country": {
        "id": 228,
        "name": "INDONESIA",
        "code": "ID"
      },
      "id": 31162,
      "name": "Rantau Panjang",
      "postcode": "78853",
      "lat": -1.1348544,
      "lng": 109.9556406
    },
    {
      "suburb": {
        "id": 2679,
        "name": "Simpang Hilir",
        "lat": -1.0652462,
        "lng": 110.2355647
      },
      "city": {
        "id": 151,
        "name": "Kayong Utara",
        "lat": -0.9225877,
        "lng": 110.0449662
      },
      "province": {
        "id": 12,
        "name": "Kalimantan Barat",
        "lat": -0.2787808,
        "lng": 111.4752851
      },
      "country": {
        "id": 228,
        "name": "INDONESIA",
        "code": "ID"
      },
      "id": 31163,
      "name": "Sei/Sungai Mata Mata",
      "postcode": "78853",
      "lat": -1.0395921,
      "lng": 110.0330554
    },
    {
      "suburb": {
        "id": 2679,
        "name": "Simpang Hilir",
        "lat": -1.0652462,
        "lng": 110.2355647
      },
      "city": {
        "id": 151,
        "name": "Kayong Utara",
        "lat": -0.9225877,
        "lng": 110.0449662
      },
      "province": {
        "id": 12,
        "name": "Kalimantan Barat",
        "lat": -0.2787808,
        "lng": 111.4752851
      },
      "country": {
        "id": 228,
        "name": "INDONESIA",
        "code": "ID"
      },
      "id": 31164,
      "name": "Pemangkat",
      "postcode": "78853",
      "lat": -1.0900346,
      "lng": 109.9080051
    },
    {
      "suburb": {
        "id": 2679,
        "name": "Simpang Hilir",
        "lat": -1.0652462,
        "lng": 110.2355647
      },
      "city": {
        "id": 151,
        "name": "Kayong Utara",
        "lat": -0.9225877,
        "lng": 110.0449662
      },
      "province": {
        "id": 12,
        "name": "Kalimantan Barat",
        "lat": -0.2787808,
        "lng": 111.4752851
      },
      "country": {
        "id": 228,
        "name": "INDONESIA",
        "code": "ID"
      },
      "id": 31165,
      "name": "Penjalaan Hilir",
      "postcode": "78853",
      "lat": -1.1480186,
      "lng": 110.0092345
    },
    {
      "suburb": {
        "id": 2679,
        "name": "Simpang Hilir",
        "lat": -1.0652462,
        "lng": 110.2355647
      },
      "city": {
        "id": 151,
        "name": "Kayong Utara",
        "lat": -0.9225877,
        "lng": 110.0449662
      },
      "province": {
        "id": 12,
        "name": "Kalimantan Barat",
        "lat": -0.2787808,
        "lng": 111.4752851
      },
      "country": {
        "id": 228,
        "name": "INDONESIA",
        "code": "ID"
      },
      "id": 31166,
      "name": "Pulau Kumbang",
      "postcode": "78853",
      "lat": -1.0584125,
      "lng": 109.9139594
    },
    {
      "suburb": {
        "id": 2679,
        "name": "Simpang Hilir",
        "lat": -1.0652462,
        "lng": 110.2355647
      },
      "city": {
        "id": 151,
        "name": "Kayong Utara",
        "lat": -0.9225877,
        "lng": 110.0449662
      },
      "province": {
        "id": 12,
        "name": "Kalimantan Barat",
        "lat": -0.2787808,
        "lng": 111.4752851
      },
      "country": {
        "id": 228,
        "name": "INDONESIA",
        "code": "ID"
      },
      "id": 31167,
      "name": "Padu Banjar",
      "postcode": "78853",
      "lat": -0.9047676,
      "lng": 110.0211449
    },
    {
      "suburb": {
        "id": 2679,
        "name": "Simpang Hilir",
        "lat": -1.0652462,
        "lng": 110.2355647
      },
      "city": {
        "id": 151,
        "name": "Kayong Utara",
        "lat": -0.9225877,
        "lng": 110.0449662
      },
      "province": {
        "id": 12,
        "name": "Kalimantan Barat",
        "lat": -0.2787808,
        "lng": 111.4752851
      },
      "country": {
        "id": 228,
        "name": "INDONESIA",
        "code": "ID"
      },
      "id": 31168,
      "name": "Medan Jaya",
      "postcode": "78853",
      "lat": -1.091818,
      "lng": 109.9764822
    },
    {
      "suburb": {
        "id": 2679,
        "name": "Simpang Hilir",
        "lat": -1.0652462,
        "lng": 110.2355647
      },
      "city": {
        "id": 151,
        "name": "Kayong Utara",
        "lat": -0.9225877,
        "lng": 110.0449662
      },
      "province": {
        "id": 12,
        "name": "Kalimantan Barat",
        "lat": -0.2787808,
        "lng": 111.4752851
      },
      "country": {
        "id": 228,
        "name": "INDONESIA",
        "code": "ID"
      },
      "id": 31169,
      "name": "Nipah Kuning",
      "postcode": "78853",
      "lat": -1.1079262,
      "lng": 109.9318224
    },
    {
      "suburb": {
        "id": 2679,
        "name": "Simpang Hilir",
        "lat": -1.0652462,
        "lng": 110.2355647
      },
      "city": {
        "id": 151,
        "name": "Kayong Utara",
        "lat": -0.9225877,
        "lng": 110.0449662
      },