{
  "metadata": {
    "path": "/v3/location/areas?limit=1000&page=8",
    "http_status_code": 200,
    "http_status": "OK",
    "timestamp": 1647334271
  },
  "data": [
    {
      "suburb": {
        "id": 709,
        "name": "Kumpeh Ulu",
        "lat": -1.6088539,
        "lng": 103.7984428
      },
      "city": {
        "id": 58,
        "name": "Muaro Jambi",
        "lat": -1.552136,
        "lng": 103.8216261
      },
      "province": {
        "id": 8,
        "name": "Jambi",
        "lat": -1.6101229,
        "lng": 103.6131203
      },
      "country": {
        "id": 228,
        "name": "INDONESIA",
        "code": "ID"
      },
      "id": 7001,
      "name": "Kota/Koto Karang",
      "postcode": "36373",
      "lat": -1.5553184,
      "lng": 103.6970626
    },
    {
      "suburb": {
        "id": 709,
        "name": "Kumpeh Ulu",
        "lat": -1.6088539,
        "lng": 103.7984428
      },
      "city": {
        "id": 58,
        "name": "Muaro Jambi",
        "lat": -1.552136,
        "lng": 103.8216261
      },
      "province": {
        "id": 8,
        "name": "Jambi",
        "lat": -1.6101229,
        "lng": 103.6131203
      },
      "country": {
        "id": 228,
        "name": "INDONESIA",
        "code": "ID"
      },
      "id": 7002,
      "name": "Kasang Kumpeh",
      "postcode": "36373",
      "lat": -1.6039181,
      "lng": 103.6579794
    },
    {
      "suburb": {
        "id": 709,
        "name": "Kumpeh Ulu",
        "lat": -1.6088539,
        "lng": 103.7984428
      },
      "city": {
        "id": 58,
        "name": "Muaro Jambi",
        "lat": -1.552136,
        "lng": 103.8216261
      },
      "province": {
        "id": 8,
        "name": "Jambi",
        "lat": -1.6101229,
        "lng": 103.6131203
      },
      "country": {
        "id": 228,
        "name": "INDONESIA",
        "code": "ID"
      },
      "id": 7003,
      "name": "Kasang Lopak Alai",
      "postcode": "36373",
      "lat": -1.5835655,
      "lng": 103.7028537
    },
    {
      "suburb": {
        "id": 709,
        "name": "Kumpeh Ulu",
        "lat": -1.6088539,
        "lng": 103.7984428
      },
      "city": {
        "id": 58,
        "name": "Muaro Jambi",
        "lat": -1.552136,
        "lng": 103.8216261
      },
      "province": {
        "id": 8,
        "name": "Jambi",
        "lat": -1.6101229,
        "lng": 103.6131203
      },
      "country": {
        "id": 228,
        "name": "INDONESIA",
        "code": "ID"
      },
      "id": 7004,
      "name": "Kasang Pudak",
      "postcode": "36373",
      "lat": -1.5955333,
      "lng": 103.6767958
    },
    {
      "suburb": {
        "id": 709,
        "name": "Kumpeh Ulu",
        "lat": -1.6088539,
        "lng": 103.7984428
      },
      "city": {
        "id": 58,
        "name": "Muaro Jambi",
        "lat": -1.552136,
        "lng": 103.8216261
      },
      "province": {
        "id": 8,
        "name": "Jambi",
        "lat": -1.6101229,
        "lng": 103.6131203
      },
      "country": {
        "id": 228,
        "name": "INDONESIA",
        "code": "ID"
      },
      "id": 7005,
      "name": "Arang Arang",
      "postcode": "36373",
      "lat": -1.6559663,
      "lng": 103.8100339
    },
    {
      "suburb": {
        "id": 709,
        "name": "Kumpeh Ulu",
        "lat": -1.6088539,
        "lng": 103.7984428
      },
      "city": {
        "id": 58,
        "name": "Muaro Jambi",
        "lat": -1.552136,
        "lng": 103.8216261
      },
      "province": {
        "id": 8,
        "name": "Jambi",
        "lat": -1.6101229,
        "lng": 103.6131203
      },
      "country": {
        "id": 228,
        "name": "INDONESIA",
        "code": "ID"
      },
      "id": 7006,
      "name": "Kasang Kota Karang",
      "postcode": "36373",
      "lat": -1.5964209,
      "lng": 103.667932
    },
    {
      "suburb": {
        "id": 711,
        "name": "Kumpeh",
        "lat": -1.5508914,
        "lng": 104.0072348
      },
      "city": {
        "id": 58,
        "name": "Muaro Jambi",
        "lat": -1.552136,
        "lng": 103.8216261
      },
      "province": {
        "id": 8,
        "name": "Jambi",
        "lat": -1.6101229,
        "lng": 103.6131203
      },
      "country": {
        "id": 228,
        "name": "INDONESIA",
        "code": "ID"
      },
      "id": 7007,
      "name": "Sungai Aur",
      "postcode": "36371",
      "lat": -1.5213461,
      "lng": 104.204716
    },
    {
      "suburb": {
        "id": 711,
        "name": "Kumpeh",
        "lat": -1.5508914,
        "lng": 104.0072348
      },
      "city": {
        "id": 58,
        "name": "Muaro Jambi",
        "lat": -1.552136,
        "lng": 103.8216261
      },
      "province": {
        "id": 8,
        "name": "Jambi",
        "lat": -1.6101229,
        "lng": 103.6131203
      },
      "country": {
        "id": 228,
        "name": "INDONESIA",
        "code": "ID"
      },
      "id": 7008,
      "name": "Sungai Bungur",
      "postcode": "36371",
      "lat": -1.6026513,
      "lng": 104.0130391
    },
    {
      "suburb": {
        "id": 711,
        "name": "Kumpeh",
        "lat": -1.5508914,
        "lng": 104.0072348
      },
      "city": {
        "id": 58,
        "name": "Muaro Jambi",
        "lat": -1.552136,
        "lng": 103.8216261
      },
      "province": {
        "id": 8,
        "name": "Jambi",
        "lat": -1.6101229,
        "lng": 103.6131203
      },
      "country": {
        "id": 228,
        "name": "INDONESIA",
        "code": "ID"
      },
      "id": 7009,
      "name": "Tanjung",
      "postcode": "36371",
      "lat": -1.6162568,
      "lng": 104.088517
    },
    {
      "suburb": {
        "id": 704,
        "name": "Taman Rajo / Rejo",
        "lat": -1.4208881,
        "lng": 103.752088
      },
      "city": {
        "id": 58,
        "name": "Muaro Jambi",
        "lat": -1.552136,
        "lng": 103.8216261
      },
      "province": {
        "id": 8,
        "name": "Jambi",
        "lat": -1.6101229,
        "lng": 103.6131203
      },
      "country": {
        "id": 228,
        "name": "INDONESIA",
        "code": "ID"
      },
      "id": 7010,
      "name": "Rukam",
      "postcode": "36371",
      "lat": -1.387854,
      "lng": 103.7810579
    },
    {
      "suburb": {
        "id": 711,
        "name": "Kumpeh",
        "lat": -1.5508914,
        "lng": 104.0072348
      },
      "city": {
        "id": 58,
        "name": "Muaro Jambi",
        "lat": -1.552136,
        "lng": 103.8216261
      },
      "province": {
        "id": 8,
        "name": "Jambi",
        "lat": -1.6101229,
        "lng": 103.6131203
      },
      "country": {
        "id": 228,
        "name": "INDONESIA",
        "code": "ID"
      },
      "id": 7011,
      "name": "Seponjen",
      "postcode": "36371",
      "lat": -1.5837278,
      "lng": 104.0246484
    },
    {
      "suburb": {
        "id": 711,
        "name": "Kumpeh",
        "lat": -1.5508914,
        "lng": 104.0072348
      },
      "city": {
        "id": 58,
        "name": "Muaro Jambi",
        "lat": -1.552136,
        "lng": 103.8216261
      },
      "province": {
        "id": 8,
        "name": "Jambi",
        "lat": -1.6101229,
        "lng": 103.6131203
      },
      "country": {
        "id": 228,
        "name": "INDONESIA",
        "code": "ID"
      },
      "id": 7012,
      "name": "Sogo",
      "postcode": "36371",
      "lat": -1.5787385,
      "lng": 104.0652887
    },
    {
      "suburb": {
        "id": 711,
        "name": "Kumpeh",
        "lat": -1.5508914,
        "lng": 104.0072348
      },
      "city": {
        "id": 58,
        "name": "Muaro Jambi",
        "lat": -1.552136,
        "lng": 103.8216261
      },
      "province": {
        "id": 8,
        "name": "Jambi",
        "lat": -1.6101229,
        "lng": 103.6131203
      },
      "country": {
        "id": 228,
        "name": "INDONESIA",
        "code": "ID"
      },
      "id": 7013,
      "name": "Rantau Panjang",
      "postcode": "36371",
      "lat": -1.4200399,
      "lng": 103.8911999
    },
    {
      "suburb": {
        "id": 711,
        "name": "Kumpeh",
        "lat": -1.5508914,
        "lng": 104.0072348
      },
      "city": {
        "id": 58,
        "name": "Muaro Jambi",
        "lat": -1.552136,
        "lng": 103.8216261
      },
      "province": {
        "id": 8,
        "name": "Jambi",
        "lat": -1.6101229,
        "lng": 103.6131203
      },
      "country": {
        "id": 228,
        "name": "INDONESIA",
        "code": "ID"
      },
      "id": 7014,
      "name": "Rondang",
      "postcode": "36371",
      "lat": -1.3353053,
      "lng": 103.9492051
    },
    {
      "suburb": {
        "id": 711,
        "name": "Kumpeh",
        "lat": -1.5508914,
        "lng": 104.0072348
      },
      "city": {
        "id": 58,
        "name": "Muaro Jambi",
        "lat": -1.552136,
        "lng": 103.8216261
      },
      "province": {
        "id": 8,
        "name": "Jambi",
        "lat": -1.6101229,
        "lng": 103.6131203
      },
      "country": {
        "id": 228,
        "name": "INDONESIA",
        "code": "ID"
      },
      "id": 7015,
      "name": "Petanang",
      "postcode": "36371",
      "lat": -1.5839678,
      "lng": 103.9898233
    },
    {
      "suburb": {
        "id": 711,
        "name": "Kumpeh",
        "lat": -1.5508914,
        "lng": 104.0072348
      },
      "city": {
        "id": 58,
        "name": "Muaro Jambi",
        "lat": -1.552136,
        "lng": 103.8216261
      },
      "province": {
        "id": 8,
        "name": "Jambi",
        "lat": -1.6101229,
        "lng": 103.6131203
      },
      "country": {
        "id": 228,
        "name": "INDONESIA",
        "code": "ID"
      },
      "id": 7016,
      "name": "Puding",
      "postcode": "36371",
      "lat": -1.6127257,
      "lng": 103.9201994
    },
    {
      "suburb": {
        "id": 711,
        "name": "Kumpeh",
        "lat": -1.5508914,
        "lng": 104.0072348
      },
      "city": {
        "id": 58,
        "name": "Muaro Jambi",
        "lat": -1.552136,
        "lng": 103.8216261
      },
      "province": {
        "id": 8,
        "name": "Jambi",
        "lat": -1.6101229,
        "lng": 103.6131203
      },
      "country": {
        "id": 228,
        "name": "INDONESIA",
        "code": "ID"
      },
      "id": 7017,
      "name": "Pulau Mentaro",
      "postcode": "36371",
      "lat": -1.5750236,
      "lng": 103.9201994
    },
    {
      "suburb": {
        "id": 711,
        "name": "Kumpeh",
        "lat": -1.5508914,
        "lng": 104.0072348
      },
      "city": {
        "id": 58,
        "name": "Muaro Jambi",
        "lat": -1.552136,
        "lng": 103.8216261
      },
      "province": {
        "id": 8,
        "name": "Jambi",
        "lat": -1.6101229,
        "lng": 103.6131203
      },
      "country": {
        "id": 228,
        "name": "INDONESIA",
        "code": "ID"
      },
      "id": 7018,
      "name": "Mekar Sari",
      "postcode": "36371",
      "lat": -1.4860263,
      "lng": 103.8564085
    },
    {
      "suburb": {
        "id": 711,
        "name": "Kumpeh",
        "lat": -1.5508914,
        "lng": 104.0072348
      },
      "city": {
        "id": 58,
        "name": "Muaro Jambi",
        "lat": -1.552136,
        "lng": 103.8216261
      },
      "province": {
        "id": 8,
        "name": "Jambi",
        "lat": -1.6101229,
        "lng": 103.6131203
      },
      "country": {
        "id": 228,
        "name": "INDONESIA",
        "code": "ID"
      },
      "id": 7019,
      "name": "Pematang Raman",
      "postcode": "36371",
      "lat": -1.5841275,
      "lng": 103.9666115
    },
    {
      "suburb": {
        "id": 704,
        "name": "Taman Rajo / Rejo",
        "lat": -1.4208881,
        "lng": 103.752088
      },
      "city": {
        "id": 58,
        "name": "Muaro Jambi",
        "lat": -1.552136,
        "lng": 103.8216261
      },
      "province": {
        "id": 8,
        "name": "Jambi",
        "lat": -1.6101229,
        "lng": 103.6131203
      },
      "country": {
        "id": 228,
        "name": "INDONESIA",
        "code": "ID"
      },
      "id": 7020,
      "name": "Manis Mato",
      "postcode": "36371",
      "lat": -1.354719,
      "lng": 103.8332193
    },
    {
      "suburb": {
        "id": 711,
        "name": "Kumpeh",
        "lat": -1.5508914,
        "lng": 104.0072348
      },
      "city": {
        "id": 58,
        "name": "Muaro Jambi",
        "lat": -1.552136,
        "lng": 103.8216261
      },
      "province": {
        "id": 8,
        "name": "Jambi",
        "lat": -1.6101229,
        "lng": 103.6131203
      },
      "country": {
        "id": 228,
        "name": "INDONESIA",
        "code": "ID"
      },
      "id": 7021,
      "name": "Maju Jaya",
      "postcode": "36371",
      "lat": -1.5565747,
      "lng": 103.8622065
    },
    {
      "suburb": {
        "id": 711,
        "name": "Kumpeh",
        "lat": -1.5508914,
        "lng": 104.0072348
      },
      "city": {
        "id": 58,
        "name": "Muaro Jambi",
        "lat": -1.552136,
        "lng": 103.8216261
      },
      "province": {
        "id": 8,
        "name": "Jambi",
        "lat": -1.6101229,
        "lng": 103.6131203
      },
      "country": {
        "id": 228,
        "name": "INDONESIA",
        "code": "ID"
      },
      "id": 7022,
      "name": "Jebus",
      "postcode": "36371",
      "lat": -1.5779336,
      "lng": 104.1814686
    },
    {
      "suburb": {
        "id": 711,
        "name": "Kumpeh",
        "lat": -1.5508914,
        "lng": 104.0072348
      },
      "city": {
        "id": 58,
        "name": "Muaro Jambi",
        "lat": -1.552136,
        "lng": 103.8216261
      },
      "province": {
        "id": 8,
        "name": "Jambi",
        "lat": -1.6101229,
        "lng": 103.6131203
      },
      "country": {
        "id": 228,
        "name": "INDONESIA",
        "code": "ID"
      },
      "id": 7023,
      "name": "Londrang (Londerang)",
      "postcode": "36371",
      "lat": -1.3497287,
      "lng": 103.8854007
    },
    {
      "suburb": {
        "id": 711,
        "name": "Kumpeh",
        "lat": -1.5508914,
        "lng": 104.0072348
      },
      "city": {
        "id": 58,
        "name": "Muaro Jambi",
        "lat": -1.552136,
        "lng": 103.8216261
      },
      "province": {
        "id": 8,
        "name": "Jambi",
        "lat": -1.6101229,
        "lng": 103.6131203
      },
      "country": {
        "id": 228,
        "name": "INDONESIA",
        "code": "ID"
      },
      "id": 7024,
      "name": "Gedong Karya",
      "postcode": "36371",
      "lat": -1.6816755,
      "lng": 104.1698463
    },
    {
      "suburb": {
        "id": 711,
        "name": "Kumpeh",
        "lat": -1.5508914,
        "lng": 104.0072348
      },
      "city": {
        "id": 58,
        "name": "Muaro Jambi",
        "lat": -1.552136,
        "lng": 103.8216261
      },
      "province": {
        "id": 8,
        "name": "Jambi",
        "lat": -1.6101229,
        "lng": 103.6131203
      },
      "country": {
        "id": 228,
        "name": "INDONESIA",
        "code": "ID"
      },
      "id": 7025,
      "name": "Betung",
      "postcode": "36371",
      "lat": -1.5748655,
      "lng": 103.9434035
    },
    {
      "suburb": {
        "id": 712,
        "name": "Bahar Selatan",
        "lat": -2.105143,
        "lng": 103.4742993
      },
      "city": {
        "id": 58,
        "name": "Muaro Jambi",
        "lat": -1.552136,
        "lng": 103.8216261
      },
      "province": {
        "id": 8,
        "name": "Jambi",
        "lat": -1.6101229,
        "lng": 103.6131203
      },
      "country": {
        "id": 228,
        "name": "INDONESIA",
        "code": "ID"
      },
      "id": 7026,
      "name": "Tanjungmulya (Tanjung Mulia)",
      "postcode": "36365",
      "lat": -2.1001111,
      "lng": 103.5032081
    },
    {
      "suburb": {
        "id": 712,
        "name": "Bahar Selatan",
        "lat": -2.105143,
        "lng": 103.4742993
      },
      "city": {
        "id": 58,
        "name": "Muaro Jambi",
        "lat": -1.552136,
        "lng": 103.8216261
      },
      "province": {
        "id": 8,
        "name": "Jambi",
        "lat": -1.6101229,
        "lng": 103.6131203
      },
      "country": {
        "id": 228,
        "name": "INDONESIA",
        "code": "ID"
      },
      "id": 7027,
      "name": "Trijaya",
      "postcode": "36365",
      "lat": -2.0336772,
      "lng": 103.4569571
    },
    {
      "suburb": {
        "id": 712,
        "name": "Bahar Selatan",
        "lat": -2.105143,
        "lng": 103.4742993
      },
      "city": {
        "id": 58,
        "name": "Muaro Jambi",
        "lat": -1.552136,
        "lng": 103.8216261
      },
      "province": {
        "id": 8,
        "name": "Jambi",
        "lat": -1.6101229,
        "lng": 103.6131203
      },
      "country": {
        "id": 228,
        "name": "INDONESIA",
        "code": "ID"
      },
      "id": 7028,
      "name": "Ujung Tanjung",
      "postcode": "36365",
      "lat": -2.0331855,
      "lng": 103.5147735
    },
    {
      "suburb": {
        "id": 712,
        "name": "Bahar Selatan",
        "lat": -2.105143,
        "lng": 103.4742993
      },
      "city": {
        "id": 58,
        "name": "Muaro Jambi",
        "lat": -1.552136,
        "lng": 103.8216261
      },
      "province": {
        "id": 8,
        "name": "Jambi",
        "lat": -1.6101229,
        "lng": 103.6131203
      },
      "country": {
        "id": 228,
        "name": "INDONESIA",
        "code": "ID"
      },
      "id": 7029,
      "name": "Tanjung Lebar",
      "postcode": "36365",
      "lat": -2.0139164,
      "lng": 103.5379072
    },
    {
      "suburb": {
        "id": 712,
        "name": "Bahar Selatan",
        "lat": -2.105143,
        "lng": 103.4742993
      },
      "city": {
        "id": 58,
        "name": "Muaro Jambi",
        "lat": -1.552136,
        "lng": 103.8216261
      },
      "province": {
        "id": 8,
        "name": "Jambi",
        "lat": -1.6101229,
        "lng": 103.6131203
      },
      "country": {
        "id": 228,
        "name": "INDONESIA",
        "code": "ID"
      },
      "id": 7030,
      "name": "Tanjung Sari",
      "postcode": "36365",
      "lat": -2.1291943,
      "lng": 103.4569571
    },
    {
      "suburb": {
        "id": 712,
        "name": "Bahar Selatan",
        "lat": -2.105143,
        "lng": 103.4742993
      },
      "city": {
        "id": 58,
        "name": "Muaro Jambi",
        "lat": -1.552136,
        "lng": 103.8216261
      },
      "province": {
        "id": 8,
        "name": "Jambi",
        "lat": -1.6101229,
        "lng": 103.6131203
      },
      "country": {
        "id": 228,
        "name": "INDONESIA",
        "code": "ID"
      },
      "id": 7031,
      "name": "Tanjung Baru",
      "postcode": "36365",
      "lat": -2.0401671,
      "lng": 103.5350153
    },
    {
      "suburb": {
        "id": 713,
        "name": "Sungai Bahar",
        "lat": -1.9906187,
        "lng": 103.4742993
      },
      "city": {
        "id": 58,
        "name": "Muaro Jambi",
        "lat": -1.552136,
        "lng": 103.8216261
      },
      "province": {
        "id": 8,
        "name": "Jambi",
        "lat": -1.6101229,
        "lng": 103.6131203
      },
      "country": {
        "id": 228,
        "name": "INDONESIA",
        "code": "ID"
      },
      "id": 7032,
      "name": "Tanjung Harapan",
      "postcode": "36365",
      "lat": -1.9854208,
      "lng": 103.5263398
    },
    {
      "suburb": {
        "id": 710,
        "name": "Bahar Utara",
        "lat": -1.9151745,
        "lng": 103.3818345
      },
      "city": {
        "id": 58,
        "name": "Muaro Jambi",
        "lat": -1.552136,
        "lng": 103.8216261
      },
      "province": {
        "id": 8,
        "name": "Jambi",
        "lat": -1.6101229,
        "lng": 103.6131203
      },
      "country": {
        "id": 228,
        "name": "INDONESIA",
        "code": "ID"
      },
      "id": 7033,
      "name": "Sungai Dayo",
      "postcode": "36365",
      "lat": -1.9867609,
      "lng": 103.3645048
    },
    {
      "suburb": {
        "id": 710,
        "name": "Bahar Utara",
        "lat": -1.9151745,
        "lng": 103.3818345
      },
      "city": {
        "id": 58,
        "name": "Muaro Jambi",
        "lat": -1.552136,
        "lng": 103.8216261
      },
      "province": {
        "id": 8,
        "name": "Jambi",
        "lat": -1.6101229,
        "lng": 103.6131203
      },
      "country": {
        "id": 228,
        "name": "INDONESIA",
        "code": "ID"
      },
      "id": 7034,
      "name": "Talang Bukit",
      "postcode": "36365",
      "lat": -1.8867206,
      "lng": 103.3702811
    },
    {
      "suburb": {
        "id": 710,
        "name": "Bahar Utara",
        "lat": -1.9151745,
        "lng": 103.3818345
      },
      "city": {
        "id": 58,
        "name": "Muaro Jambi",
        "lat": -1.552136,
        "lng": 103.8216261
      },
      "province": {
        "id": 8,
        "name": "Jambi",
        "lat": -1.6101229,
        "lng": 103.6131203
      },
      "country": {
        "id": 228,
        "name": "INDONESIA",
        "code": "ID"
      },
      "id": 7035,
      "name": "Talang Datar",
      "postcode": "36365",
      "lat": -1.9081509,
      "lng": 103.367393
    },
    {
      "suburb": {
        "id": 713,
        "name": "Sungai Bahar",
        "lat": -1.9906187,
        "lng": 103.4742993
      },
      "city": {
        "id": 58,
        "name": "Muaro Jambi",
        "lat": -1.552136,
        "lng": 103.8216261
      },
      "province": {
        "id": 8,
        "name": "Jambi",
        "lat": -1.6101229,
        "lng": 103.6131203
      },
      "country": {
        "id": 228,
        "name": "INDONESIA",
        "code": "ID"
      },
      "id": 7036,
      "name": "Suka Makmur",
      "postcode": "36365",
      "lat": -1.9576974,
      "lng": 103.4222797
    },
    {
      "suburb": {
        "id": 710,
        "name": "Bahar Utara",
        "lat": -1.9151745,
        "lng": 103.3818345
      },
      "city": {
        "id": 58,
        "name": "Muaro Jambi",
        "lat": -1.552136,
        "lng": 103.8216261
      },
      "province": {
        "id": 8,
        "name": "Jambi",
        "lat": -1.6101229,
        "lng": 103.6131203
      },
      "country": {
        "id": 228,
        "name": "INDONESIA",
        "code": "ID"
      },
      "id": 7037,
      "name": "Sumber Mulya",
      "postcode": "36365",
      "lat": -1.8797895,
      "lng": 103.3442898
    },
    {
      "suburb": {
        "id": 713,
        "name": "Sungai Bahar",
        "lat": -1.9906187,
        "lng": 103.4742993
      },
      "city": {
        "id": 58,
        "name": "Muaro Jambi",
        "lat": -1.552136,
        "lng": 103.8216261
      },
      "province": {
        "id": 8,
        "name": "Jambi",
        "lat": -1.6101229,
        "lng": 103.6131203
      },
      "country": {
        "id": 228,
        "name": "INDONESIA",
        "code": "ID"
      },
      "id": 7038,
      "name": "Panca Bakti",
      "postcode": "36365",
      "lat": -1.9906187,
      "lng": 103.4742993
    },
    {
      "suburb": {
        "id": 713,
        "name": "Sungai Bahar",
        "lat": -1.9906187,
        "lng": 103.4742993
      },
      "city": {
        "id": 58,
        "name": "Muaro Jambi",
        "lat": -1.552136,
        "lng": 103.8216261
      },
      "province": {
        "id": 8,
        "name": "Jambi",
        "lat": -1.6101229,
        "lng": 103.6131203
      },
      "country": {
        "id": 228,
        "name": "INDONESIA",
        "code": "ID"
      },
      "id": 7039,
      "name": "Panca Mulya",
      "postcode": "36365",
      "lat": -1.9809929,
      "lng": 103.485862
    },
    {
      "suburb": {
        "id": 710,
        "name": "Bahar Utara",
        "lat": -1.9151745,
        "lng": 103.3818345
      },
      "city": {
        "id": 58,
        "name": "Muaro Jambi",
        "lat": -1.552136,
        "lng": 103.8216261
      },
      "province": {
        "id": 8,
        "name": "Jambi",
        "lat": -1.6101229,
        "lng": 103.6131203
      },
      "country": {
        "id": 228,
        "name": "INDONESIA",
        "code": "ID"
      },
      "id": 7040,
      "name": "Pinang Tinggi",
      "postcode": "36365",
      "lat": -1.9244163,
      "lng": 103.416501
    },
    {
      "suburb": {
        "id": 710,
        "name": "Bahar Utara",
        "lat": -1.9151745,
        "lng": 103.3818345
      },
      "city": {
        "id": 58,
        "name": "Muaro Jambi",
        "lat": -1.552136,
        "lng": 103.8216261
      },
      "province": {
        "id": 8,
        "name": "Jambi",
        "lat": -1.6101229,
        "lng": 103.6131203
      },
      "country": {
        "id": 228,
        "name": "INDONESIA",
        "code": "ID"
      },
      "id": 7041,
      "name": "Mulya Jaya",
      "postcode": "36365",
      "lat": -1.8822798,
      "lng": 103.3298525
    },
    {
      "suburb": {
        "id": 712,
        "name": "Bahar Selatan",
        "lat": -2.105143,
        "lng": 103.4742993
      },
      "city": {
        "id": 58,
        "name": "Muaro Jambi",
        "lat": -1.552136,
        "lng": 103.8216261
      },
      "province": {
        "id": 8,
        "name": "Jambi",
        "lat": -1.6101229,
        "lng": 103.6131203
      },
      "country": {
        "id": 228,
        "name": "INDONESIA",
        "code": "ID"
      },
      "id": 7042,
      "name": "Mekar Jaya",
      "postcode": "36365",
      "lat": -2.0718589,
      "lng": 103.4569571
    },
    {
      "suburb": {
        "id": 713,
        "name": "Sungai Bahar",
        "lat": -1.9906187,
        "lng": 103.4742993
      },
      "city": {
        "id": 58,
        "name": "Muaro Jambi",
        "lat": -1.552136,
        "lng": 103.8216261
      },
      "province": {
        "id": 8,
        "name": "Jambi",
        "lat": -1.6101229,
        "lng": 103.6131203
      },
      "country": {
        "id": 228,
        "name": "INDONESIA",
        "code": "ID"
      },
      "id": 7043,
      "name": "Mekarsari Makmur",
      "postcode": "36365",
      "lat": -1.9767532,
      "lng": 103.4222797
    },
    {
      "suburb": {
        "id": 713,
        "name": "Sungai Bahar",
        "lat": -1.9906187,
        "lng": 103.4742993
      },
      "city": {
        "id": 58,
        "name": "Muaro Jambi",
        "lat": -1.552136,
        "lng": 103.8216261
      },
      "province": {
        "id": 8,
        "name": "Jambi",
        "lat": -1.6101229,
        "lng": 103.6131203
      },
      "country": {
        "id": 228,
        "name": "INDONESIA",
        "code": "ID"
      },
      "id": 7044,
      "name": "Marga Mulya",
      "postcode": "36365",
      "lat": -1.9575089,
      "lng": 103.4453969
    },
    {
      "suburb": {
        "id": 710,
        "name": "Bahar Utara",
        "lat": -1.9151745,
        "lng": 103.3818345
      },
      "city": {
        "id": 58,
        "name": "Muaro Jambi",
        "lat": -1.552136,
        "lng": 103.8216261
      },
      "province": {
        "id": 8,
        "name": "Jambi",
        "lat": -1.6101229,
        "lng": 103.6131203
      },
      "country": {
        "id": 228,
        "name": "INDONESIA",
        "code": "ID"
      },
      "id": 7045,
      "name": "Markanding",
      "postcode": "36365",
      "lat": -1.8911594,
      "lng": 103.4107226
    },
    {
      "suburb": {
        "id": 710,
        "name": "Bahar Utara",
        "lat": -1.9151745,
        "lng": 103.3818345
      },
      "city": {
        "id": 58,
        "name": "Muaro Jambi",
        "lat": -1.552136,
        "lng": 103.8216261
      },
      "province": {
        "id": 8,
        "name": "Jambi",
        "lat": -1.6101229,
        "lng": 103.6131203
      },
      "country": {
        "id": 228,
        "name": "INDONESIA",
        "code": "ID"
      },
      "id": 7046,
      "name": "Matra Manunggal",
      "postcode": "36365",
      "lat": -1.9438309,
      "lng": 103.3702811
    },
    {
      "suburb": {
        "id": 712,
        "name": "Bahar Selatan",
        "lat": -2.105143,
        "lng": 103.4742993
      },
      "city": {
        "id": 58,
        "name": "Muaro Jambi",
        "lat": -1.552136,
        "lng": 103.8216261
      },
      "province": {
        "id": 8,
        "name": "Jambi",
        "lat": -1.6101229,
        "lng": 103.6131203
      },
      "country": {
        "id": 228,
        "name": "INDONESIA",
        "code": "ID"
      },
      "id": 7047,
      "name": "Bukit Subur",
      "postcode": "36365",
      "lat": -2.0572884,
      "lng": 103.485862
    },
    {
      "suburb": {
        "id": 713,
        "name": "Sungai Bahar",
        "lat": -1.9906187,
        "lng": 103.4742993
      },
      "city": {
        "id": 58,
        "name": "Muaro Jambi",
        "lat": -1.552136,
        "lng": 103.8216261
      },
      "province": {
        "id": 8,
        "name": "Jambi",
        "lat": -1.6101229,
        "lng": 103.6131203
      },
      "country": {
        "id": 228,
        "name": "INDONESIA",
        "code": "ID"
      },
      "id": 7048,
      "name": "Marga Manunggal Jaya",
      "postcode": "36365",
      "lat": -1.9906187,
      "lng": 103.4742993
    },
    {
      "suburb": {
        "id": 713,
        "name": "Sungai Bahar",
        "lat": -1.9906187,
        "lng": 103.4742993
      },
      "city": {
        "id": 58,
        "name": "Muaro Jambi",
        "lat": -1.552136,
        "lng": 103.8216261
      },
      "province": {
        "id": 8,
        "name": "Jambi",
        "lat": -1.6101229,
        "lng": 103.6131203
      },
      "country": {
        "id": 228,
        "name": "INDONESIA",
        "code": "ID"
      },
      "id": 7049,
      "name": "Bukit Makmur",
      "postcode": "36365",
      "lat": -2.0342642,
      "lng": 103.3876116
    },
    {
      "suburb": {
        "id": 713,
        "name": "Sungai Bahar",
        "lat": -1.9906187,
        "lng": 103.4742993
      },
      "city": {
        "id": 58,
        "name": "Muaro Jambi",
        "lat": -1.552136,
        "lng": 103.8216261
      },
      "province": {
        "id": 8,
        "name": "Jambi",
        "lat": -1.6101229,
        "lng": 103.6131203
      },
      "country": {
        "id": 228,
        "name": "INDONESIA",
        "code": "ID"
      },
      "id": 7050,
      "name": "Bukit Mas",
      "postcode": "36365",
      "lat": -2.0387917,
      "lng": 103.416501
    },
    {
      "suburb": {
        "id": 710,
        "name": "Bahar Utara",
        "lat": -1.9151745,
        "lng": 103.3818345
      },
      "city": {
        "id": 58,
        "name": "Muaro Jambi",
        "lat": -1.552136,
        "lng": 103.8216261
      },
      "province": {
        "id": 8,
        "name": "Jambi",
        "lat": -1.6101229,
        "lng": 103.6131203
      },
      "country": {
        "id": 228,
        "name": "INDONESIA",
        "code": "ID"
      },
      "id": 7051,
      "name": "Bukit Mulya",
      "postcode": "36365",
      "lat": -1.9583545,
      "lng": 103.3414022
    },
    {
      "suburb": {
        "id": 712,
        "name": "Bahar Selatan",
        "lat": -2.105143,
        "lng": 103.4742993
      },
      "city": {
        "id": 58,
        "name": "Muaro Jambi",
        "lat": -1.552136,
        "lng": 103.8216261
      },
      "province": {
        "id": 8,
        "name": "Jambi",
        "lat": -1.6101229,
        "lng": 103.6131203
      },
      "country": {
        "id": 228,
        "name": "INDONESIA",
        "code": "ID"
      },
      "id": 7052,
      "name": "Bukit Jaya",
      "postcode": "36365",
      "lat": -2.152638,
      "lng": 103.5089907
    },
    {
      "suburb": {
        "id": 713,
        "name": "Sungai Bahar",
        "lat": -1.9906187,
        "lng": 103.4742993
      },
      "city": {
        "id": 58,
        "name": "Muaro Jambi",
        "lat": -1.552136,
        "lng": 103.8216261
      },
      "province": {
        "id": 8,
        "name": "Jambi",
        "lat": -1.6101229,
        "lng": 103.6131203
      },
      "country": {
        "id": 228,
        "name": "INDONESIA",
        "code": "ID"
      },
      "id": 7053,
      "name": "Berkah (Desa Berkah)",
      "postcode": "36365",
      "lat": -1.9287576,
      "lng": 103.4685183
    },
    {
      "suburb": {
        "id": 713,
        "name": "Sungai Bahar",
        "lat": -1.9906187,
        "lng": 103.4742993
      },
      "city": {
        "id": 58,
        "name": "Muaro Jambi",
        "lat": -1.552136,
        "lng": 103.8216261
      },
      "province": {
        "id": 8,
        "name": "Jambi",
        "lat": -1.6101229,
        "lng": 103.6131203
      },
      "country": {
        "id": 228,
        "name": "INDONESIA",
        "code": "ID"
      },
      "id": 7054,
      "name": "Bakti Mulya",
      "postcode": "36365",
      "lat": -2.0055454,
      "lng": 103.3991666
    },
    {
      "suburb": {
        "id": 710,
        "name": "Bahar Utara",
        "lat": -1.9151745,
        "lng": 103.3818345
      },
      "city": {
        "id": 58,
        "name": "Muaro Jambi",
        "lat": -1.552136,
        "lng": 103.8216261
      },
      "province": {
        "id": 8,
        "name": "Jambi",
        "lat": -1.6101229,
        "lng": 103.6131203
      },
      "country": {
        "id": 228,
        "name": "INDONESIA",
        "code": "ID"
      },
      "id": 7055,
      "name": "Bahar Mulya",
      "postcode": "36365",
      "lat": -1.9201636,
      "lng": 103.352953
    },
    {
      "suburb": {
        "id": 714,
        "name": "Mestong",
        "lat": -1.8192241,
        "lng": 103.4974258
      },
      "city": {
        "id": 58,
        "name": "Muaro Jambi",
        "lat": -1.552136,
        "lng": 103.8216261
      },
      "province": {
        "id": 8,
        "name": "Jambi",
        "lat": -1.6101229,
        "lng": 103.6131203
      },
      "country": {
        "id": 228,
        "name": "INDONESIA",
        "code": "ID"
      },
      "id": 7056,
      "name": "Tempino",
      "postcode": "36364",
      "lat": -1.7857977,
      "lng": 103.5263398
    },
    {
      "suburb": {
        "id": 712,
        "name": "Bahar Selatan",
        "lat": -2.105143,
        "lng": 103.4742993
      },
      "city": {
        "id": 58,
        "name": "Muaro Jambi",
        "lat": -1.552136,
        "lng": 103.8216261
      },
      "province": {
        "id": 8,
        "name": "Jambi",
        "lat": -1.6101229,
        "lng": 103.6131203
      },
      "country": {
        "id": 228,
        "name": "INDONESIA",
        "code": "ID"
      },
      "id": 7057,
      "name": "Adipura Kencana",
      "postcode": "36365",
      "lat": -2.1289887,
      "lng": 103.4800805
    },
    {
      "suburb": {
        "id": 714,
        "name": "Mestong",
        "lat": -1.8192241,
        "lng": 103.4974258
      },
      "city": {
        "id": 58,
        "name": "Muaro Jambi",
        "lat": -1.552136,
        "lng": 103.8216261
      },
      "province": {
        "id": 8,
        "name": "Jambi",
        "lat": -1.6101229,
        "lng": 103.6131203
      },
      "country": {
        "id": 228,
        "name": "INDONESIA",
        "code": "ID"
      },
      "id": 7058,
      "name": "Tanjung Pauh Km. 39",
      "postcode": "36364",
      "lat": -1.8483345,
      "lng": 103.416501
    },
    {
      "suburb": {
        "id": 714,
        "name": "Mestong",
        "lat": -1.8192241,
        "lng": 103.4974258
      },
      "city": {
        "id": 58,
        "name": "Muaro Jambi",
        "lat": -1.552136,
        "lng": 103.8216261
      },
      "province": {
        "id": 8,
        "name": "Jambi",
        "lat": -1.6101229,
        "lng": 103.6131203
      },
      "country": {
        "id": 228,
        "name": "INDONESIA",
        "code": "ID"
      },
      "id": 7059,
      "name": "Tanjungpauh Talang Pelita",
      "postcode": "36364",
      "lat": -1.8289826,
      "lng": 103.4627375
    },
    {
      "suburb": {
        "id": 708,
        "name": "Sungai Gelam",
        "lat": -1.7413052,
        "lng": 103.7752634
      },
      "city": {
        "id": 58,
        "name": "Muaro Jambi",
        "lat": -1.552136,
        "lng": 103.8216261
      },
      "province": {
        "id": 8,
        "name": "Jambi",
        "lat": -1.6101229,
        "lng": 103.6131203
      },
      "country": {
        "id": 228,
        "name": "INDONESIA",
        "code": "ID"
      },
      "id": 7060,
      "name": "Talang Belido",
      "postcode": "36364",
      "lat": -1.7138512,
      "lng": 103.6478486
    },
    {
      "suburb": {
        "id": 708,
        "name": "Sungai Gelam",
        "lat": -1.7413052,
        "lng": 103.7752634
      },
      "city": {
        "id": 58,
        "name": "Muaro Jambi",
        "lat": -1.552136,
        "lng": 103.8216261
      },
      "province": {
        "id": 8,
        "name": "Jambi",
        "lat": -1.6101229,
        "lng": 103.6131203
      },
      "country": {
        "id": 228,
        "name": "INDONESIA",
        "code": "ID"
      },
      "id": 7061,
      "name": "Talang Kerinci",
      "postcode": "36364",
      "lat": -1.6993669,
      "lng": 103.6883765
    },
    {
      "suburb": {
        "id": 714,
        "name": "Mestong",
        "lat": -1.8192241,
        "lng": 103.4974258
      },
      "city": {
        "id": 58,
        "name": "Muaro Jambi",
        "lat": -1.552136,
        "lng": 103.8216261
      },
      "province": {
        "id": 8,
        "name": "Jambi",
        "lat": -1.6101229,
        "lng": 103.6131203
      },
      "country": {
        "id": 228,
        "name": "INDONESIA",
        "code": "ID"
      },
      "id": 7062,
      "name": "Tanjung Pauh",
      "postcode": "36364",
      "lat": -1.78623,
      "lng": 103.4685183
    },
    {
      "suburb": {
        "id": 714,
        "name": "Mestong",
        "lat": -1.8192241,
        "lng": 103.4974258
      },
      "city": {
        "id": 58,
        "name": "Muaro Jambi",
        "lat": -1.552136,
        "lng": 103.8216261
      },
      "province": {
        "id": 8,
        "name": "Jambi",
        "lat": -1.6101229,
        "lng": 103.6131203
      },
      "country": {
        "id": 228,
        "name": "INDONESIA",
        "code": "ID"
      },
      "id": 7063,
      "name": "Suka Maju",
      "postcode": "36364",
      "lat": -1.7566712,
      "lng": 103.6189078
    },
    {
      "suburb": {
        "id": 714,
        "name": "Mestong",
        "lat": -1.8192241,
        "lng": 103.4974258
      },
      "city": {
        "id": 58,
        "name": "Muaro Jambi",
        "lat": -1.552136,
        "lng": 103.8216261
      },
      "province": {
        "id": 8,
        "name": "Jambi",
        "lat": -1.6101229,
        "lng": 103.6131203
      },
      "country": {
        "id": 228,
        "name": "INDONESIA",
        "code": "ID"
      },
      "id": 7064,
      "name": "Sungai Landai",
      "postcode": "36364",
      "lat": -1.8279172,
      "lng": 103.6015463
    },
    {
      "suburb": {
        "id": 714,
        "name": "Mestong",
        "lat": -1.8192241,
        "lng": 103.4974258
      },
      "city": {
        "id": 58,
        "name": "Muaro Jambi",
        "lat": -1.552136,
        "lng": 103.8216261
      },
      "province": {
        "id": 8,
        "name": "Jambi",
        "lat": -1.6101229,
        "lng": 103.6131203
      },
      "country": {
        "id": 228,
        "name": "INDONESIA",
        "code": "ID"
      },
      "id": 7065,
      "name": "Suka Damai",
      "postcode": "36364",
      "lat": -1.8782046,
      "lng": 103.5465835
    },
    {
      "suburb": {
        "id": 714,
        "name": "Mestong",
        "lat": -1.8192241,
        "lng": 103.4974258
      },
      "city": {
        "id": 58,
        "name": "Muaro Jambi",
        "lat": -1.552136,
        "lng": 103.8216261
      },
      "province": {
        "id": 8,
        "name": "Jambi",
        "lat": -1.6101229,
        "lng": 103.6131203
      },
      "country": {
        "id": 228,
        "name": "INDONESIA",
        "code": "ID"
      },
      "id": 7066,
      "name": "Pelempang",
      "postcode": "36364",
      "lat": -1.8096452,
      "lng": 103.5089907
    },
    {
      "suburb": {
        "id": 714,
        "name": "Mestong",
        "lat": -1.8192241,
        "lng": 103.4974258
      },
      "city": {
        "id": 58,
        "name": "Muaro Jambi",
        "lat": -1.552136,
        "lng": 103.8216261
      },
      "province": {
        "id": 8,
        "name": "Jambi",
        "lat": -1.6101229,
        "lng": 103.6131203
      },
      "country": {
        "id": 228,
        "name": "INDONESIA",
        "code": "ID"
      },
      "id": 7067,
      "name": "Pondok Meja",
      "postcode": "36364",
      "lat": -1.6954267,
      "lng": 103.5784012
    },
    {
      "suburb": {
        "id": 714,
        "name": "Mestong",
        "lat": -1.8192241,
        "lng": 103.4974258
      },
      "city": {
        "id": 58,
        "name": "Muaro Jambi",
        "lat": -1.552136,
        "lng": 103.8216261
      },
      "province": {
        "id": 8,
        "name": "Jambi",
        "lat": -1.6101229,
        "lng": 103.6131203
      },
      "country": {
        "id": 228,
        "name": "INDONESIA",
        "code": "ID"
      },
      "id": 7068,
      "name": "Sebapo",
      "postcode": "36364",
      "lat": -1.7759695,
      "lng": 103.5726156
    },
    {
      "suburb": {
        "id": 714,
        "name": "Mestong",
        "lat": -1.8192241,
        "lng": 103.4974258
      },
      "city": {
        "id": 58,
        "name": "Muaro Jambi",
        "lat": -1.552136,
        "lng": 103.8216261
      },
      "province": {
        "id": 8,
        "name": "Jambi",
        "lat": -1.6101229,
        "lng": 103.6131203
      },
      "country": {
        "id": 228,
        "name": "INDONESIA",
        "code": "ID"
      },
      "id": 7069,
      "name": "Nyogan",
      "postcode": "36364",
      "lat": -1.8668021,
      "lng": 103.485862
    },
    {
      "suburb": {
        "id": 708,
        "name": "Sungai Gelam",
        "lat": -1.7413052,
        "lng": 103.7752634
      },
      "city": {
        "id": 58,
        "name": "Muaro Jambi",
        "lat": -1.552136,
        "lng": 103.8216261
      },
      "province": {
        "id": 8,
        "name": "Jambi",
        "lat": -1.6101229,
        "lng": 103.6131203
      },
      "country": {
        "id": 228,
        "name": "INDONESIA",
        "code": "ID"
      },
      "id": 7070,
      "name": "Ladang Panjang",
      "postcode": "36364",
      "lat": -1.7986618,
      "lng": 103.7057493
    },
    {
      "suburb": {
        "id": 714,
        "name": "Mestong",
        "lat": -1.8192241,
        "lng": 103.4974258
      },
      "city": {
        "id": 58,
        "name": "Muaro Jambi",
        "lat": -1.552136,
        "lng": 103.8216261
      },
      "province": {
        "id": 8,
        "name": "Jambi",
        "lat": -1.6101229,
        "lng": 103.6131203
      },
      "country": {
        "id": 228,
        "name": "INDONESIA",
        "code": "ID"
      },
      "id": 7071,
      "name": "Muaro Sebapo",
      "postcode": "36364",
      "lat": -1.7380674,
      "lng": 103.5726156
    },
    {
      "suburb": {
        "id": 714,
        "name": "Mestong",
        "lat": -1.8192241,
        "lng": 103.4974258
      },
      "city": {
        "id": 58,
        "name": "Muaro Jambi",
        "lat": -1.552136,
        "lng": 103.8216261
      },
      "province": {
        "id": 8,
        "name": "Jambi",
        "lat": -1.6101229,
        "lng": 103.6131203
      },
      "country": {
        "id": 228,
        "name": "INDONESIA",
        "code": "ID"
      },
      "id": 7072,
      "name": "Naga Sari",
      "postcode": "36364",
      "lat": -1.7573561,
      "lng": 103.5263398
    },
    {
      "suburb": {
        "id": 708,
        "name": "Sungai Gelam",
        "lat": -1.7413052,
        "lng": 103.7752634
      },
      "city": {
        "id": 58,
        "name": "Muaro Jambi",
        "lat": -1.552136,
        "lng": 103.8216261
      },
      "province": {
        "id": 8,
        "name": "Jambi",
        "lat": -1.6101229,
        "lng": 103.6131203
      },
      "country": {
        "id": 228,
        "name": "INDONESIA",
        "code": "ID"
      },
      "id": 7073,
      "name": "Kebon Sembilan (IX)",
      "postcode": "36364",
      "lat": -1.6711661,
      "lng": 103.6652162
    },
    {
      "suburb": {
        "id": 714,
        "name": "Mestong",
        "lat": -1.8192241,
        "lng": 103.4974258
      },
      "city": {
        "id": 58,
        "name": "Muaro Jambi",
        "lat": -1.552136,
        "lng": 103.8216261
      },
      "province": {
        "id": 8,
        "name": "Jambi",
        "lat": -1.6101229,
        "lng": 103.6131203
      },
      "country": {
        "id": 228,
        "name": "INDONESIA",
        "code": "ID"
      },
      "id": 7074,
      "name": "Ibru",
      "postcode": "36364",
      "lat": -1.8518752,
      "lng": 103.5726156
    },
    {
      "suburb": {
        "id": 706,
        "name": "Jambi Luar Kota",
        "lat": -1.6488656,
        "lng": 103.4742993
      },
      "city": {
        "id": 58,
        "name": "Muaro Jambi",
        "lat": -1.552136,
        "lng": 103.8216261
      },
      "province": {
        "id": 8,
        "name": "Jambi",
        "lat": -1.6101229,
        "lng": 103.6131203
      },
      "country": {
        "id": 228,
        "name": "INDONESIA",
        "code": "ID"
      },
      "id": 7075,
      "name": "Sungai Duren",
      "postcode": "36361",
      "lat": -1.584843,
      "lng": 103.511882
    },
    {
      "suburb": {
        "id": 714,
        "name": "Mestong",
        "lat": -1.8192241,
        "lng": 103.4974258
      },
      "city": {
        "id": 58,
        "name": "Muaro Jambi",
        "lat": -1.552136,
        "lng": 103.8216261
      },
      "province": {
        "id": 8,
        "name": "Jambi",
        "lat": -1.6101229,
        "lng": 103.6131203
      },
      "country": {
        "id": 228,
        "name": "INDONESIA",
        "code": "ID"
      },
      "id": 7076,
      "name": "Baru",
      "postcode": "36364",
      "lat": -1.7532534,
      "lng": 103.4396172
    },
    {
      "suburb": {
        "id": 706,
        "name": "Jambi Luar Kota",
        "lat": -1.6488656,
        "lng": 103.4742993
      },
      "city": {
        "id": 58,
        "name": "Muaro Jambi",
        "lat": -1.552136,
        "lng": 103.8216261
      },
      "province": {
        "id": 8,
        "name": "Jambi",
        "lat": -1.6101229,
        "lng": 103.6131203
      },
      "country": {
        "id": 228,
        "name": "INDONESIA",
        "code": "ID"
      },
      "id": 7077,
      "name": "Simpang Sungai/Sei Duren",
      "postcode": "36361",
      "lat": -1.6132875,
      "lng": 103.4945348
    },
    {
      "suburb": {
        "id": 706,
        "name": "Jambi Luar Kota",
        "lat": -1.6488656,
        "lng": 103.4742993
      },
      "city": {
        "id": 58,
        "name": "Muaro Jambi",
        "lat": -1.552136,
        "lng": 103.8216261
      },
      "province": {
        "id": 8,
        "name": "Jambi",
        "lat": -1.6101229,
        "lng": 103.6131203
      },
      "country": {
        "id": 228,
        "name": "INDONESIA",
        "code": "ID"
      },
      "id": 7078,
      "name": "Sungai Bertam",
      "postcode": "36361",
      "lat": -1.6959212,
      "lng": 103.5089907
    },
    {
      "suburb": {
        "id": 706,
        "name": "Jambi Luar Kota",
        "lat": -1.6488656,
        "lng": 103.4742993
      },
      "city": {
        "id": 58,
        "name": "Muaro Jambi",
        "lat": -1.552136,
        "lng": 103.8216261
      },
      "province": {
        "id": 8,
        "name": "Jambi",
        "lat": -1.6101229,
        "lng": 103.6131203
      },
      "country": {
        "id": 228,
        "name": "INDONESIA",
        "code": "ID"
      },
      "id": 7079,
      "name": "Sembubuk",
      "postcode": "36361",
      "lat": -1.569307,
      "lng": 103.5422453
    },
    {
      "suburb": {
        "id": 706,
        "name": "Jambi Luar Kota",
        "lat": -1.6488656,
        "lng": 103.4742993
      },
      "city": {
        "id": 58,
        "name": "Muaro Jambi",
        "lat": -1.552136,
        "lng": 103.8216261
      },
      "province": {
        "id": 8,
        "name": "Jambi",
        "lat": -1.6101229,
        "lng": 103.6131203
      },
      "country": {
        "id": 228,
        "name": "INDONESIA",
        "code": "ID"
      },
      "id": 7080,
      "name": "Senaung",
      "postcode": "36361",
      "lat": -1.5609482,
      "lng": 103.5581527
    },
    {
      "suburb": {
        "id": 706,
        "name": "Jambi Luar Kota",
        "lat": -1.6488656,
        "lng": 103.4742993
      },
      "city": {
        "id": 58,
        "name": "Muaro Jambi",
        "lat": -1.552136,
        "lng": 103.8216261
      },
      "province": {
        "id": 8,
        "name": "Jambi",
        "lat": -1.6101229,
        "lng": 103.6131203
      },
      "country": {
        "id": 228,
        "name": "INDONESIA",
        "code": "ID"
      },
      "id": 7081,
      "name": "Simpang Limo",
      "postcode": "36361",
      "lat": -1.5693452,
      "lng": 103.5364613
    },
    {
      "suburb": {
        "id": 706,
        "name": "Jambi Luar Kota",
        "lat": -1.6488656,
        "lng": 103.4742993
      },
      "city": {
        "id": 58,
        "name": "Muaro Jambi",
        "lat": -1.552136,
        "lng": 103.8216261
      },
      "province": {
        "id": 8,
        "name": "Jambi",
        "lat": -1.6101229,
        "lng": 103.6131203
      },
      "country": {
        "id": 228,
        "name": "INDONESIA",
        "code": "ID"
      },
      "id": 7082,
      "name": "Rengas Bandung",
      "postcode": "36361",
      "lat": -1.549442,
      "lng": 103.5147735
    },
    {
      "suburb": {
        "id": 706,
        "name": "Jambi Luar Kota",
        "lat": -1.6488656,
        "lng": 103.4742993
      },
      "city": {
        "id": 58,
        "name": "Muaro Jambi",
        "lat": -1.552136,
        "lng": 103.8216261
      },
      "province": {
        "id": 8,
        "name": "Jambi",
        "lat": -1.6101229,
        "lng": 103.6131203
      },
      "country": {
        "id": 228,
        "name": "INDONESIA",
        "code": "ID"
      },
      "id": 7083,
      "name": "Sarang Burung",
      "postcode": "36361",
      "lat": -1.5658928,
      "lng": 103.5234481
    },
    {
      "suburb": {
        "id": 706,
        "name": "Jambi Luar Kota",
        "lat": -1.6488656,
        "lng": 103.4742993
      },
      "city": {
        "id": 58,
        "name": "Muaro Jambi",
        "lat": -1.552136,
        "lng": 103.8216261
      },
      "province": {
        "id": 8,
        "name": "Jambi",
        "lat": -1.6101229,
        "lng": 103.6131203
      },
      "country": {
        "id": 228,
        "name": "INDONESIA",
        "code": "ID"
      },
      "id": 7084,
      "name": "Penyengat Olak",
      "postcode": "36361",
      "lat": -1.5655883,
      "lng": 103.5697229
    },
    {
      "suburb": {
        "id": 706,
        "name": "Jambi Luar Kota",
        "lat": -1.6488656,
        "lng": 103.4742993
      },
      "city": {
        "id": 58,
        "name": "Muaro Jambi",
        "lat": -1.552136,
        "lng": 103.8216261
      },
      "province": {
        "id": 8,
        "name": "Jambi",
        "lat": -1.6101229,
        "lng": 103.6131203
      },
      "country": {
        "id": 228,
        "name": "INDONESIA",
        "code": "ID"
      },
      "id": 7085,
      "name": "Pijoan",
      "postcode": "36361",
      "lat": -1.5874909,
      "lng": 103.4685183
    },
    {
      "suburb": {
        "id": 706,
        "name": "Jambi Luar Kota",
        "lat": -1.6488656,
        "lng": 103.4742993
      },
      "city": {
        "id": 58,
        "name": "Muaro Jambi",
        "lat": -1.552136,
        "lng": 103.8216261
      },
      "province": {
        "id": 8,
        "name": "Jambi",
        "lat": -1.6101229,
        "lng": 103.6131203
      },
      "country": {
        "id": 228,
        "name": "INDONESIA",
        "code": "ID"
      },
      "id": 7086,
      "name": "Muhajirin",
      "postcode": "36361",
      "lat": -1.7153513,
      "lng": 103.4396172
    },
    {
      "suburb": {
        "id": 706,
        "name": "Jambi Luar Kota",
        "lat": -1.6488656,
        "lng": 103.4742993
      },
      "city": {
        "id": 58,
        "name": "Muaro Jambi",
        "lat": -1.552136,
        "lng": 103.8216261
      },
      "province": {
        "id": 8,
        "name": "Jambi",
        "lat": -1.6101229,
        "lng": 103.6131203
      },
      "country": {
        "id": 228,
        "name": "INDONESIA",
        "code": "ID"
      },
      "id": 7087,
      "name": "Pematang Gajah",
      "postcode": "36361",
      "lat": -1.6488656,
      "lng": 103.4742993
    },
    {
      "suburb": {
        "id": 706,
        "name": "Jambi Luar Kota",
        "lat": -1.6488656,
        "lng": 103.4742993
      },
      "city": {
        "id": 58,
        "name": "Muaro Jambi",
        "lat": -1.552136,
        "lng": 103.8216261
      },
      "province": {
        "id": 8,
        "name": "Jambi",
        "lat": -1.6101229,
        "lng": 103.6131203
      },
      "country": {
        "id": 228,
        "name": "INDONESIA",
        "code": "ID"
      },
      "id": 7088,
      "name": "Pematang Jering",
      "postcode": "36361",
      "lat": -1.5496671,
      "lng": 103.4800805
    },
    {
      "suburb": {
        "id": 706,
        "name": "Jambi Luar Kota",
        "lat": -1.6488656,
        "lng": 103.4742993
      },
      "city": {
        "id": 58,
        "name": "Muaro Jambi",
        "lat": -1.552136,
        "lng": 103.8216261
      },
      "province": {
        "id": 8,
        "name": "Jambi",
        "lat": -1.6101229,
        "lng": 103.6131203
      },
      "country": {
        "id": 228,
        "name": "INDONESIA",
        "code": "ID"
      },
      "id": 7089,
      "name": "Mendalo Laut",
      "postcode": "36361",
      "lat": -1.5846892,
      "lng": 103.5350153
    },
    {
      "suburb": {
        "id": 706,
        "name": "Jambi Luar Kota",
        "lat": -1.6488656,
        "lng": 103.4742993
      },
      "city": {
        "id": 58,
        "name": "Muaro Jambi",
        "lat": -1.552136,
        "lng": 103.8216261
      },
      "province": {
        "id": 8,
        "name": "Jambi",
        "lat": -1.6101229,
        "lng": 103.6131203
      },
      "country": {
        "id": 228,
        "name": "INDONESIA",
        "code": "ID"
      },
      "id": 7090,
      "name": "Muara Pijoan (Muaro Pijoan)",
      "postcode": "36361",
      "lat": -1.5778979,
      "lng": 103.4916438
    },
    {
      "suburb": {
        "id": 706,
        "name": "Jambi Luar Kota",
        "lat": -1.6488656,
        "lng": 103.4742993
      },
      "city": {
        "id": 58,
        "name": "Muaro Jambi",
        "lat": -1.552136,
        "lng": 103.8216261
      },
      "province": {
        "id": 8,
        "name": "Jambi",
        "lat": -1.6101229,
        "lng": 103.6131203
      },
      "country": {
        "id": 228,
        "name": "INDONESIA",
        "code": "ID"
      },
      "id": 7091,
      "name": "Mendalo Darat",
      "postcode": "36361",
      "lat": -1.6391736,
      "lng": 103.5089907
    },
    {
      "suburb": {
        "id": 706,
        "name": "Jambi Luar Kota",
        "lat": -1.6488656,
        "lng": 103.4742993
      },
      "city": {
        "id": 58,
        "name": "Muaro Jambi",
        "lat": -1.552136,
        "lng": 103.8216261
      },
      "province": {
        "id": 8,
        "name": "Jambi",
        "lat": -1.6101229,
        "lng": 103.6131203
      },
      "country": {
        "id": 228,
        "name": "INDONESIA",
        "code": "ID"
      },
      "id": 7092,
      "name": "Mendalo Indah",
      "postcode": "36361",
      "lat": -1.6488656,
      "lng": 103.4742993
    },
    {
      "suburb": {
        "id": 706,
        "name": "Jambi Luar Kota",
        "lat": -1.6488656,
        "lng": 103.4742993
      },
      "city": {
        "id": 58,
        "name": "Muaro Jambi",
        "lat": -1.552136,
        "lng": 103.8216261
      },
      "province": {
        "id": 8,
        "name": "Jambi",
        "lat": -1.6101229,
        "lng": 103.6131203
      },
      "country": {
        "id": 228,
        "name": "INDONESIA",
        "code": "ID"
      },
      "id": 7093,
      "name": "Kademangan",
      "postcode": "36361",
      "lat": -1.6488656,
      "lng": 103.4742993
    },
    {
      "suburb": {
        "id": 715,
        "name": "Danau Teluk",
        "lat": -1.5677745,
        "lng": 103.5957596
      },
      "city": {
        "id": 59,
        "name": "Jambi",
        "lat": -1.6101229,
        "lng": 103.6131203
      },
      "province": {
        "id": 8,
        "name": "Jambi",
        "lat": -1.6101229,
        "lng": 103.6131203
      },
      "country": {
        "id": 228,
        "name": "INDONESIA",
        "code": "ID"
      },
      "id": 7094,
      "name": "Pasir Panjang",
      "postcode": "36265",
      "lat": -1.5702283,
      "lng": 103.5812941
    },
    {
      "suburb": {
        "id": 706,
        "name": "Jambi Luar Kota",
        "lat": -1.6488656,
        "lng": 103.4742993
      },
      "city": {
        "id": 58,
        "name": "Muaro Jambi",
        "lat": -1.552136,
        "lng": 103.8216261
      },
      "province": {
        "id": 8,
        "name": "Jambi",
        "lat": -1.6101229,
        "lng": 103.6131203
      },
      "country": {
        "id": 228,
        "name": "INDONESIA",
        "code": "ID"
      },
      "id": 7095,
      "name": "Danau Sarang Elang",
      "postcode": "36361",
      "lat": -1.639649,
      "lng": 103.4396172
    },
    {
      "suburb": {
        "id": 715,
        "name": "Danau Teluk",
        "lat": -1.5677745,
        "lng": 103.5957596
      },
      "city": {
        "id": 59,
        "name": "Jambi",
        "lat": -1.6101229,
        "lng": 103.6131203
      },
      "province": {
        "id": 8,
        "name": "Jambi",
        "lat": -1.6101229,
        "lng": 103.6131203
      },
      "country": {
        "id": 228,
        "name": "INDONESIA",
        "code": "ID"
      },
      "id": 7096,
      "name": "Tanjung Raden",
      "postcode": "36264",
      "lat": -1.5808325,
      "lng": 103.5827406
    },
    {
      "suburb": {
        "id": 715,
        "name": "Danau Teluk",
        "lat": -1.5677745,
        "lng": 103.5957596
      },
      "city": {
        "id": 59,
        "name": "Jambi",
        "lat": -1.6101229,
        "lng": 103.6131203
      },
      "province": {
        "id": 8,
        "name": "Jambi",
        "lat": -1.6101229,
        "lng": 103.6131203
      },
      "country": {
        "id": 228,
        "name": "INDONESIA",
        "code": "ID"
      },
      "id": 7097,
      "name": "Olak Kemang",
      "postcode": "36262",
      "lat": -1.5653974,
      "lng": 103.5986529
    },
    {
      "suburb": {
        "id": 715,
        "name": "Danau Teluk",
        "lat": -1.5677745,
        "lng": 103.5957596
      },
      "city": {
        "id": 59,
        "name": "Jambi",
        "lat": -1.6101229,
        "lng": 103.6131203
      },
      "province": {
        "id": 8,
        "name": "Jambi",
        "lat": -1.6101229,
        "lng": 103.6131203
      },
      "country": {
        "id": 228,
        "name": "INDONESIA",
        "code": "ID"
      },
      "id": 7098,
      "name": "Tanjung Pasir",
      "postcode": "36263",
      "lat": -1.5807747,
      "lng": 103.5914198
    },
    {
      "suburb": {
        "id": 716,
        "name": "Pelayangan",
        "lat": -1.5676212,
        "lng": 103.6189078
      },
      "city": {
        "id": 59,
        "name": "Jambi",
        "lat": -1.6101229,
        "lng": 103.6131203
      },
      "province": {
        "id": 8,
        "name": "Jambi",
        "lat": -1.6101229,
        "lng": 103.6131203
      },
      "country": {
        "id": 228,
        "name": "INDONESIA",
        "code": "ID"
      },
      "id": 7099,
      "name": "Tanjung Johor",
      "postcode": "36256",
      "lat": -1.5557386,
      "lng": 103.6333774
    },
    {
      "suburb": {
        "id": 715,
        "name": "Danau Teluk",
        "lat": -1.5677745,
        "lng": 103.5957596
      },
      "city": {
        "id": 59,
        "name": "Jambi",
        "lat": -1.6101229,
        "lng": 103.6131203
      },
      "province": {
        "id": 8,
        "name": "Jambi",
        "lat": -1.6101229,
        "lng": 103.6131203
      },
      "country": {
        "id": 228,
        "name": "INDONESIA",
        "code": "ID"
      },
      "id": 7100,
      "name": "Ulu Gedong",
      "postcode": "36261",
      "lat": -1.5659151,
      "lng": 103.6095033
    },
    {
      "suburb": {
        "id": 716,
        "name": "Pelayangan",
        "lat": -1.5676212,
        "lng": 103.6189078
      },
      "city": {
        "id": 59,
        "name": "Jambi",
        "lat": -1.6101229,
        "lng": 103.6131203
      },
      "province": {
        "id": 8,
        "name": "Jambi",
        "lat": -1.6101229,
        "lng": 103.6131203
      },
      "country": {
        "id": 228,
        "name": "INDONESIA",
        "code": "ID"
      },
      "id": 7101,
      "name": "Tengah",
      "postcode": "36254",
      "lat": -1.5812534,
      "lng": 103.6080566
    },
    {
      "suburb": {
        "id": 716,
        "name": "Pelayangan",
        "lat": -1.5676212,
        "lng": 103.6189078
      },
      "city": {
        "id": 59,
        "name": "Jambi",
        "lat": -1.6101229,
        "lng": 103.6131203
      },
      "province": {
        "id": 8,
        "name": "Jambi",
        "lat": -1.6101229,
        "lng": 103.6131203
      },
      "country": {
        "id": 228,
        "name": "INDONESIA",
        "code": "ID"
      },
      "id": 7102,
      "name": "Tahtul Yaman",
      "postcode": "36255",
      "lat": -1.5699599,
      "lng": 103.6218016
    },
    {
      "suburb": {
        "id": 716,
        "name": "Pelayangan",
        "lat": -1.5676212,
        "lng": 103.6189078
      },
      "city": {
        "id": 59,
        "name": "Jambi",
        "lat": -1.6101229,
        "lng": 103.6131203
      },
      "province": {
        "id": 8,
        "name": "Jambi",
        "lat": -1.6101229,
        "lng": 103.6131203
      },
      "country": {
        "id": 228,
        "name": "INDONESIA",
        "code": "ID"
      },
      "id": 7103,
      "name": "Mudung Laut",
      "postcode": "36252",
      "lat": -1.5694136,
      "lng": 103.6152906
    },
    {
      "suburb": {
        "id": 716,
        "name": "Pelayangan",
        "lat": -1.5676212,
        "lng": 103.6189078
      },
      "city": {
        "id": 59,
        "name": "Jambi",
        "lat": -1.6101229,
        "lng": 103.6131203
      },
      "province": {
        "id": 8,
        "name": "Jambi",
        "lat": -1.6101229,
        "lng": 103.6131203
      },
      "country": {
        "id": 228,
        "name": "INDONESIA",
        "code": "ID"
      },
      "id": 7104,
      "name": "Jelmu",
      "postcode": "36253",
      "lat": -1.585971,
      "lng": 103.6080566
    },
    {
      "suburb": {
        "id": 717,
        "name": "Jambi Timur",
        "lat": -1.5863327,
        "lng": 103.6420599
      },
      "city": {
        "id": 59,
        "name": "Jambi",
        "lat": -1.6101229,
        "lng": 103.6131203
      },
      "province": {
        "id": 8,
        "name": "Jambi",
        "lat": -1.6101229,
        "lng": 103.6131203
      },
      "country": {
        "id": 228,
        "name": "INDONESIA",
        "code": "ID"
      },
      "id": 7105,
      "name": "Sijenjang (Sijinjang)",
      "postcode": "36149",
      "lat": -1.5674677,
      "lng": 103.6420599
    },
    {
      "suburb": {
        "id": 716,
        "name": "Pelayangan",
        "lat": -1.5676212,
        "lng": 103.6189078
      },
      "city": {
        "id": 59,
        "name": "Jambi",
        "lat": -1.6101229,
        "lng": 103.6131203
      },
      "province": {
        "id": 8,
        "name": "Jambi",
        "lat": -1.6101229,
        "lng": 103.6131203
      },
      "country": {
        "id": 228,
        "name": "INDONESIA",
        "code": "ID"
      },
      "id": 7106,
      "name": "Arab Melayu",
      "postcode": "36251",
      "lat": -1.5806202,
      "lng": 103.6145672
    },
    {
      "suburb": {
        "id": 717,
        "name": "Jambi Timur",
        "lat": -1.5863327,
        "lng": 103.6420599
      },
      "city": {
        "id": 59,
        "name": "Jambi",
        "lat": -1.6101229,
        "lng": 103.6131203
      },
      "province": {
        "id": 8,
        "name": "Jambi",
        "lat": -1.6101229,
        "lng": 103.6131203
      },
      "country": {
        "id": 228,
        "name": "INDONESIA",
        "code": "ID"
      },
      "id": 7107,
      "name": "Tanjung Sari",
      "postcode": "36147",
      "lat": -1.5899,
      "lng": 103.6377186
    },
    {
      "suburb": {
        "id": 717,
        "name": "Jambi Timur",
        "lat": -1.5863327,
        "lng": 103.6420599
      },
      "city": {
        "id": 59,
        "name": "Jambi",
        "lat": -1.6101229,
        "lng": 103.6131203
      },
      "province": {
        "id": 8,
        "name": "Jambi",
        "lat": -1.6101229,
        "lng": 103.6131203
      },
      "country": {
        "id": 228,
        "name": "INDONESIA",
        "code": "ID"
      },
      "id": 7108,
      "name": "Payo Selincah/Silincah",
      "postcode": "36148",
      "lat": -1.5980688,
      "lng": 103.6507431
    },
    {
      "suburb": {
        "id": 717,
        "name": "Jambi Timur",
        "lat": -1.5863327,
        "lng": 103.6420599
      },
      "city": {
        "id": 59,
        "name": "Jambi",
        "lat": -1.6101229,
        "lng": 103.6131203
      },
      "province": {
        "id": 8,
        "name": "Jambi",
        "lat": -1.6101229,
        "lng": 103.6131203
      },
      "country": {
        "id": 228,
        "name": "INDONESIA",
        "code": "ID"
      },
      "id": 7109,
      "name": "Tanjung Pinang",
      "postcode": "36146",
      "lat": -1.5923175,
      "lng": 103.6290363
    },
    {
      "suburb": {
        "id": 717,
        "name": "Jambi Timur",
        "lat": -1.5863327,
        "lng": 103.6420599
      },
      "city": {
        "id": 59,
        "name": "Jambi",
        "lat": -1.6101229,
        "lng": 103.6131203
      },
      "province": {
        "id": 8,
        "name": "Jambi",
        "lat": -1.6101229,
        "lng": 103.6131203
      },
      "country": {
        "id": 228,
        "name": "INDONESIA",
        "code": "ID"
      },
      "id": 7110,
      "name": "Sulan Jana",
      "postcode": "36144",
      "lat": -1.5964998,
      "lng": 103.6210781
    },
    {
      "suburb": {
        "id": 717,
        "name": "Jambi Timur",
        "lat": -1.5863327,
        "lng": 103.6420599
      },
      "city": {
        "id": 59,
        "name": "Jambi",
        "lat": -1.6101229,
        "lng": 103.6131203
      },
      "province": {
        "id": 8,
        "name": "Jambi",
        "lat": -1.6101229,
        "lng": 103.6131203
      },
      "country": {
        "id": 228,
        "name": "INDONESIA",
        "code": "ID"
      },
      "id": 7111,
      "name": "Budiman",
      "postcode": "36145",
      "lat": -1.59883,
      "lng": 103.6254189
    },
    {
      "suburb": {
        "id": 717,
        "name": "Jambi Timur",
        "lat": -1.5863327,
        "lng": 103.6420599
      },
      "city": {
        "id": 59,
        "name": "Jambi",
        "lat": -1.6101229,
        "lng": 103.6131203
      },
      "province": {
        "id": 8,
        "name": "Jambi",
        "lat": -1.6101229,
        "lng": 103.6131203
      },
      "country": {
        "id": 228,
        "name": "INDONESIA",
        "code": "ID"
      },
      "id": 7112,
      "name": "Talang Banjar",
      "postcode": "36142",
      "lat": -1.6029054,
      "lng": 103.6333774
    },
    {
      "suburb": {
        "id": 717,
        "name": "Jambi Timur",
        "lat": -1.5863327,
        "lng": 103.6420599
      },
      "city": {
        "id": 59,
        "name": "Jambi",
        "lat": -1.6101229,
        "lng": 103.6131203
      },
      "province": {
        "id": 8,
        "name": "Jambi",
        "lat": -1.6101229,
        "lng": 103.6131203
      },
      "country": {
        "id": 228,
        "name": "INDONESIA",
        "code": "ID"
      },
      "id": 7113,
      "name": "Rajawali",
      "postcode": "36143",
      "lat": -1.5899973,
      "lng": 103.6232485
    },
    {
      "suburb": {
        "id": 717,
        "name": "Jambi Timur",
        "lat": -1.5863327,
        "lng": 103.6420599
      },
      "city": {
        "id": 59,
        "name": "Jambi",
        "lat": -1.6101229,
        "lng": 103.6131203
      },
      "province": {
        "id": 8,
        "name": "Jambi",
        "lat": -1.6101229,
        "lng": 103.6131203
      },
      "country": {
        "id": 228,
        "name": "INDONESIA",
        "code": "ID"
      },
      "id": 7114,
      "name": "Kasang",
      "postcode": "36141",
      "lat": -1.5829208,
      "lng": 103.6232485
    },
    {
      "suburb": {
        "id": 717,
        "name": "Jambi Timur",
        "lat": -1.5863327,
        "lng": 103.6420599
      },
      "city": {
        "id": 59,
        "name": "Jambi",
        "lat": -1.6101229,
        "lng": 103.6131203
      },
      "province": {
        "id": 8,
        "name": "Jambi",
        "lat": -1.6101229,
        "lng": 103.6131203
      },
      "country": {
        "id": 228,
        "name": "INDONESIA",
        "code": "ID"
      },
      "id": 7115,
      "name": "Kasang Jaya",
      "postcode": "36141",
      "lat": -1.5852213,
      "lng": 103.6319304
    },
    {
      "suburb": {
        "id": 718,
        "name": "Jambi Selatan",
        "lat": -1.6335322,
        "lng": 103.6420599
      },
      "city": {
        "id": 59,
        "name": "Jambi",
        "lat": -1.6101229,
        "lng": 103.6131203
      },
      "province": {
        "id": 8,
        "name": "Jambi",
        "lat": -1.6101229,
        "lng": 103.6131203
      },
      "country": {
        "id": 228,
        "name": "INDONESIA",
        "code": "ID"
      },
      "id": 7116,
      "name": "Tambak Sari",
      "postcode": "36139",
      "lat": -1.611234,
      "lng": 103.6232485
    },
    {
      "suburb": {
        "id": 718,
        "name": "Jambi Selatan",
        "lat": -1.6335322,
        "lng": 103.6420599
      },
      "city": {
        "id": 59,
        "name": "Jambi",
        "lat": -1.6101229,
        "lng": 103.6131203
      },
      "province": {
        "id": 8,
        "name": "Jambi",
        "lat": -1.6101229,
        "lng": 103.6131203
      },
      "country": {
        "id": 228,
        "name": "INDONESIA",
        "code": "ID"
      },
      "id": 7117,
      "name": "Talang Bakung",
      "postcode": "36139",
      "lat": -1.631111,
      "lng": 103.6507431
    },
    {
      "suburb": {
        "id": 718,
        "name": "Jambi Selatan",
        "lat": -1.6335322,
        "lng": 103.6420599
      },
      "city": {
        "id": 59,
        "name": "Jambi",
        "lat": -1.6101229,
        "lng": 103.6131203
      },
      "province": {
        "id": 8,
        "name": "Jambi",
        "lat": -1.6101229,
        "lng": 103.6131203
      },
      "country": {
        "id": 228,
        "name": "INDONESIA",
        "code": "ID"
      },
      "id": 7118,
      "name": "Pasir Putih",
      "postcode": "36139",
      "lat": -1.6217472,
      "lng": 103.6391657
    },
    {
      "suburb": {
        "id": 718,
        "name": "Jambi Selatan",
        "lat": -1.6335322,
        "lng": 103.6420599
      },
      "city": {
        "id": 59,
        "name": "Jambi",
        "lat": -1.6101229,
        "lng": 103.6131203
      },
      "province": {
        "id": 8,
        "name": "Jambi",
        "lat": -1.6101229,
        "lng": 103.6131203
      },
      "country": {
        "id": 228,
        "name": "INDONESIA",
        "code": "ID"
      },
      "id": 7119,
      "name": "Paal Merah",
      "postcode": "36139",
      "lat": -1.6359136,
      "lng": 103.6391657
    },
    {
      "suburb": {
        "id": 718,
        "name": "Jambi Selatan",
        "lat": -1.6335322,
        "lng": 103.6420599
      },
      "city": {
        "id": 59,
        "name": "Jambi",
        "lat": -1.6101229,
        "lng": 103.6131203
      },
      "province": {
        "id": 8,
        "name": "Jambi",
        "lat": -1.6101229,
        "lng": 103.6131203
      },
      "country": {
        "id": 228,
        "name": "INDONESIA",
        "code": "ID"
      },
      "id": 7120,
      "name": "Lingkar Selatan",
      "postcode": "36139",
      "lat": -1.6500848,
      "lng": 103.6391657
    },
    {
      "suburb": {
        "id": 718,
        "name": "Jambi Selatan",
        "lat": -1.6335322,
        "lng": 103.6420599
      },
      "city": {
        "id": 59,
        "name": "Jambi",
        "lat": -1.6101229,
        "lng": 103.6131203
      },
      "province": {
        "id": 8,
        "name": "Jambi",
        "lat": -1.6101229,
        "lng": 103.6131203
      },
      "country": {
        "id": 228,
        "name": "INDONESIA",
        "code": "ID"
      },
      "id": 7121,
      "name": "Eka Jaya",
      "postcode": "36139",
      "lat": -1.6144876,
      "lng": 103.6652162
    },
    {
      "suburb": {
        "id": 718,
        "name": "Jambi Selatan",
        "lat": -1.6335322,
        "lng": 103.6420599
      },
      "city": {
        "id": 59,
        "name": "Jambi",
        "lat": -1.6101229,
        "lng": 103.6131203
      },
      "province": {
        "id": 8,
        "name": "Jambi",
        "lat": -1.6101229,
        "lng": 103.6131203
      },
      "country": {
        "id": 228,
        "name": "INDONESIA",
        "code": "ID"
      },
      "id": 7122,
      "name": "The Hok",
      "postcode": "36138",
      "lat": -1.6265485,
      "lng": 103.6275894
    },
    {
      "suburb": {
        "id": 719,
        "name": "Jelutung",
        "lat": -1.6171845,
        "lng": 103.616014
      },
      "city": {
        "id": 59,
        "name": "Jambi",
        "lat": -1.6101229,
        "lng": 103.6131203
      },
      "province": {
        "id": 8,
        "name": "Jambi",
        "lat": -1.6101229,
        "lng": 103.6131203
      },
      "country": {
        "id": 228,
        "name": "INDONESIA",
        "code": "ID"
      },
      "id": 7123,
      "name": "Kebun Handil",
      "postcode": "36137",
      "lat": -1.6254376,
      "lng": 103.6174609
    },
    {
      "suburb": {
        "id": 719,
        "name": "Jelutung",
        "lat": -1.6171845,
        "lng": 103.616014
      },
      "city": {
        "id": 59,
        "name": "Jambi",
        "lat": -1.6101229,
        "lng": 103.6131203
      },
      "province": {
        "id": 8,
        "name": "Jambi",
        "lat": -1.6101229,
        "lng": 103.6131203
      },
      "country": {
        "id": 228,
        "name": "INDONESIA",
        "code": "ID"
      },
      "id": 7124,
      "name": "Jelutung",
      "postcode": "36136",
      "lat": -1.6160141,
      "lng": 103.6145672
    },
    {
      "suburb": {
        "id": 719,
        "name": "Jelutung",
        "lat": -1.6171845,
        "lng": 103.616014
      },
      "city": {
        "id": 59,
        "name": "Jambi",
        "lat": -1.6101229,
        "lng": 103.6131203
      },
      "province": {
        "id": 8,
        "name": "Jambi",
        "lat": -1.6101229,
        "lng": 103.6131203
      },
      "country": {
        "id": 228,
        "name": "INDONESIA",
        "code": "ID"
      },
      "id": 7125,
      "name": "Handil Jaya",
      "postcode": "36137",
      "lat": -1.6325214,
      "lng": 103.6174609
    },
    {
      "suburb": {
        "id": 719,
        "name": "Jelutung",
        "lat": -1.6171845,
        "lng": 103.616014
      },
      "city": {
        "id": 59,
        "name": "Jambi",
        "lat": -1.6101229,
        "lng": 103.6131203
      },
      "province": {
        "id": 8,
        "name": "Jambi",
        "lat": -1.6101229,
        "lng": 103.6131203
      },
      "country": {
        "id": 228,
        "name": "INDONESIA",
        "code": "ID"
      },
      "id": 7126,
      "name": "Payo Lebar",
      "postcode": "36135",
      "lat": -1.6113916,
      "lng": 103.6000996
    },
    {
      "suburb": {
        "id": 719,
        "name": "Jelutung",
        "lat": -1.6171845,
        "lng": 103.616014
      },
      "city": {
        "id": 59,
        "name": "Jambi",
        "lat": -1.6101229,
        "lng": 103.6131203
      },
      "province": {
        "id": 8,
        "name": "Jambi",
        "lat": -1.6101229,
        "lng": 103.6131203
      },
      "country": {
        "id": 228,
        "name": "INDONESIA",
        "code": "ID"
      },
      "id": 7127,
      "name": "Lebak Bandung",
      "postcode": "36135",
      "lat": -1.6066121,
      "lng": 103.60878
    },
    {
      "suburb": {
        "id": 720,
        "name": "Pasar Jambi",
        "lat": -1.5947742,
        "lng": 103.6145672
      },
      "city": {
        "id": 59,
        "name": "Jambi",
        "lat": -1.6101229,
        "lng": 103.6131203
      },
      "province": {
        "id": 8,
        "name": "Jambi",
        "lat": -1.6101229,
        "lng": 103.6131203
      },
      "country": {
        "id": 228,
        "name": "INDONESIA",
        "code": "ID"
      },
      "id": 7128,
      "name": "Sungai Asam",
      "postcode": "36134",
      "lat": -1.5971336,
      "lng": 103.6145672
    },
    {
      "suburb": {
        "id": 719,
        "name": "Jelutung",
        "lat": -1.6171845,
        "lng": 103.616014
      },
      "city": {
        "id": 59,
        "name": "Jambi",
        "lat": -1.6101229,
        "lng": 103.6131203
      },
      "province": {
        "id": 8,
        "name": "Jambi",
        "lat": -1.6101229,
        "lng": 103.6131203
      },
      "country": {
        "id": 228,
        "name": "INDONESIA",
        "code": "ID"
      },
      "id": 7129,
      "name": "Talang Jauh",
      "postcode": "36133",
      "lat": -1.6047782,
      "lng": 103.6181843
    },
    {
      "suburb": {
        "id": 719,
        "name": "Jelutung",
        "lat": -1.6171845,
        "lng": 103.616014
      },
      "city": {
        "id": 59,
        "name": "Jambi",
        "lat": -1.6101229,
        "lng": 103.6131203
      },
      "province": {
        "id": 8,
        "name": "Jambi",
        "lat": -1.6101229,
        "lng": 103.6131203
      },
      "country": {
        "id": 228,
        "name": "INDONESIA",
        "code": "ID"
      },
      "id": 7130,
      "name": "Cempaka Putih",
      "postcode": "36134",
      "lat": -1.6042128,
      "lng": 103.6145672
    },
    {
      "suburb": {
        "id": 720,
        "name": "Pasar Jambi",
        "lat": -1.5947742,
        "lng": 103.6145672
      },
      "city": {
        "id": 59,
        "name": "Jambi",
        "lat": -1.6101229,
        "lng": 103.6131203
      },
      "province": {
        "id": 8,
        "name": "Jambi",
        "lat": -1.6101229,
        "lng": 103.6131203
      },
      "country": {
        "id": 228,
        "name": "INDONESIA",
        "code": "ID"
      },
      "id": 7131,
      "name": "Pasar Jambi",
      "postcode": "36133",
      "lat": -1.5894513,
      "lng": 103.6167375
    },
    {
      "suburb": {
        "id": 718,
        "name": "Jambi Selatan",
        "lat": -1.6335322,
        "lng": 103.6420599
      },
      "city": {
        "id": 59,
        "name": "Jambi",
        "lat": -1.6101229,
        "lng": 103.6131203
      },
      "province": {
        "id": 8,
        "name": "Jambi",
        "lat": -1.6101229,
        "lng": 103.6131203
      },
      "country": {
        "id": 228,
        "name": "INDONESIA",
        "code": "ID"
      },
      "id": 7132,
      "name": "Pakuan Baru",
      "postcode": "36132",
      "lat": -1.6082592,
      "lng": 103.6268659
    },
    {
      "suburb": {
        "id": 718,
        "name": "Jambi Selatan",
        "lat": -1.6335322,
        "lng": 103.6420599
      },
      "city": {
        "id": 59,
        "name": "Jambi",
        "lat": -1.6101229,
        "lng": 103.6131203
      },
      "province": {
        "id": 8,
        "name": "Jambi",
        "lat": -1.6101229,
        "lng": 103.6131203
      },
      "country": {
        "id": 228,
        "name": "INDONESIA",
        "code": "ID"
      },
      "id": 7133,
      "name": "Wijaya Pura",
      "postcode": "36131",
      "lat": -1.6135153,
      "lng": 103.6348244
    },
    {
      "suburb": {
        "id": 721,
        "name": "Telanaipura",
        "lat": -1.6009173,
        "lng": 103.5784012
      },
      "city": {
        "id": 59,
        "name": "Jambi",
        "lat": -1.6101229,
        "lng": 103.6131203
      },
      "province": {
        "id": 8,
        "name": "Jambi",
        "lat": -1.6101229,
        "lng": 103.6131203
      },
      "country": {
        "id": 228,
        "name": "INDONESIA",
        "code": "ID"
      },
      "id": 7134,
      "name": "Selamat",
      "postcode": "36129",
      "lat": -1.616172,
      "lng": 103.5914198
    },
    {
      "suburb": {
        "id": 721,
        "name": "Telanaipura",
        "lat": -1.6009173,
        "lng": 103.5784012
      },
      "city": {
        "id": 59,
        "name": "Jambi",
        "lat": -1.6101229,
        "lng": 103.6131203
      },
      "province": {
        "id": 8,
        "name": "Jambi",
        "lat": -1.6101229,
        "lng": 103.6131203
      },
      "country": {
        "id": 228,
        "name": "INDONESIA",
        "code": "ID"
      },
      "id": 7135,
      "name": "Pematang Sulur",
      "postcode": "36129",
      "lat": -1.6033751,
      "lng": 103.5639377
    },
    {
      "suburb": {
        "id": 722,
        "name": "Kota Baru",
        "lat": -1.6386956,
        "lng": 103.5784012
      },
      "city": {
        "id": 59,
        "name": "Jambi",
        "lat": -1.6101229,
        "lng": 103.6131203
      },
      "province": {
        "id": 8,
        "name": "Jambi",
        "lat": -1.6101229,
        "lng": 103.6131203
      },
      "country": {
        "id": 228,
        "name": "INDONESIA",
        "code": "ID"
      },
      "id": 7136,
      "name": "Mayang Mangurai",
      "postcode": "36129",
      "lat": -1.6505284,
      "lng": 103.5755084
    },
    {
      "suburb": {
        "id": 722,
        "name": "Kota Baru",
        "lat": -1.6386956,
        "lng": 103.5784012
      },
      "city": {
        "id": 59,
        "name": "Jambi",
        "lat": -1.6101229,
        "lng": 103.6131203
      },
      "province": {
        "id": 8,
        "name": "Jambi",
        "lat": -1.6101229,
        "lng": 103.6131203
      },
      "country": {
        "id": 228,
        "name": "INDONESIA",
        "code": "ID"
      },
      "id": 7137,
      "name": "Kenali Besar",
      "postcode": "36129",
      "lat": -1.6270645,
      "lng": 103.5523679
    },
    {
      "suburb": {
        "id": 722,
        "name": "Kota Baru",
        "lat": -1.6386956,
        "lng": 103.5784012
      },
      "city": {
        "id": 59,
        "name": "Jambi",
        "lat": -1.6101229,
        "lng": 103.6131203
      },
      "province": {
        "id": 8,
        "name": "Jambi",
        "lat": -1.6101229,
        "lng": 103.6131203
      },
      "country": {
        "id": 228,
        "name": "INDONESIA",
        "code": "ID"
      },
      "id": 7138,
      "name": "Beliung Patah",
      "postcode": "36129",
      "lat": -1.6386956,
      "lng": 103.5784012
    },
    {
      "suburb": {
        "id": 722,
        "name": "Kota Baru",
        "lat": -1.6386956,
        "lng": 103.5784012
      },
      "city": {
        "id": 59,
        "name": "Jambi",
        "lat": -1.6101229,
        "lng": 103.6131203
      },
      "province": {
        "id": 8,
        "name": "Jambi",
        "lat": -1.6101229,
        "lng": 103.6131203
      },
      "country": {
        "id": 228,
        "name": "INDONESIA",
        "code": "ID"
      },
      "id": 7139,
      "name": "Bagan Pete",
      "postcode": "36129",
      "lat": -1.6625267,
      "lng": 103.5494757
    },
    {
      "suburb": {
        "id": 722,
        "name": "Kota Baru",
        "lat": -1.6386956,
        "lng": 103.5784012
      },
      "city": {
        "id": 59,
        "name": "Jambi",
        "lat": -1.6101229,
        "lng": 103.6131203
      },
      "province": {
        "id": 8,
        "name": "Jambi",
        "lat": -1.6101229,
        "lng": 103.6131203
      },
      "country": {
        "id": 228,
        "name": "INDONESIA",
        "code": "ID"
      },
      "id": 7140,
      "name": "Kenali Asam Bawah",
      "postcode": "36128",
      "lat": -1.6622026,
      "lng": 103.5957596
    },
    {
      "suburb": {
        "id": 722,
        "name": "Kota Baru",
        "lat": -1.6386956,
        "lng": 103.5784012
      },
      "city": {
        "id": 59,
        "name": "Jambi",
        "lat": -1.6101229,
        "lng": 103.6131203
      },
      "province": {
        "id": 8,
        "name": "Jambi",
        "lat": -1.6101229,
        "lng": 103.6131203
      },
      "country": {
        "id": 228,
        "name": "INDONESIA",
        "code": "ID"
      },
      "id": 7141,
      "name": "Paal Lima",
      "postcode": "36128",
      "lat": -1.6408376,
      "lng": 103.6102267
    },
    {
      "suburb": {
        "id": 722,
        "name": "Kota Baru",
        "lat": -1.6386956,
        "lng": 103.5784012
      },
      "city": {
        "id": 59,
        "name": "Jambi",
        "lat": -1.6101229,
        "lng": 103.6131203
      },
      "province": {
        "id": 8,
        "name": "Jambi",
        "lat": -1.6101229,
        "lng": 103.6131203
      },
      "country": {
        "id": 228,
        "name": "INDONESIA",
        "code": "ID"
      },
      "id": 7142,
      "name": "Kenali Asam Atas",
      "postcode": "36128",
      "lat": -1.6502464,
      "lng": 103.616014
    },
    {
      "suburb": {
        "id": 722,
        "name": "Kota Baru",
        "lat": -1.6386956,
        "lng": 103.5784012
      },
      "city": {
        "id": 59,
        "name": "Jambi",
        "lat": -1.6101229,
        "lng": 103.6131203
      },
      "province": {
        "id": 8,
        "name": "Jambi",
        "lat": -1.6101229,
        "lng": 103.6131203
      },
      "country": {
        "id": 228,
        "name": "INDONESIA",
        "code": "ID"
      },
      "id": 7143,
      "name": "Suka Karya",
      "postcode": "36127",
      "lat": -1.6302795,
      "lng": 103.6000996
    },
    {
      "suburb": {
        "id": 722,
        "name": "Kota Baru",
        "lat": -1.6386956,
        "lng": 103.5784012
      },
      "city": {
        "id": 59,
        "name": "Jambi",
        "lat": -1.6101229,
        "lng": 103.6131203
      },
      "province": {
        "id": 8,
        "name": "Jambi",
        "lat": -1.6101229,
        "lng": 103.6131203
      },
      "country": {
        "id": 228,
        "name": "INDONESIA",
        "code": "ID"
      },
      "id": 7144,
      "name": "Simpang Tiga Sipin",
      "postcode": "36126",
      "lat": -1.626787,
      "lng": 103.5928664
    },
    {
      "suburb": {
        "id": 722,
        "name": "Kota Baru",
        "lat": -1.6386956,
        "lng": 103.5784012
      },
      "city": {
        "id": 59,
        "name": "Jambi",
        "lat": -1.6101229,
        "lng": 103.6131203
      },
      "province": {
        "id": 8,
        "name": "Jambi",
        "lat": -1.6101229,
        "lng": 103.6131203
      },
      "country": {
        "id": 228,
        "name": "INDONESIA",
        "code": "ID"
      },
      "id": 7145,
      "name": "Rawa Sari",
      "postcode": "36125",
      "lat": -1.6269061,
      "lng": 103.5755084
    },
    {
      "suburb": {
        "id": 721,
        "name": "Telanaipura",
        "lat": -1.6009173,
        "lng": 103.5784012
      },
      "city": {
        "id": 59,
        "name": "Jambi",
        "lat": -1.6101229,
        "lng": 103.6131203
      },
      "province": {
        "id": 8,
        "name": "Jambi",
        "lat": -1.6101229,
        "lng": 103.6131203
      },
      "country": {
        "id": 228,
        "name": "INDONESIA",
        "code": "ID"
      },
      "id": 7146,
      "name": "Simpang Empat Sipin",
      "postcode": "36124",
      "lat": -1.612739,
      "lng": 103.5755084
    },
    {
      "suburb": {
        "id": 721,
        "name": "Telanaipura",
        "lat": -1.6009173,
        "lng": 103.5784012
      },
      "city": {
        "id": 59,
        "name": "Jambi",
        "lat": -1.6101229,
        "lng": 103.6131203
      },
      "province": {
        "id": 8,
        "name": "Jambi",
        "lat": -1.6101229,
        "lng": 103.6131203
      },
      "country": {
        "id": 228,
        "name": "INDONESIA",
        "code": "ID"
      },
      "id": 7147,
      "name": "Teluk Kenali",
      "postcode": "36123",
      "lat": -1.5833072,
      "lng": 103.5653839
    },
    {
      "suburb": {
        "id": 721,
        "name": "Telanaipura",
        "lat": -1.6009173,
        "lng": 103.5784012
      },
      "city": {
        "id": 59,
        "name": "Jambi",
        "lat": -1.6101229,
        "lng": 103.6131203
      },
      "province": {
        "id": 8,
        "name": "Jambi",
        "lat": -1.6101229,
        "lng": 103.6131203
      },
      "country": {
        "id": 228,
        "name": "INDONESIA",
        "code": "ID"
      },
      "id": 7148,
      "name": "Penyengat Rendah",
      "postcode": "36124",
      "lat": -1.5845736,
      "lng": 103.5523679
    },
    {
      "suburb": {
        "id": 721,
        "name": "Telanaipura",
        "lat": -1.6009173,
        "lng": 103.5784012
      },
      "city": {
        "id": 59,
        "name": "Jambi",
        "lat": -1.6101229,
        "lng": 103.6131203
      },
      "province": {
        "id": 8,
        "name": "Jambi",
        "lat": -1.6101229,
        "lng": 103.6131203
      },
      "country": {
        "id": 228,
        "name": "INDONESIA",
        "code": "ID"
      },
      "id": 7149,
      "name": "Telanaipura",
      "postcode": "36122",
      "lat": -1.6068081,
      "lng": 103.5798477
    },
    {
      "suburb": {
        "id": 721,
        "name": "Telanaipura",
        "lat": -1.6009173,
        "lng": 103.5784012
      },
      "city": {
        "id": 59,
        "name": "Jambi",
        "lat": -1.6101229,
        "lng": 103.6131203
      },
      "province": {
        "id": 8,
        "name": "Jambi",
        "lat": -1.6101229,
        "lng": 103.6131203
      },
      "country": {
        "id": 228,
        "name": "INDONESIA",
        "code": "ID"
      },
      "id": 7150,
      "name": "Buluran Kenali",
      "postcode": "36123",
      "lat": -1.5891379,
      "lng": 103.5755084
    },
    {
      "suburb": {
        "id": 721,
        "name": "Telanaipura",
        "lat": -1.6009173,
        "lng": 103.5784012
      },
      "city": {
        "id": 59,
        "name": "Jambi",
        "lat": -1.6101229,
        "lng": 103.6131203
      },
      "province": {
        "id": 8,
        "name": "Jambi",
        "lat": -1.6101229,
        "lng": 103.6131203
      },
      "country": {
        "id": 228,
        "name": "INDONESIA",
        "code": "ID"
      },
      "id": 7151,
      "name": "Sungai Putri",
      "postcode": "36122",
      "lat": -1.6079001,
      "lng": 103.5928664
    },
    {
      "suburb": {
        "id": 721,
        "name": "Telanaipura",
        "lat": -1.6009173,
        "lng": 103.5784012
      },
      "city": {
        "id": 59,
        "name": "Jambi",
        "lat": -1.6101229,
        "lng": 103.6131203
      },
      "province": {
        "id": 8,
        "name": "Jambi",
        "lat": -1.6101229,
        "lng": 103.6131203
      },
      "country": {
        "id": 228,
        "name": "INDONESIA",
        "code": "ID"
      },
      "id": 7152,
      "name": "Solok Sipin",
      "postcode": "36121",
      "lat": -1.6019508,
      "lng": 103.6000996
    },
    {
      "suburb": {
        "id": 721,
        "name": "Telanaipura",
        "lat": -1.6009173,
        "lng": 103.5784012
      },
      "city": {
        "id": 59,
        "name": "Jambi",
        "lat": -1.6101229,
        "lng": 103.6131203
      },
      "province": {
        "id": 8,
        "name": "Jambi",
        "lat": -1.6101229,
        "lng": 103.6131203
      },
      "country": {
        "id": 228,
        "name": "INDONESIA",
        "code": "ID"
      },
      "id": 7153,
      "name": "Murni",
      "postcode": "36121",
      "lat": -1.597787,
      "lng": 103.6051631
    },
    {
      "suburb": {
        "id": 721,
        "name": "Telanaipura",
        "lat": -1.6009173,
        "lng": 103.5784012
      },
      "city": {
        "id": 59,
        "name": "Jambi",
        "lat": -1.6101229,
        "lng": 103.6131203
      },
      "province": {
        "id": 8,
        "name": "Jambi",
        "lat": -1.6101229,
        "lng": 103.6131203
      },
      "country": {
        "id": 228,
        "name": "INDONESIA",
        "code": "ID"
      },
      "id": 7154,
      "name": "Legok",
      "postcode": "36121",
      "lat": -1.5937405,
      "lng": 103.5928664
    },
    {
      "suburb": {
        "id": 720,
        "name": "Pasar Jambi",
        "lat": -1.5947742,
        "lng": 103.6145672
      },
      "city": {
        "id": 59,
        "name": "Jambi",
        "lat": -1.6101229,
        "lng": 103.6131203
      },
      "province": {
        "id": 8,
        "name": "Jambi",
        "lat": -1.6101229,
        "lng": 103.6131203
      },
      "country": {
        "id": 228,
        "name": "INDONESIA",
        "code": "ID"
      },
      "id": 7155,
      "name": "Beringin",
      "postcode": "36112",
      "lat": -1.5942087,
      "lng": 103.6109501
    },
    {
      "suburb": {
        "id": 720,
        "name": "Pasar Jambi",
        "lat": -1.5947742,
        "lng": 103.6145672
      },
      "city": {
        "id": 59,
        "name": "Jambi",
        "lat": -1.6101229,
        "lng": 103.6131203
      },
      "province": {
        "id": 8,
        "name": "Jambi",
        "lat": -1.6101229,
        "lng": 103.6131203
      },
      "country": {
        "id": 228,
        "name": "INDONESIA",
        "code": "ID"
      },
      "id": 7156,
      "name": "Orang Kayo Hitam",
      "postcode": "36111",
      "lat": -1.5918299,
      "lng": 103.6138438
    },
    {
      "suburb": {
        "id": 723,
        "name": "Bojonggambir",
        "lat": -7.5654668,
        "lng": 107.9650353
      },
      "city": {
        "id": 60,
        "name": "Tasikmalaya, Kab.",
        "lat": -7.6513306,
        "lng": 108.1428669
      },
      "province": {
        "id": 9,
        "name": "Jawa Barat",
        "lat": -7.090911,
        "lng": 107.668887
      },
      "country": {
        "id": 228,
        "name": "INDONESIA",
        "code": "ID"
      },
      "id": 7157,
      "name": "Wandasari",
      "postcode": "46475",
      "lat": -7.5709097,
      "lng": 107.9591094
    },
    {
      "suburb": {
        "id": 724,
        "name": "Bojongasih",
        "lat": -7.5584117,
        "lng": 108.1310083
      },
      "city": {
        "id": 60,
        "name": "Tasikmalaya, Kab.",
        "lat": -7.6513306,
        "lng": 108.1428669
      },
      "province": {
        "id": 9,
        "name": "Jawa Barat",
        "lat": -7.090911,
        "lng": 107.668887
      },
      "country": {
        "id": 228,
        "name": "INDONESIA",
        "code": "ID"
      },
      "id": 7158,
      "name": "Sindangsari",
      "postcode": "46475",
      "lat": -7.5420942,
      "lng": 108.1487964
    },
    {
      "suburb": {
        "id": 724,
        "name": "Bojongasih",
        "lat": -7.5584117,
        "lng": 108.1310083
      },
      "city": {
        "id": 60,
        "name": "Tasikmalaya, Kab.",
        "lat": -7.6513306,
        "lng": 108.1428669
      },
      "province": {
        "id": 9,
        "name": "Jawa Barat",
        "lat": -7.090911,
        "lng": 107.668887
      },
      "country": {
        "id": 228,
        "name": "INDONESIA",
        "code": "ID"
      },
      "id": 7159,
      "name": "Toblongan",
      "postcode": "46475",
      "lat": -7.5255866,
      "lng": 108.1102567
    },
    {
      "suburb": {
        "id": 723,
        "name": "Bojonggambir",
        "lat": -7.5654668,
        "lng": 107.9650353
      },
      "city": {
        "id": 60,
        "name": "Tasikmalaya, Kab.",
        "lat": -7.6513306,
        "lng": 108.1428669
      },
      "province": {
        "id": 9,
        "name": "Jawa Barat",
        "lat": -7.090911,
        "lng": 107.668887
      },
      "country": {
        "id": 228,
        "name": "INDONESIA",
        "code": "ID"
      },
      "id": 7160,
      "name": "Purwaraharja",
      "postcode": "46475",
      "lat": -7.4841752,
      "lng": 107.985777
    },
    {
      "suburb": {
        "id": 724,
        "name": "Bojongasih",
        "lat": -7.5584117,
        "lng": 108.1310083
      },
      "city": {
        "id": 60,
        "name": "Tasikmalaya, Kab.",
        "lat": -7.6513306,
        "lng": 108.1428669
      },
      "province": {
        "id": 9,
        "name": "Jawa Barat",
        "lat": -7.090911,
        "lng": 107.668887
      },
      "country": {
        "id": 228,
        "name": "INDONESIA",
        "code": "ID"
      },
      "id": 7161,
      "name": "Mertajaya",
      "postcode": "46475",
      "lat": -7.5539835,
      "lng": 108.1132212
    },
    {
      "suburb": {
        "id": 723,
        "name": "Bojonggambir",
        "lat": -7.5654668,
        "lng": 107.9650353
      },
      "city": {
        "id": 60,
        "name": "Tasikmalaya, Kab.",
        "lat": -7.6513306,
        "lng": 108.1428669
      },
      "province": {
        "id": 9,
        "name": "Jawa Barat",
        "lat": -7.090911,
        "lng": 107.668887
      },
      "country": {
        "id": 228,
        "name": "INDONESIA",
        "code": "ID"
      },
      "id": 7162,
      "name": "Pedangkamulyan",
      "postcode": "46475",
      "lat": -7.5382626,
      "lng": 107.9946667
    },