{
  "metadata": {
    "path": "/v3/location/areas?limit=1000&page=23",
    "http_status_code": 200,
    "http_status": "OK",
    "timestamp": 1647335228
  },
  "data": [
    {
      "suburb": {
        "id": 1949,
        "name": "Larangan",
        "lat": -7.1191161,
        "lng": 113.5430891
      },
      "city": {
        "id": 113,
        "name": "Pamekasan",
        "lat": -7.1050857,
        "lng": 113.5252319
      },
      "province": {
        "id": 11,
        "name": "Jawa Timur",
        "lat": -7.5360639,
        "lng": 112.2384017
      },
      "country": {
        "id": 228,
        "name": "INDONESIA",
        "code": "ID"
      },
      "id": 22012,
      "name": "Dukuh/Duko Timur",
      "postcode": "69383",
      "lat": -7.099883,
      "lng": 113.5758261
    },
    {
      "suburb": {
        "id": 1949,
        "name": "Larangan",
        "lat": -7.1191161,
        "lng": 113.5430891
      },
      "city": {
        "id": 113,
        "name": "Pamekasan",
        "lat": -7.1050857,
        "lng": 113.5252319
      },
      "province": {
        "id": 11,
        "name": "Jawa Timur",
        "lat": -7.5360639,
        "lng": 112.2384017
      },
      "country": {
        "id": 228,
        "name": "INDONESIA",
        "code": "ID"
      },
      "id": 22013,
      "name": "Grujugan",
      "postcode": "69383",
      "lat": -7.136338,
      "lng": 113.5363927
    },
    {
      "suburb": {
        "id": 1950,
        "name": "Galis",
        "lat": -7.1531332,
        "lng": 113.5609459
      },
      "city": {
        "id": 113,
        "name": "Pamekasan",
        "lat": -7.1050857,
        "lng": 113.5252319
      },
      "province": {
        "id": 11,
        "name": "Jawa Timur",
        "lat": -7.5360639,
        "lng": 112.2384017
      },
      "country": {
        "id": 228,
        "name": "INDONESIA",
        "code": "ID"
      },
      "id": 22014,
      "name": "Tobungan",
      "postcode": "69382",
      "lat": -7.1512268,
      "lng": 113.52672
    },
    {
      "suburb": {
        "id": 1949,
        "name": "Larangan",
        "lat": -7.1191161,
        "lng": 113.5430891
      },
      "city": {
        "id": 113,
        "name": "Pamekasan",
        "lat": -7.1050857,
        "lng": 113.5252319
      },
      "province": {
        "id": 11,
        "name": "Jawa Timur",
        "lat": -7.5360639,
        "lng": 112.2384017
      },
      "country": {
        "id": 228,
        "name": "INDONESIA",
        "code": "ID"
      },
      "id": 22015,
      "name": "Blumbungan",
      "postcode": "69383",
      "lat": -7.1210284,
      "lng": 113.507374
    },
    {
      "suburb": {
        "id": 1950,
        "name": "Galis",
        "lat": -7.1531332,
        "lng": 113.5609459
      },
      "city": {
        "id": 113,
        "name": "Pamekasan",
        "lat": -7.1050857,
        "lng": 113.5252319
      },
      "province": {
        "id": 11,
        "name": "Jawa Timur",
        "lat": -7.5360639,
        "lng": 112.2384017
      },
      "country": {
        "id": 228,
        "name": "INDONESIA",
        "code": "ID"
      },
      "id": 22016,
      "name": "Polagan",
      "postcode": "69382",
      "lat": -7.1451564,
      "lng": 113.5698741
    },
    {
      "suburb": {
        "id": 1950,
        "name": "Galis",
        "lat": -7.1531332,
        "lng": 113.5609459
      },
      "city": {
        "id": 113,
        "name": "Pamekasan",
        "lat": -7.1050857,
        "lng": 113.5252319
      },
      "province": {
        "id": 11,
        "name": "Jawa Timur",
        "lat": -7.5360639,
        "lng": 112.2384017
      },
      "country": {
        "id": 228,
        "name": "INDONESIA",
        "code": "ID"
      },
      "id": 22017,
      "name": "Ponteh",
      "postcode": "69382",
      "lat": -7.129798,
      "lng": 113.5535057
    },
    {
      "suburb": {
        "id": 1950,
        "name": "Galis",
        "lat": -7.1531332,
        "lng": 113.5609459
      },
      "city": {
        "id": 113,
        "name": "Pamekasan",
        "lat": -7.1050857,
        "lng": 113.5252319
      },
      "province": {
        "id": 11,
        "name": "Jawa Timur",
        "lat": -7.5360639,
        "lng": 112.2384017
      },
      "country": {
        "id": 228,
        "name": "INDONESIA",
        "code": "ID"
      },
      "id": 22018,
      "name": "Pandan",
      "postcode": "69382",
      "lat": -7.1531332,
      "lng": 113.5609459
    },
    {
      "suburb": {
        "id": 1950,
        "name": "Galis",
        "lat": -7.1531332,
        "lng": 113.5609459
      },
      "city": {
        "id": 113,
        "name": "Pamekasan",
        "lat": -7.1050857,
        "lng": 113.5252319
      },
      "province": {
        "id": 11,
        "name": "Jawa Timur",
        "lat": -7.5360639,
        "lng": 112.2384017
      },
      "country": {
        "id": 228,
        "name": "INDONESIA",
        "code": "ID"
      },
      "id": 22019,
      "name": "Lembung",
      "postcode": "69382",
      "lat": -7.1654682,
      "lng": 113.563922
    },
    {
      "suburb": {
        "id": 1950,
        "name": "Galis",
        "lat": -7.1531332,
        "lng": 113.5609459
      },
      "city": {
        "id": 113,
        "name": "Pamekasan",
        "lat": -7.1050857,
        "lng": 113.5252319
      },
      "province": {
        "id": 11,
        "name": "Jawa Timur",
        "lat": -7.5360639,
        "lng": 112.2384017
      },
      "country": {
        "id": 228,
        "name": "INDONESIA",
        "code": "ID"
      },
      "id": 22020,
      "name": "Pagendingan",
      "postcode": "69382",
      "lat": -7.1354337,
      "lng": 113.5416011
    },
    {
      "suburb": {
        "id": 1950,
        "name": "Galis",
        "lat": -7.1531332,
        "lng": 113.5609459
      },
      "city": {
        "id": 113,
        "name": "Pamekasan",
        "lat": -7.1050857,
        "lng": 113.5252319
      },
      "province": {
        "id": 11,
        "name": "Jawa Timur",
        "lat": -7.5360639,
        "lng": 112.2384017
      },
      "country": {
        "id": 228,
        "name": "INDONESIA",
        "code": "ID"
      },
      "id": 22021,
      "name": "Galis",
      "postcode": "69382",
      "lat": -7.148306,
      "lng": 113.5504
    },
    {
      "suburb": {
        "id": 1950,
        "name": "Galis",
        "lat": -7.1531332,
        "lng": 113.5609459
      },
      "city": {
        "id": 113,
        "name": "Pamekasan",
        "lat": -7.1050857,
        "lng": 113.5252319
      },
      "province": {
        "id": 11,
        "name": "Jawa Timur",
        "lat": -7.5360639,
        "lng": 112.2384017
      },
      "country": {
        "id": 228,
        "name": "INDONESIA",
        "code": "ID"
      },
      "id": 22022,
      "name": "Konang",
      "postcode": "69382",
      "lat": -7.1567342,
      "lng": 113.5523278
    },
    {
      "suburb": {
        "id": 1950,
        "name": "Galis",
        "lat": -7.1531332,
        "lng": 113.5609459
      },
      "city": {
        "id": 113,
        "name": "Pamekasan",
        "lat": -7.1050857,
        "lng": 113.5252319
      },
      "province": {
        "id": 11,
        "name": "Jawa Timur",
        "lat": -7.5360639,
        "lng": 112.2384017
      },
      "country": {
        "id": 228,
        "name": "INDONESIA",
        "code": "ID"
      },
      "id": 22023,
      "name": "Bulay",
      "postcode": "69382",
      "lat": -7.1451083,
      "lng": 113.5475534
    },
    {
      "suburb": {
        "id": 1951,
        "name": "Tlanakan",
        "lat": -7.1995623,
        "lng": 113.4418908
      },
      "city": {
        "id": 113,
        "name": "Pamekasan",
        "lat": -7.1050857,
        "lng": 113.5252319
      },
      "province": {
        "id": 11,
        "name": "Jawa Timur",
        "lat": -7.5360639,
        "lng": 112.2384017
      },
      "country": {
        "id": 228,
        "name": "INDONESIA",
        "code": "ID"
      },
      "id": 22024,
      "name": "Tlesa",
      "postcode": "69371",
      "lat": -7.2191477,
      "lng": 113.473145
    },
    {
      "suburb": {
        "id": 1950,
        "name": "Galis",
        "lat": -7.1531332,
        "lng": 113.5609459
      },
      "city": {
        "id": 113,
        "name": "Pamekasan",
        "lat": -7.1050857,
        "lng": 113.5252319
      },
      "province": {
        "id": 11,
        "name": "Jawa Timur",
        "lat": -7.5360639,
        "lng": 112.2384017
      },
      "country": {
        "id": 228,
        "name": "INDONESIA",
        "code": "ID"
      },
      "id": 22025,
      "name": "Artodung",
      "postcode": "69382",
      "lat": -7.1363326,
      "lng": 113.5713621
    },
    {
      "suburb": {
        "id": 1951,
        "name": "Tlanakan",
        "lat": -7.1995623,
        "lng": 113.4418908
      },
      "city": {
        "id": 113,
        "name": "Pamekasan",
        "lat": -7.1050857,
        "lng": 113.5252319
      },
      "province": {
        "id": 11,
        "name": "Jawa Timur",
        "lat": -7.5360639,
        "lng": 112.2384017
      },
      "country": {
        "id": 228,
        "name": "INDONESIA",
        "code": "ID"
      },
      "id": 22026,
      "name": "Terrak",
      "postcode": "69371",
      "lat": -7.1800788,
      "lng": 113.3853314
    },
    {
      "suburb": {
        "id": 1951,
        "name": "Tlanakan",
        "lat": -7.1995623,
        "lng": 113.4418908
      },
      "city": {
        "id": 113,
        "name": "Pamekasan",
        "lat": -7.1050857,
        "lng": 113.5252319
      },
      "province": {
        "id": 11,
        "name": "Jawa Timur",
        "lat": -7.5360639,
        "lng": 112.2384017
      },
      "country": {
        "id": 228,
        "name": "INDONESIA",
        "code": "ID"
      },
      "id": 22027,
      "name": "Tlanakan",
      "postcode": "69371",
      "lat": -7.2172443,
      "lng": 113.4389141
    },
    {
      "suburb": {
        "id": 1951,
        "name": "Tlanakan",
        "lat": -7.1995623,
        "lng": 113.4418908
      },
      "city": {
        "id": 113,
        "name": "Pamekasan",
        "lat": -7.1050857,
        "lng": 113.5252319
      },
      "province": {
        "id": 11,
        "name": "Jawa Timur",
        "lat": -7.5360639,
        "lng": 112.2384017
      },
      "country": {
        "id": 228,
        "name": "INDONESIA",
        "code": "ID"
      },
      "id": 22028,
      "name": "Panglegur",
      "postcode": "69371",
      "lat": -7.1906111,
      "lng": 113.4686802
    },
    {
      "suburb": {
        "id": 1951,
        "name": "Tlanakan",
        "lat": -7.1995623,
        "lng": 113.4418908
      },
      "city": {
        "id": 113,
        "name": "Pamekasan",
        "lat": -7.1050857,
        "lng": 113.5252319
      },
      "province": {
        "id": 11,
        "name": "Jawa Timur",
        "lat": -7.5360639,
        "lng": 112.2384017
      },
      "country": {
        "id": 228,
        "name": "INDONESIA",
        "code": "ID"
      },
      "id": 22029,
      "name": "Taroan",
      "postcode": "69371",
      "lat": -7.1708681,
      "lng": 113.4404024
    },
    {
      "suburb": {
        "id": 1951,
        "name": "Tlanakan",
        "lat": -7.1995623,
        "lng": 113.4418908
      },
      "city": {
        "id": 113,
        "name": "Pamekasan",
        "lat": -7.1050857,
        "lng": 113.5252319
      },
      "province": {
        "id": 11,
        "name": "Jawa Timur",
        "lat": -7.5360639,
        "lng": 112.2384017
      },
      "country": {
        "id": 228,
        "name": "INDONESIA",
        "code": "ID"
      },
      "id": 22030,
      "name": "Mangar",
      "postcode": "69371",
      "lat": -7.1995623,
      "lng": 113.4418908
    },
    {
      "suburb": {
        "id": 1951,
        "name": "Tlanakan",
        "lat": -7.1995623,
        "lng": 113.4418908
      },
      "city": {
        "id": 113,
        "name": "Pamekasan",
        "lat": -7.1050857,
        "lng": 113.5252319
      },
      "province": {
        "id": 11,
        "name": "Jawa Timur",
        "lat": -7.5360639,
        "lng": 112.2384017
      },
      "country": {
        "id": 228,
        "name": "INDONESIA",
        "code": "ID"
      },
      "id": 22031,
      "name": "Larangan Slampar",
      "postcode": "69371",
      "lat": -7.1855086,
      "lng": 113.4240305
    },
    {
      "suburb": {
        "id": 1951,
        "name": "Tlanakan",
        "lat": -7.1995623,
        "lng": 113.4418908
      },
      "city": {
        "id": 113,
        "name": "Pamekasan",
        "lat": -7.1050857,
        "lng": 113.5252319
      },
      "province": {
        "id": 11,
        "name": "Jawa Timur",
        "lat": -7.5360639,
        "lng": 112.2384017
      },
      "country": {
        "id": 228,
        "name": "INDONESIA",
        "code": "ID"
      },
      "id": 22032,
      "name": "Larangan Tokol",
      "postcode": "69371",
      "lat": -7.2106294,
      "lng": 113.4686802
    },
    {
      "suburb": {
        "id": 1951,
        "name": "Tlanakan",
        "lat": -7.1995623,
        "lng": 113.4418908
      },
      "city": {
        "id": 113,
        "name": "Pamekasan",
        "lat": -7.1050857,
        "lng": 113.5252319
      },
      "province": {
        "id": 11,
        "name": "Jawa Timur",
        "lat": -7.5360639,
        "lng": 112.2384017
      },
      "country": {
        "id": 228,
        "name": "INDONESIA",
        "code": "ID"
      },
      "id": 22033,
      "name": "Gugul",
      "postcode": "69371",
      "lat": -7.2019045,
      "lng": 113.4448674
    },
    {
      "suburb": {
        "id": 1951,
        "name": "Tlanakan",
        "lat": -7.1995623,
        "lng": 113.4418908
      },
      "city": {
        "id": 113,
        "name": "Pamekasan",
        "lat": -7.1050857,
        "lng": 113.5252319
      },
      "province": {
        "id": 11,
        "name": "Jawa Timur",
        "lat": -7.5360639,
        "lng": 112.2384017
      },
      "country": {
        "id": 228,
        "name": "INDONESIA",
        "code": "ID"
      },
      "id": 22034,
      "name": "Kramat",
      "postcode": "69371",
      "lat": -7.2100083,
      "lng": 113.4106349
    },
    {
      "suburb": {
        "id": 1951,
        "name": "Tlanakan",
        "lat": -7.1995623,
        "lng": 113.4418908
      },
      "city": {
        "id": 113,
        "name": "Pamekasan",
        "lat": -7.1050857,
        "lng": 113.5252319
      },
      "province": {
        "id": 11,
        "name": "Jawa Timur",
        "lat": -7.5360639,
        "lng": 112.2384017
      },
      "country": {
        "id": 228,
        "name": "INDONESIA",
        "code": "ID"
      },
      "id": 22035,
      "name": "Dabuan",
      "postcode": "69371",
      "lat": -7.1967491,
      "lng": 113.377889
    },
    {
      "suburb": {
        "id": 1951,
        "name": "Tlanakan",
        "lat": -7.1995623,
        "lng": 113.4418908
      },
      "city": {
        "id": 113,
        "name": "Pamekasan",
        "lat": -7.1050857,
        "lng": 113.5252319
      },
      "province": {
        "id": 11,
        "name": "Jawa Timur",
        "lat": -7.5360639,
        "lng": 112.2384017
      },
      "country": {
        "id": 228,
        "name": "INDONESIA",
        "code": "ID"
      },
      "id": 22036,
      "name": "Ceguk",
      "postcode": "69371",
      "lat": -7.1949725,
      "lng": 113.4805863
    },
    {
      "suburb": {
        "id": 1951,
        "name": "Tlanakan",
        "lat": -7.1995623,
        "lng": 113.4418908
      },
      "city": {
        "id": 113,
        "name": "Pamekasan",
        "lat": -7.1050857,
        "lng": 113.5252319
      },
      "province": {
        "id": 11,
        "name": "Jawa Timur",
        "lat": -7.5360639,
        "lng": 112.2384017
      },
      "country": {
        "id": 228,
        "name": "INDONESIA",
        "code": "ID"
      },
      "id": 22037,
      "name": "Bukek",
      "postcode": "69371",
      "lat": -7.1912529,
      "lng": 113.4567739
    },
    {
      "suburb": {
        "id": 1951,
        "name": "Tlanakan",
        "lat": -7.1995623,
        "lng": 113.4418908
      },
      "city": {
        "id": 113,
        "name": "Pamekasan",
        "lat": -7.1050857,
        "lng": 113.5252319
      },
      "province": {
        "id": 11,
        "name": "Jawa Timur",
        "lat": -7.5360639,
        "lng": 112.2384017
      },
      "country": {
        "id": 228,
        "name": "INDONESIA",
        "code": "ID"
      },
      "id": 22038,
      "name": "Branta Tinggi",
      "postcode": "69371",
      "lat": -7.2124439,
      "lng": 113.4582622
    },
    {
      "suburb": {
        "id": 1951,
        "name": "Tlanakan",
        "lat": -7.1995623,
        "lng": 113.4418908
      },
      "city": {
        "id": 113,
        "name": "Pamekasan",
        "lat": -7.1050857,
        "lng": 113.5252319
      },
      "province": {
        "id": 11,
        "name": "Jawa Timur",
        "lat": -7.5360639,
        "lng": 112.2384017
      },
      "country": {
        "id": 228,
        "name": "INDONESIA",
        "code": "ID"
      },
      "id": 22039,
      "name": "Branta Pasisir",
      "postcode": "69371",
      "lat": -7.2197702,
      "lng": 113.4500765
    },
    {
      "suburb": {
        "id": 1951,
        "name": "Tlanakan",
        "lat": -7.1995623,
        "lng": 113.4418908
      },
      "city": {
        "id": 113,
        "name": "Pamekasan",
        "lat": -7.1050857,
        "lng": 113.5252319
      },
      "province": {
        "id": 11,
        "name": "Jawa Timur",
        "lat": -7.5360639,
        "lng": 112.2384017
      },
      "country": {
        "id": 228,
        "name": "INDONESIA",
        "code": "ID"
      },
      "id": 22040,
      "name": "Bandaran",
      "postcode": "69371",
      "lat": -7.2041504,
      "lng": 113.4031928
    },
    {
      "suburb": {
        "id": 1951,
        "name": "Tlanakan",
        "lat": -7.1995623,
        "lng": 113.4418908
      },
      "city": {
        "id": 113,
        "name": "Pamekasan",
        "lat": -7.1050857,
        "lng": 113.5252319
      },
      "province": {
        "id": 11,
        "name": "Jawa Timur",
        "lat": -7.5360639,
        "lng": 112.2384017
      },
      "country": {
        "id": 228,
        "name": "INDONESIA",
        "code": "ID"
      },
      "id": 22041,
      "name": "Ambat",
      "postcode": "69371",
      "lat": -7.2132018,
      "lng": 113.4210537
    },
    {
      "suburb": {
        "id": 1952,
        "name": "Proppo",
        "lat": -7.1407999,
        "lng": 113.4180769
      },
      "city": {
        "id": 113,
        "name": "Pamekasan",
        "lat": -7.1050857,
        "lng": 113.5252319
      },
      "province": {
        "id": 11,
        "name": "Jawa Timur",
        "lat": -7.5360639,
        "lng": 112.2384017
      },
      "country": {
        "id": 228,
        "name": "INDONESIA",
        "code": "ID"
      },
      "id": 22042,
      "name": "Toket",
      "postcode": "69363",
      "lat": -7.1654927,
      "lng": 113.4240305
    },
    {
      "suburb": {
        "id": 1952,
        "name": "Proppo",
        "lat": -7.1407999,
        "lng": 113.4180769
      },
      "city": {
        "id": 113,
        "name": "Pamekasan",
        "lat": -7.1050857,
        "lng": 113.5252319
      },
      "province": {
        "id": 11,
        "name": "Jawa Timur",
        "lat": -7.5360639,
        "lng": 112.2384017
      },
      "country": {
        "id": 228,
        "name": "INDONESIA",
        "code": "ID"
      },
      "id": 22043,
      "name": "Tlangoh",
      "postcode": "69363",
      "lat": -7.1414934,
      "lng": 113.4284956
    },
    {
      "suburb": {
        "id": 1952,
        "name": "Proppo",
        "lat": -7.1407999,
        "lng": 113.4180769
      },
      "city": {
        "id": 113,
        "name": "Pamekasan",
        "lat": -7.1050857,
        "lng": 113.5252319
      },
      "province": {
        "id": 11,
        "name": "Jawa Timur",
        "lat": -7.5360639,
        "lng": 112.2384017
      },
      "country": {
        "id": 228,
        "name": "INDONESIA",
        "code": "ID"
      },
      "id": 22044,
      "name": "Tattangoh",
      "postcode": "69363",
      "lat": -7.1193443,
      "lng": 113.3749121
    },
    {
      "suburb": {
        "id": 1952,
        "name": "Proppo",
        "lat": -7.1407999,
        "lng": 113.4180769
      },
      "city": {
        "id": 113,
        "name": "Pamekasan",
        "lat": -7.1050857,
        "lng": 113.5252319
      },
      "province": {
        "id": 11,
        "name": "Jawa Timur",
        "lat": -7.5360639,
        "lng": 112.2384017
      },
      "country": {
        "id": 228,
        "name": "INDONESIA",
        "code": "ID"
      },
      "id": 22045,
      "name": "Srambah",
      "postcode": "69363",
      "lat": -7.1460023,
      "lng": 113.3674695
    },
    {
      "suburb": {
        "id": 1952,
        "name": "Proppo",
        "lat": -7.1407999,
        "lng": 113.4180769
      },
      "city": {
        "id": 113,
        "name": "Pamekasan",
        "lat": -7.1050857,
        "lng": 113.5252319
      },
      "province": {
        "id": 11,
        "name": "Jawa Timur",
        "lat": -7.5360639,
        "lng": 112.2384017
      },
      "country": {
        "id": 228,
        "name": "INDONESIA",
        "code": "ID"
      },
      "id": 22046,
      "name": "Samatan",
      "postcode": "69363",
      "lat": -7.1368678,
      "lng": 113.4448674
    },
    {
      "suburb": {
        "id": 1952,
        "name": "Proppo",
        "lat": -7.1407999,
        "lng": 113.4180769
      },
      "city": {
        "id": 113,
        "name": "Pamekasan",
        "lat": -7.1050857,
        "lng": 113.5252319
      },
      "province": {
        "id": 11,
        "name": "Jawa Timur",
        "lat": -7.5360639,
        "lng": 112.2384017
      },
      "country": {
        "id": 228,
        "name": "INDONESIA",
        "code": "ID"
      },
      "id": 22047,
      "name": "Samiran",
      "postcode": "69363",
      "lat": -7.1521891,
      "lng": 113.4389141
    },
    {
      "suburb": {
        "id": 1952,
        "name": "Proppo",
        "lat": -7.1407999,
        "lng": 113.4180769
      },
      "city": {
        "id": 113,
        "name": "Pamekasan",
        "lat": -7.1050857,
        "lng": 113.5252319
      },
      "province": {
        "id": 11,
        "name": "Jawa Timur",
        "lat": -7.5360639,
        "lng": 112.2384017
      },
      "country": {
        "id": 228,
        "name": "INDONESIA",
        "code": "ID"
      },
      "id": 22048,
      "name": "Rang Perang Laok",
      "postcode": "69363",
      "lat": -7.1260155,
      "lng": 113.4374257
    },
    {
      "suburb": {
        "id": 1952,
        "name": "Proppo",
        "lat": -7.1407999,
        "lng": 113.4180769
      },
      "city": {
        "id": 113,
        "name": "Pamekasan",
        "lat": -7.1050857,
        "lng": 113.5252319
      },
      "province": {
        "id": 11,
        "name": "Jawa Timur",
        "lat": -7.5360639,
        "lng": 112.2384017
      },
      "country": {
        "id": 228,
        "name": "INDONESIA",
        "code": "ID"
      },
      "id": 22049,
      "name": "Proppo",
      "postcode": "69363",
      "lat": -7.1224441,
      "lng": 113.4106349
    },
    {
      "suburb": {
        "id": 1952,
        "name": "Proppo",
        "lat": -7.1407999,
        "lng": 113.4180769
      },
      "city": {
        "id": 113,
        "name": "Pamekasan",
        "lat": -7.1050857,
        "lng": 113.5252319
      },
      "province": {
        "id": 11,
        "name": "Jawa Timur",
        "lat": -7.5360639,
        "lng": 112.2384017
      },
      "country": {
        "id": 228,
        "name": "INDONESIA",
        "code": "ID"
      },
      "id": 22050,
      "name": "Rang Perang Daya",
      "postcode": "69363",
      "lat": -7.112189,
      "lng": 113.4389141
    },
    {
      "suburb": {
        "id": 1952,
        "name": "Proppo",
        "lat": -7.1407999,
        "lng": 113.4180769
      },
      "city": {
        "id": 113,
        "name": "Pamekasan",
        "lat": -7.1050857,
        "lng": 113.5252319
      },
      "province": {
        "id": 11,
        "name": "Jawa Timur",
        "lat": -7.5360639,
        "lng": 112.2384017
      },
      "country": {
        "id": 228,
        "name": "INDONESIA",
        "code": "ID"
      },
      "id": 22051,
      "name": "Pangtonggal",
      "postcode": "69363",
      "lat": -7.1447316,
      "lng": 113.3912853
    },
    {
      "suburb": {
        "id": 1952,
        "name": "Proppo",
        "lat": -7.1407999,
        "lng": 113.4180769
      },
      "city": {
        "id": 113,
        "name": "Pamekasan",
        "lat": -7.1050857,
        "lng": 113.5252319
      },
      "province": {
        "id": 11,
        "name": "Jawa Timur",
        "lat": -7.5360639,
        "lng": 112.2384017
      },
      "country": {
        "id": 228,
        "name": "INDONESIA",
        "code": "ID"
      },
      "id": 22052,
      "name": "Pangurayan",
      "postcode": "69363",
      "lat": -7.1268095,
      "lng": 113.4225421
    },
    {
      "suburb": {
        "id": 1952,
        "name": "Proppo",
        "lat": -7.1407999,
        "lng": 113.4180769
      },
      "city": {
        "id": 113,
        "name": "Pamekasan",
        "lat": -7.1050857,
        "lng": 113.5252319
      },
      "province": {
        "id": 11,
        "name": "Jawa Timur",
        "lat": -7.5360639,
        "lng": 112.2384017
      },
      "country": {
        "id": 228,
        "name": "INDONESIA",
        "code": "ID"
      },
      "id": 22053,
      "name": "Pangbatok",
      "postcode": "69363",
      "lat": -7.1265295,
      "lng": 113.380866
    },
    {
      "suburb": {
        "id": 1952,
        "name": "Proppo",
        "lat": -7.1407999,
        "lng": 113.4180769
      },
      "city": {
        "id": 113,
        "name": "Pamekasan",
        "lat": -7.1050857,
        "lng": 113.5252319
      },
      "province": {
        "id": 11,
        "name": "Jawa Timur",
        "lat": -7.5360639,
        "lng": 112.2384017
      },
      "country": {
        "id": 228,
        "name": "INDONESIA",
        "code": "ID"
      },
      "id": 22054,
      "name": "Panglemah",
      "postcode": "69363",
      "lat": -7.1347868,
      "lng": 113.4136117
    },
    {
      "suburb": {
        "id": 1952,
        "name": "Proppo",
        "lat": -7.1407999,
        "lng": 113.4180769
      },
      "city": {
        "id": 113,
        "name": "Pamekasan",
        "lat": -7.1050857,
        "lng": 113.5252319
      },
      "province": {
        "id": 11,
        "name": "Jawa Timur",
        "lat": -7.5360639,
        "lng": 112.2384017
      },
      "country": {
        "id": 228,
        "name": "INDONESIA",
        "code": "ID"
      },
      "id": 22055,
      "name": "Mapper",
      "postcode": "69363",
      "lat": -7.1272857,
      "lng": 113.4136117
    },
    {
      "suburb": {
        "id": 1952,
        "name": "Proppo",
        "lat": -7.1407999,
        "lng": 113.4180769
      },
      "city": {
        "id": 113,
        "name": "Pamekasan",
        "lat": -7.1050857,
        "lng": 113.5252319
      },
      "province": {
        "id": 11,
        "name": "Jawa Timur",
        "lat": -7.5360639,
        "lng": 112.2384017
      },
      "country": {
        "id": 228,
        "name": "INDONESIA",
        "code": "ID"
      },
      "id": 22056,
      "name": "Panaguan",
      "postcode": "69363",
      "lat": -7.1188695,
      "lng": 113.383843
    },
    {
      "suburb": {
        "id": 1952,
        "name": "Proppo",
        "lat": -7.1407999,
        "lng": 113.4180769
      },
      "city": {
        "id": 113,
        "name": "Pamekasan",
        "lat": -7.1050857,
        "lng": 113.5252319
      },
      "province": {
        "id": 11,
        "name": "Jawa Timur",
        "lat": -7.5360639,
        "lng": 112.2384017
      },
      "country": {
        "id": 228,
        "name": "INDONESIA",
        "code": "ID"
      },
      "id": 22057,
      "name": "Klampar",
      "postcode": "69363",
      "lat": -7.1322427,
      "lng": 113.4612388
    },
    {
      "suburb": {
        "id": 1952,
        "name": "Proppo",
        "lat": -7.1407999,
        "lng": 113.4180769
      },
      "city": {
        "id": 113,
        "name": "Pamekasan",
        "lat": -7.1050857,
        "lng": 113.5252319
      },
      "province": {
        "id": 11,
        "name": "Jawa Timur",
        "lat": -7.5360639,
        "lng": 112.2384017
      },
      "country": {
        "id": 228,
        "name": "INDONESIA",
        "code": "ID"
      },
      "id": 22058,
      "name": "Kodik",
      "postcode": "69363",
      "lat": -7.1458577,
      "lng": 113.4404024
    },
    {
      "suburb": {
        "id": 1952,
        "name": "Proppo",
        "lat": -7.1407999,
        "lng": 113.4180769
      },
      "city": {
        "id": 113,
        "name": "Pamekasan",
        "lat": -7.1050857,
        "lng": 113.5252319
      },
      "province": {
        "id": 11,
        "name": "Jawa Timur",
        "lat": -7.5360639,
        "lng": 112.2384017
      },
      "country": {
        "id": 228,
        "name": "INDONESIA",
        "code": "ID"
      },
      "id": 22059,
      "name": "Lenteng",
      "postcode": "69363",
      "lat": -7.1361745,
      "lng": 113.434449
    },
    {
      "suburb": {
        "id": 1952,
        "name": "Proppo",
        "lat": -7.1407999,
        "lng": 113.4180769
      },
      "city": {
        "id": 113,
        "name": "Pamekasan",
        "lat": -7.1050857,
        "lng": 113.5252319
      },
      "province": {
        "id": 11,
        "name": "Jawa Timur",
        "lat": -7.5360639,
        "lng": 112.2384017
      },
      "country": {
        "id": 228,
        "name": "INDONESIA",
        "code": "ID"
      },
      "id": 22060,
      "name": "Karanganyar",
      "postcode": "69363",
      "lat": -7.1738493,
      "lng": 113.4314723
    },
    {
      "suburb": {
        "id": 1952,
        "name": "Proppo",
        "lat": -7.1407999,
        "lng": 113.4180769
      },
      "city": {
        "id": 113,
        "name": "Pamekasan",
        "lat": -7.1050857,
        "lng": 113.5252319
      },
      "province": {
        "id": 11,
        "name": "Jawa Timur",
        "lat": -7.5360639,
        "lng": 112.2384017
      },
      "country": {
        "id": 228,
        "name": "INDONESIA",
        "code": "ID"
      },
      "id": 22061,
      "name": "Jambringin",
      "postcode": "69363",
      "lat": -7.1190902,
      "lng": 113.4031928
    },
    {
      "suburb": {
        "id": 1952,
        "name": "Proppo",
        "lat": -7.1407999,
        "lng": 113.4180769
      },
      "city": {
        "id": 113,
        "name": "Pamekasan",
        "lat": -7.1050857,
        "lng": 113.5252319
      },
      "province": {
        "id": 11,
        "name": "Jawa Timur",
        "lat": -7.5360639,
        "lng": 112.2384017
      },
      "country": {
        "id": 228,
        "name": "INDONESIA",
        "code": "ID"
      },
      "id": 22062,
      "name": "Candi Burung",
      "postcode": "69363",
      "lat": -7.1534639,
      "lng": 113.4151001
    },
    {
      "suburb": {
        "id": 1952,
        "name": "Proppo",
        "lat": -7.1407999,
        "lng": 113.4180769
      },
      "city": {
        "id": 113,
        "name": "Pamekasan",
        "lat": -7.1050857,
        "lng": 113.5252319
      },
      "province": {
        "id": 11,
        "name": "Jawa Timur",
        "lat": -7.5360639,
        "lng": 112.2384017
      },
      "country": {
        "id": 228,
        "name": "INDONESIA",
        "code": "ID"
      },
      "id": 22063,
      "name": "Groom",
      "postcode": "69363",
      "lat": -7.1600596,
      "lng": 113.3853314
    },
    {
      "suburb": {
        "id": 1952,
        "name": "Proppo",
        "lat": -7.1407999,
        "lng": 113.4180769
      },
      "city": {
        "id": 113,
        "name": "Pamekasan",
        "lat": -7.1050857,
        "lng": 113.5252319
      },
      "province": {
        "id": 11,
        "name": "Jawa Timur",
        "lat": -7.5360639,
        "lng": 112.2384017
      },
      "country": {
        "id": 228,
        "name": "INDONESIA",
        "code": "ID"
      },
      "id": 22064,
      "name": "Billaan",
      "postcode": "69363",
      "lat": -7.1369695,
      "lng": 113.4195653
    },
    {
      "suburb": {
        "id": 1952,
        "name": "Proppo",
        "lat": -7.1407999,
        "lng": 113.4180769
      },
      "city": {
        "id": 113,
        "name": "Pamekasan",
        "lat": -7.1050857,
        "lng": 113.5252319
      },
      "province": {
        "id": 11,
        "name": "Jawa Timur",
        "lat": -7.5360639,
        "lng": 112.2384017
      },
      "country": {
        "id": 228,
        "name": "INDONESIA",
        "code": "ID"
      },
      "id": 22065,
      "name": "Campor",
      "postcode": "69363",
      "lat": -7.1097236,
      "lng": 113.3912853
    },
    {
      "suburb": {
        "id": 1952,
        "name": "Proppo",
        "lat": -7.1407999,
        "lng": 113.4180769
      },
      "city": {
        "id": 113,
        "name": "Pamekasan",
        "lat": -7.1050857,
        "lng": 113.5252319
      },
      "province": {
        "id": 11,
        "name": "Jawa Timur",
        "lat": -7.5360639,
        "lng": 112.2384017
      },
      "country": {
        "id": 228,
        "name": "INDONESIA",
        "code": "ID"
      },
      "id": 22066,
      "name": "Banyu Bulu",
      "postcode": "69363",
      "lat": -7.1214923,
      "lng": 113.4284956
    },
    {
      "suburb": {
        "id": 1952,
        "name": "Proppo",
        "lat": -7.1407999,
        "lng": 113.4180769
      },
      "city": {
        "id": 113,
        "name": "Pamekasan",
        "lat": -7.1050857,
        "lng": 113.5252319
      },
      "province": {
        "id": 11,
        "name": "Jawa Timur",
        "lat": -7.5360639,
        "lng": 112.2384017
      },
      "country": {
        "id": 228,
        "name": "INDONESIA",
        "code": "ID"
      },
      "id": 22067,
      "name": "Batu Kalangan",
      "postcode": "69363",
      "lat": -7.1594226,
      "lng": 113.3972391
    },
    {
      "suburb": {
        "id": 1952,
        "name": "Proppo",
        "lat": -7.1407999,
        "lng": 113.4180769
      },
      "city": {
        "id": 113,
        "name": "Pamekasan",
        "lat": -7.1050857,
        "lng": 113.5252319
      },
      "province": {
        "id": 11,
        "name": "Jawa Timur",
        "lat": -7.5360639,
        "lng": 112.2384017
      },
      "country": {
        "id": 228,
        "name": "INDONESIA",
        "code": "ID"
      },
      "id": 22068,
      "name": "Badung",
      "postcode": "69363",
      "lat": -7.1059878,
      "lng": 113.3674695
    },
    {
      "suburb": {
        "id": 1953,
        "name": "Palengaan",
        "lat": -7.0795502,
        "lng": 113.4418908
      },
      "city": {
        "id": 113,
        "name": "Pamekasan",
        "lat": -7.1050857,
        "lng": 113.5252319
      },
      "province": {
        "id": 11,
        "name": "Jawa Timur",
        "lat": -7.5360639,
        "lng": 112.2384017
      },
      "country": {
        "id": 228,
        "name": "INDONESIA",
        "code": "ID"
      },
      "id": 22069,
      "name": "Rombuh",
      "postcode": "69362",
      "lat": -7.06722,
      "lng": 113.4389141
    },
    {
      "suburb": {
        "id": 1953,
        "name": "Palengaan",
        "lat": -7.0795502,
        "lng": 113.4418908
      },
      "city": {
        "id": 113,
        "name": "Pamekasan",
        "lat": -7.1050857,
        "lng": 113.5252319
      },
      "province": {
        "id": 11,
        "name": "Jawa Timur",
        "lat": -7.5360639,
        "lng": 112.2384017
      },
      "country": {
        "id": 228,
        "name": "INDONESIA",
        "code": "ID"
      },
      "id": 22070,
      "name": "Rek Kerrek",
      "postcode": "69362",
      "lat": -7.0954878,
      "lng": 113.4240305
    },
    {
      "suburb": {
        "id": 1953,
        "name": "Palengaan",
        "lat": -7.0795502,
        "lng": 113.4418908
      },
      "city": {
        "id": 113,
        "name": "Pamekasan",
        "lat": -7.1050857,
        "lng": 113.5252319
      },
      "province": {
        "id": 11,
        "name": "Jawa Timur",
        "lat": -7.5360639,
        "lng": 112.2384017
      },
      "country": {
        "id": 228,
        "name": "INDONESIA",
        "code": "ID"
      },
      "id": 22071,
      "name": "Potoan Laok",
      "postcode": "69362",
      "lat": -7.0896051,
      "lng": 113.4642154
    },
    {
      "suburb": {
        "id": 1953,
        "name": "Palengaan",
        "lat": -7.0795502,
        "lng": 113.4418908
      },
      "city": {
        "id": 113,
        "name": "Pamekasan",
        "lat": -7.1050857,
        "lng": 113.5252319
      },
      "province": {
        "id": 11,
        "name": "Jawa Timur",
        "lat": -7.5360639,
        "lng": 112.2384017
      },
      "country": {
        "id": 228,
        "name": "INDONESIA",
        "code": "ID"
      },
      "id": 22072,
      "name": "Panaan",
      "postcode": "69362",
      "lat": -7.096246,
      "lng": 113.4567739
    },
    {
      "suburb": {
        "id": 1953,
        "name": "Palengaan",
        "lat": -7.0795502,
        "lng": 113.4418908
      },
      "city": {
        "id": 113,
        "name": "Pamekasan",
        "lat": -7.1050857,
        "lng": 113.5252319
      },
      "province": {
        "id": 11,
        "name": "Jawa Timur",
        "lat": -7.5360639,
        "lng": 112.2384017
      },
      "country": {
        "id": 228,
        "name": "INDONESIA",
        "code": "ID"
      },
      "id": 22073,
      "name": "Potoan Daja",
      "postcode": "69362",
      "lat": -7.0806261,
      "lng": 113.4686802
    },
    {
      "suburb": {
        "id": 1953,
        "name": "Palengaan",
        "lat": -7.0795502,
        "lng": 113.4418908
      },
      "city": {
        "id": 113,
        "name": "Pamekasan",
        "lat": -7.1050857,
        "lng": 113.5252319
      },
      "province": {
        "id": 11,
        "name": "Jawa Timur",
        "lat": -7.5360639,
        "lng": 112.2384017
      },
      "country": {
        "id": 228,
        "name": "INDONESIA",
        "code": "ID"
      },
      "id": 22074,
      "name": "Palengaan Laok",
      "postcode": "69362",
      "lat": -7.0561494,
      "lng": 113.4121233
    },
    {
      "suburb": {
        "id": 1953,
        "name": "Palengaan",
        "lat": -7.0795502,
        "lng": 113.4418908
      },
      "city": {
        "id": 113,
        "name": "Pamekasan",
        "lat": -7.1050857,
        "lng": 113.5252319
      },
      "province": {
        "id": 11,
        "name": "Jawa Timur",
        "lat": -7.5360639,
        "lng": 112.2384017
      },
      "country": {
        "id": 228,
        "name": "INDONESIA",
        "code": "ID"
      },
      "id": 22075,
      "name": "Larangan Badung",
      "postcode": "69362",
      "lat": -7.119962,
      "lng": 113.4805863
    },
    {
      "suburb": {
        "id": 1953,
        "name": "Palengaan",
        "lat": -7.0795502,
        "lng": 113.4418908
      },
      "city": {
        "id": 113,
        "name": "Pamekasan",
        "lat": -7.1050857,
        "lng": 113.5252319
      },
      "province": {
        "id": 11,
        "name": "Jawa Timur",
        "lat": -7.5360639,
        "lng": 112.2384017
      },
      "country": {
        "id": 228,
        "name": "INDONESIA",
        "code": "ID"
      },
      "id": 22076,
      "name": "Palengaan Daja",
      "postcode": "69362",
      "lat": -7.0355469,
      "lng": 113.4240305
    },
    {
      "suburb": {
        "id": 1953,
        "name": "Palengaan",
        "lat": -7.0795502,
        "lng": 113.4418908
      },
      "city": {
        "id": 113,
        "name": "Pamekasan",
        "lat": -7.1050857,
        "lng": 113.5252319
      },
      "province": {
        "id": 11,
        "name": "Jawa Timur",
        "lat": -7.5360639,
        "lng": 112.2384017
      },
      "country": {
        "id": 228,
        "name": "INDONESIA",
        "code": "ID"
      },
      "id": 22077,
      "name": "Kacok",
      "postcode": "69362",
      "lat": -7.071584,
      "lng": 113.4508207
    },
    {
      "suburb": {
        "id": 1953,
        "name": "Palengaan",
        "lat": -7.0795502,
        "lng": 113.4418908
      },
      "city": {
        "id": 113,
        "name": "Pamekasan",
        "lat": -7.1050857,
        "lng": 113.5252319
      },
      "province": {
        "id": 11,
        "name": "Jawa Timur",
        "lat": -7.5360639,
        "lng": 112.2384017
      },
      "country": {
        "id": 228,
        "name": "INDONESIA",
        "code": "ID"
      },
      "id": 22078,
      "name": "Angsanah",
      "postcode": "69362",
      "lat": -7.1112374,
      "lng": 113.4567739
    },
    {
      "suburb": {
        "id": 1953,
        "name": "Palengaan",
        "lat": -7.0795502,
        "lng": 113.4418908
      },
      "city": {
        "id": 113,
        "name": "Pamekasan",
        "lat": -7.1050857,
        "lng": 113.5252319
      },
      "province": {
        "id": 11,
        "name": "Jawa Timur",
        "lat": -7.5360639,
        "lng": 112.2384017
      },
      "country": {
        "id": 228,
        "name": "INDONESIA",
        "code": "ID"
      },
      "id": 22079,
      "name": "Banyupelle",
      "postcode": "69362",
      "lat": -7.0890969,
      "lng": 113.4031928
    },
    {
      "suburb": {
        "id": 1953,
        "name": "Palengaan",
        "lat": -7.0795502,
        "lng": 113.4418908
      },
      "city": {
        "id": 113,
        "name": "Pamekasan",
        "lat": -7.1050857,
        "lng": 113.5252319
      },
      "province": {
        "id": 11,
        "name": "Jawa Timur",
        "lat": -7.5360639,
        "lng": 112.2384017
      },
      "country": {
        "id": 228,
        "name": "INDONESIA",
        "code": "ID"
      },
      "id": 22080,
      "name": "Akkor",
      "postcode": "69362",
      "lat": -7.1156,
      "lng": 113.4686802
    },
    {
      "suburb": {
        "id": 1954,
        "name": "Pegantenan",
        "lat": -7.0383416,
        "lng": 113.4657037
      },
      "city": {
        "id": 113,
        "name": "Pamekasan",
        "lat": -7.1050857,
        "lng": 113.5252319
      },
      "province": {
        "id": 11,
        "name": "Jawa Timur",
        "lat": -7.5360639,
        "lng": 112.2384017
      },
      "country": {
        "id": 228,
        "name": "INDONESIA",
        "code": "ID"
      },
      "id": 22081,
      "name": "Tlagah (Talagah)",
      "postcode": "69361",
      "lat": -7.0525025,
      "lng": 113.5282081
    },
    {
      "suburb": {
        "id": 1954,
        "name": "Pegantenan",
        "lat": -7.0383416,
        "lng": 113.4657037
      },
      "city": {
        "id": 113,
        "name": "Pamekasan",
        "lat": -7.1050857,
        "lng": 113.5252319
      },
      "province": {
        "id": 11,
        "name": "Jawa Timur",
        "lat": -7.5360639,
        "lng": 112.2384017
      },
      "country": {
        "id": 228,
        "name": "INDONESIA",
        "code": "ID"
      },
      "id": 22082,
      "name": "Tebul Barat",
      "postcode": "69361",
      "lat": -7.0282724,
      "lng": 113.4910039
    },
    {
      "suburb": {
        "id": 1954,
        "name": "Pegantenan",
        "lat": -7.0383416,
        "lng": 113.4657037
      },
      "city": {
        "id": 113,
        "name": "Pamekasan",
        "lat": -7.1050857,
        "lng": 113.5252319
      },
      "province": {
        "id": 11,
        "name": "Jawa Timur",
        "lat": -7.5360639,
        "lng": 112.2384017
      },
      "country": {
        "id": 228,
        "name": "INDONESIA",
        "code": "ID"
      },
      "id": 22083,
      "name": "Tebul Timur",
      "postcode": "69361",
      "lat": -7.0288126,
      "lng": 113.5043977
    },
    {
      "suburb": {
        "id": 1954,
        "name": "Pegantenan",
        "lat": -7.0383416,
        "lng": 113.4657037
      },
      "city": {
        "id": 113,
        "name": "Pamekasan",
        "lat": -7.1050857,
        "lng": 113.5252319
      },
      "province": {
        "id": 11,
        "name": "Jawa Timur",
        "lat": -7.5360639,
        "lng": 112.2384017
      },
      "country": {
        "id": 228,
        "name": "INDONESIA",
        "code": "ID"
      },
      "id": 22084,
      "name": "Tanjung",
      "postcode": "69361",
      "lat": -6.994371,
      "lng": 113.4478441
    },
    {
      "suburb": {
        "id": 1954,
        "name": "Pegantenan",
        "lat": -7.0383416,
        "lng": 113.4657037
      },
      "city": {
        "id": 113,
        "name": "Pamekasan",
        "lat": -7.1050857,
        "lng": 113.5252319
      },
      "province": {
        "id": 11,
        "name": "Jawa Timur",
        "lat": -7.5360639,
        "lng": 112.2384017
      },
      "country": {
        "id": 228,
        "name": "INDONESIA",
        "code": "ID"
      },
      "id": 22085,
      "name": "Pegantenan (Pagantenan)",
      "postcode": "69361",
      "lat": -7.0447278,
      "lng": 113.4865392
    },
    {
      "suburb": {
        "id": 1954,
        "name": "Pegantenan",
        "lat": -7.0383416,
        "lng": 113.4657037
      },
      "city": {
        "id": 113,
        "name": "Pamekasan",
        "lat": -7.1050857,
        "lng": 113.5252319
      },
      "province": {
        "id": 11,
        "name": "Jawa Timur",
        "lat": -7.5360639,
        "lng": 112.2384017
      },
      "country": {
        "id": 228,
        "name": "INDONESIA",
        "code": "ID"
      },
      "id": 22086,
      "name": "Plakpak",
      "postcode": "69361",
      "lat": -7.0923225,
      "lng": 113.4835627
    },
    {
      "suburb": {
        "id": 1954,
        "name": "Pegantenan",
        "lat": -7.0383416,
        "lng": 113.4657037
      },
      "city": {
        "id": 113,
        "name": "Pamekasan",
        "lat": -7.1050857,
        "lng": 113.5252319
      },
      "province": {
        "id": 11,
        "name": "Jawa Timur",
        "lat": -7.5360639,
        "lng": 112.2384017
      },
      "country": {
        "id": 228,
        "name": "INDONESIA",
        "code": "ID"
      },
      "id": 22087,
      "name": "Palesanggar",
      "postcode": "69361",
      "lat": -7.0629889,
      "lng": 113.4716567
    },
    {
      "suburb": {
        "id": 1954,
        "name": "Pegantenan",
        "lat": -7.0383416,
        "lng": 113.4657037
      },
      "city": {
        "id": 113,
        "name": "Pamekasan",
        "lat": -7.1050857,
        "lng": 113.5252319
      },
      "province": {
        "id": 11,
        "name": "Jawa Timur",
        "lat": -7.5360639,
        "lng": 112.2384017
      },
      "country": {
        "id": 228,
        "name": "INDONESIA",
        "code": "ID"
      },
      "id": 22088,
      "name": "Pasanggar",
      "postcode": "69361",
      "lat": -7.0236825,
      "lng": 113.4597505
    },
    {
      "suburb": {
        "id": 1954,
        "name": "Pegantenan",
        "lat": -7.0383416,
        "lng": 113.4657037
      },
      "city": {
        "id": 113,
        "name": "Pamekasan",
        "lat": -7.1050857,
        "lng": 113.5252319
      },
      "province": {
        "id": 11,
        "name": "Jawa Timur",
        "lat": -7.5360639,
        "lng": 112.2384017
      },
      "country": {
        "id": 228,
        "name": "INDONESIA",
        "code": "ID"
      },
      "id": 22089,
      "name": "Bulangan Timur",
      "postcode": "69361",
      "lat": -7.0431526,
      "lng": 113.516303
    },
    {
      "suburb": {
        "id": 1954,
        "name": "Pegantenan",
        "lat": -7.0383416,
        "lng": 113.4657037
      },
      "city": {
        "id": 113,
        "name": "Pamekasan",
        "lat": -7.1050857,
        "lng": 113.5252319
      },
      "province": {
        "id": 11,
        "name": "Jawa Timur",
        "lat": -7.5360639,
        "lng": 112.2384017
      },
      "country": {
        "id": 228,
        "name": "INDONESIA",
        "code": "ID"
      },
      "id": 22090,
      "name": "Bulangan Haji",
      "postcode": "69361",
      "lat": -7.063433,
      "lng": 113.5103504
    },
    {
      "suburb": {
        "id": 1954,
        "name": "Pegantenan",
        "lat": -7.0383416,
        "lng": 113.4657037
      },
      "city": {
        "id": 113,
        "name": "Pamekasan",
        "lat": -7.1050857,
        "lng": 113.5252319
      },
      "province": {
        "id": 11,
        "name": "Jawa Timur",
        "lat": -7.5360639,
        "lng": 112.2384017
      },
      "country": {
        "id": 228,
        "name": "INDONESIA",
        "code": "ID"
      },
      "id": 22091,
      "name": "Bulangan Branta",
      "postcode": "69361",
      "lat": -7.0506061,
      "lng": 113.5051417
    },
    {
      "suburb": {
        "id": 1954,
        "name": "Pegantenan",
        "lat": -7.0383416,
        "lng": 113.4657037
      },
      "city": {
        "id": 113,
        "name": "Pamekasan",
        "lat": -7.1050857,
        "lng": 113.5252319
      },
      "province": {
        "id": 11,
        "name": "Jawa Timur",
        "lat": -7.5360639,
        "lng": 112.2384017
      },
      "country": {
        "id": 228,
        "name": "INDONESIA",
        "code": "ID"
      },
      "id": 22092,
      "name": "Ambender",
      "postcode": "69361",
      "lat": -7.0194623,
      "lng": 113.4924921
    },
    {
      "suburb": {
        "id": 1954,
        "name": "Pegantenan",
        "lat": -7.0383416,
        "lng": 113.4657037
      },
      "city": {
        "id": 113,
        "name": "Pamekasan",
        "lat": -7.1050857,
        "lng": 113.5252319
      },
      "province": {
        "id": 11,
        "name": "Jawa Timur",
        "lat": -7.5360639,
        "lng": 112.2384017
      },
      "country": {
        "id": 228,
        "name": "INDONESIA",
        "code": "ID"
      },
      "id": 22093,
      "name": "Bulangan Barat",
      "postcode": "69361",
      "lat": -7.0540806,
      "lng": 113.4984449
    },
    {
      "suburb": {
        "id": 1955,
        "name": "Pasean",
        "lat": -6.9124678,
        "lng": 113.584754
      },
      "city": {
        "id": 113,
        "name": "Pamekasan",
        "lat": -7.1050857,
        "lng": 113.5252319
      },
      "province": {
        "id": 11,
        "name": "Jawa Timur",
        "lat": -7.5360639,
        "lng": 112.2384017
      },
      "country": {
        "id": 228,
        "name": "INDONESIA",
        "code": "ID"
      },
      "id": 22094,
      "name": "Tegangser Daya",
      "postcode": "69356",
      "lat": -6.9124678,
      "lng": 113.584754
    },
    {
      "suburb": {
        "id": 1955,
        "name": "Pasean",
        "lat": -6.9124678,
        "lng": 113.584754
      },
      "city": {
        "id": 113,
        "name": "Pamekasan",
        "lat": -7.1050857,
        "lng": 113.5252319
      },
      "province": {
        "id": 11,
        "name": "Jawa Timur",
        "lat": -7.5360639,
        "lng": 112.2384017
      },
      "country": {
        "id": 228,
        "name": "INDONESIA",
        "code": "ID"
      },
      "id": 22095,
      "name": "Tlontoraja",
      "postcode": "69356",
      "lat": -6.9090409,
      "lng": 113.5549937
    },
    {
      "suburb": {
        "id": 1955,
        "name": "Pasean",
        "lat": -6.9124678,
        "lng": 113.584754
      },
      "city": {
        "id": 113,
        "name": "Pamekasan",
        "lat": -7.1050857,
        "lng": 113.5252319
      },
      "province": {
        "id": 11,
        "name": "Jawa Timur",
        "lat": -7.5360639,
        "lng": 112.2384017
      },
      "country": {
        "id": 228,
        "name": "INDONESIA",
        "code": "ID"
      },
      "id": 22096,
      "name": "Sana Tengah",
      "postcode": "69356",
      "lat": -6.9563428,
      "lng": 113.6026095
    },
    {
      "suburb": {
        "id": 1955,
        "name": "Pasean",
        "lat": -6.9124678,
        "lng": 113.584754
      },
      "city": {
        "id": 113,
        "name": "Pamekasan",
        "lat": -7.1050857,
        "lng": 113.5252319
      },
      "province": {
        "id": 11,
        "name": "Jawa Timur",
        "lat": -7.5360639,
        "lng": 112.2384017
      },
      "country": {
        "id": 228,
        "name": "INDONESIA",
        "code": "ID"
      },
      "id": 22097,
      "name": "Sotobar (Sotabar)",
      "postcode": "69356",
      "lat": -6.9026573,
      "lng": 113.5341606
    },
    {
      "suburb": {
        "id": 1955,
        "name": "Pasean",
        "lat": -6.9124678,
        "lng": 113.584754
      },
      "city": {
        "id": 113,
        "name": "Pamekasan",
        "lat": -7.1050857,
        "lng": 113.5252319
      },
      "province": {
        "id": 11,
        "name": "Jawa Timur",
        "lat": -7.5360639,
        "lng": 112.2384017
      },
      "country": {
        "id": 228,
        "name": "INDONESIA",
        "code": "ID"
      },
      "id": 22098,
      "name": "Dempo Timur",
      "postcode": "69356",
      "lat": -6.9252221,
      "lng": 113.6264159
    },
    {
      "suburb": {
        "id": 1955,
        "name": "Pasean",
        "lat": -6.9124678,
        "lng": 113.584754
      },
      "city": {
        "id": 113,
        "name": "Pamekasan",
        "lat": -7.1050857,
        "lng": 113.5252319
      },
      "province": {
        "id": 11,
        "name": "Jawa Timur",
        "lat": -7.5360639,
        "lng": 112.2384017
      },
      "country": {
        "id": 228,
        "name": "INDONESIA",
        "code": "ID"
      },
      "id": 22099,
      "name": "Sana Daja",
      "postcode": "69356",
      "lat": -6.937048,
      "lng": 113.5907059
    },
    {
      "suburb": {
        "id": 1955,
        "name": "Pasean",
        "lat": -6.9124678,
        "lng": 113.584754
      },
      "city": {
        "id": 113,
        "name": "Pamekasan",
        "lat": -7.1050857,
        "lng": 113.5252319
      },
      "province": {
        "id": 11,
        "name": "Jawa Timur",
        "lat": -7.5360639,
        "lng": 112.2384017
      },
      "country": {
        "id": 228,
        "name": "INDONESIA",
        "code": "ID"
      },
      "id": 22100,
      "name": "Bindang",
      "postcode": "69356",
      "lat": -6.9026743,
      "lng": 113.6293916
    },
    {
      "suburb": {
        "id": 1955,
        "name": "Pasean",
        "lat": -6.9124678,
        "lng": 113.584754
      },
      "city": {
        "id": 113,
        "name": "Pamekasan",
        "lat": -7.1050857,
        "lng": 113.5252319
      },
      "province": {
        "id": 11,
        "name": "Jawa Timur",
        "lat": -7.5360639,
        "lng": 112.2384017
      },
      "country": {
        "id": 228,
        "name": "INDONESIA",
        "code": "ID"
      },
      "id": 22101,
      "name": "Dempo Barat",
      "postcode": "69356",
      "lat": -6.9244458,
      "lng": 113.5936818
    },
    {
      "suburb": {
        "id": 1955,
        "name": "Pasean",
        "lat": -6.9124678,
        "lng": 113.584754
      },
      "city": {
        "id": 113,
        "name": "Pamekasan",
        "lat": -7.1050857,
        "lng": 113.5252319
      },
      "province": {
        "id": 11,
        "name": "Jawa Timur",
        "lat": -7.5360639,
        "lng": 112.2384017
      },
      "country": {
        "id": 228,
        "name": "INDONESIA",
        "code": "ID"
      },
      "id": 22102,
      "name": "Batukerbuy",
      "postcode": "69356",
      "lat": -6.8966079,
      "lng": 113.6026095
    },
    {
      "suburb": {
        "id": 1956,
        "name": "Kadur",
        "lat": -7.0744892,
        "lng": 113.5371368
      },
      "city": {
        "id": 113,
        "name": "Pamekasan",
        "lat": -7.1050857,
        "lng": 113.5252319
      },
      "province": {
        "id": 11,
        "name": "Jawa Timur",
        "lat": -7.5360639,
        "lng": 112.2384017
      },
      "country": {
        "id": 228,
        "name": "INDONESIA",
        "code": "ID"
      },
      "id": 22103,
      "name": "Pamoroh",
      "postcode": "69355",
      "lat": -7.0804326,
      "lng": 113.5192793
    },
    {
      "suburb": {
        "id": 1956,
        "name": "Kadur",
        "lat": -7.0744892,
        "lng": 113.5371368
      },
      "city": {
        "id": 113,
        "name": "Pamekasan",
        "lat": -7.1050857,
        "lng": 113.5252319
      },
      "province": {
        "id": 11,
        "name": "Jawa Timur",
        "lat": -7.5360639,
        "lng": 112.2384017
      },
      "country": {
        "id": 228,
        "name": "INDONESIA",
        "code": "ID"
      },
      "id": 22104,
      "name": "Sokolelah",
      "postcode": "69355",
      "lat": -7.1042384,
      "lng": 113.58773
    },
    {
      "suburb": {
        "id": 1956,
        "name": "Kadur",
        "lat": -7.0744892,
        "lng": 113.5371368
      },
      "city": {
        "id": 113,
        "name": "Pamekasan",
        "lat": -7.1050857,
        "lng": 113.5252319
      },
      "province": {
        "id": 11,
        "name": "Jawa Timur",
        "lat": -7.5360639,
        "lng": 112.2384017
      },
      "country": {
        "id": 228,
        "name": "INDONESIA",
        "code": "ID"
      },
      "id": 22105,
      "name": "Kertagena Tengah",
      "postcode": "69355",
      "lat": -7.0833155,
      "lng": 113.6055854
    },
    {
      "suburb": {
        "id": 1956,
        "name": "Kadur",
        "lat": -7.0744892,
        "lng": 113.5371368
      },
      "city": {
        "id": 113,
        "name": "Pamekasan",
        "lat": -7.1050857,
        "lng": 113.5252319
      },
      "province": {
        "id": 11,
        "name": "Jawa Timur",
        "lat": -7.5360639,
        "lng": 112.2384017
      },
      "country": {
        "id": 228,
        "name": "INDONESIA",
        "code": "ID"
      },
      "id": 22106,
      "name": "Pamaroh",
      "postcode": "69355",
      "lat": -7.0983877,
      "lng": 113.5103504
    },
    {
      "suburb": {
        "id": 1956,
        "name": "Kadur",
        "lat": -7.0744892,
        "lng": 113.5371368
      },
      "city": {
        "id": 113,
        "name": "Pamekasan",
        "lat": -7.1050857,
        "lng": 113.5252319
      },
      "province": {
        "id": 11,
        "name": "Jawa Timur",
        "lat": -7.5360639,
        "lng": 112.2384017
      },
      "country": {
        "id": 228,
        "name": "INDONESIA",
        "code": "ID"
      },
      "id": 22107,
      "name": "Kertagena Laok",
      "postcode": "69355",
      "lat": -7.1017939,
      "lng": 113.6100491
    },
    {
      "suburb": {
        "id": 1956,
        "name": "Kadur",
        "lat": -7.0744892,
        "lng": 113.5371368
      },
      "city": {
        "id": 113,
        "name": "Pamekasan",
        "lat": -7.1050857,
        "lng": 113.5252319
      },
      "province": {
        "id": 11,
        "name": "Jawa Timur",
        "lat": -7.5360639,
        "lng": 112.2384017
      },
      "country": {
        "id": 228,
        "name": "INDONESIA",
        "code": "ID"
      },
      "id": 22108,
      "name": "Kertagena Daya",
      "postcode": "69355",
      "lat": -7.0653176,
      "lng": 113.5921939
    },
    {
      "suburb": {
        "id": 1956,
        "name": "Kadur",
        "lat": -7.0744892,
        "lng": 113.5371368
      },
      "city": {
        "id": 113,
        "name": "Pamekasan",
        "lat": -7.1050857,
        "lng": 113.5252319
      },
      "province": {
        "id": 11,
        "name": "Jawa Timur",
        "lat": -7.5360639,
        "lng": 112.2384017
      },
      "country": {
        "id": 228,
        "name": "INDONESIA",
        "code": "ID"
      },
      "id": 22109,
      "name": "Kadur",
      "postcode": "69355",
      "lat": -7.0855417,
      "lng": 113.563922
    },
    {
      "suburb": {
        "id": 1956,
        "name": "Kadur",
        "lat": -7.0744892,
        "lng": 113.5371368
      },
      "city": {
        "id": 113,
        "name": "Pamekasan",
        "lat": -7.1050857,
        "lng": 113.5252319
      },
      "province": {
        "id": 11,
        "name": "Jawa Timur",
        "lat": -7.5360639,
        "lng": 112.2384017
      },
      "country": {
        "id": 228,
        "name": "INDONESIA",
        "code": "ID"
      },
      "id": 22110,
      "name": "Bungbaruh",
      "postcode": "69355",
      "lat": -7.0795967,
      "lng": 113.5817781
    },
    {
      "suburb": {
        "id": 1956,
        "name": "Kadur",
        "lat": -7.0744892,
        "lng": 113.5371368
      },
      "city": {
        "id": 113,
        "name": "Pamekasan",
        "lat": -7.1050857,
        "lng": 113.5252319
      },
      "province": {
        "id": 11,
        "name": "Jawa Timur",
        "lat": -7.5360639,
        "lng": 112.2384017
      },
      "country": {
        "id": 228,
        "name": "INDONESIA",
        "code": "ID"
      },
      "id": 22111,
      "name": "Gagah",
      "postcode": "69355",
      "lat": -7.0986081,
      "lng": 113.5996336
    },
    {
      "suburb": {
        "id": 1956,
        "name": "Kadur",
        "lat": -7.0744892,
        "lng": 113.5371368
      },
      "city": {
        "id": 113,
        "name": "Pamekasan",
        "lat": -7.1050857,
        "lng": 113.5252319
      },
      "province": {
        "id": 11,
        "name": "Jawa Timur",
        "lat": -7.5360639,
        "lng": 112.2384017
      },
      "country": {
        "id": 228,
        "name": "INDONESIA",
        "code": "ID"
      },
      "id": 22112,
      "name": "Bangkes",
      "postcode": "69355",
      "lat": -7.0791644,
      "lng": 113.5430891
    },
    {
      "suburb": {
        "id": 1957,
        "name": "Batumarmar",
        "lat": -6.9666317,
        "lng": 113.5014213
      },
      "city": {
        "id": 113,
        "name": "Pamekasan",
        "lat": -7.1050857,
        "lng": 113.5252319
      },
      "province": {
        "id": 11,
        "name": "Jawa Timur",
        "lat": -7.5360639,
        "lng": 112.2384017
      },
      "country": {
        "id": 228,
        "name": "INDONESIA",
        "code": "ID"
      },
      "id": 22113,
      "name": "Tamberu",
      "postcode": "69354",
      "lat": -6.898321,
      "lng": 113.4857951
    },
    {
      "suburb": {
        "id": 1957,
        "name": "Batumarmar",
        "lat": -6.9666317,
        "lng": 113.5014213
      },
      "city": {
        "id": 113,
        "name": "Pamekasan",
        "lat": -7.1050857,
        "lng": 113.5252319
      },
      "province": {
        "id": 11,
        "name": "Jawa Timur",
        "lat": -7.5360639,
        "lng": 112.2384017
      },
      "country": {
        "id": 228,
        "name": "INDONESIA",
        "code": "ID"
      },
      "id": 22114,
      "name": "Ponjanan Timur",
      "postcode": "69354",
      "lat": -6.9477888,
      "lng": 113.5282081
    },
    {
      "suburb": {
        "id": 1957,
        "name": "Batumarmar",
        "lat": -6.9666317,
        "lng": 113.5014213
      },
      "city": {
        "id": 113,
        "name": "Pamekasan",
        "lat": -7.1050857,
        "lng": 113.5252319
      },
      "province": {
        "id": 11,
        "name": "Jawa Timur",
        "lat": -7.5360639,
        "lng": 112.2384017
      },
      "country": {
        "id": 228,
        "name": "INDONESIA",
        "code": "ID"
      },
      "id": 22115,
      "name": "Ponjanan Barat",
      "postcode": "69354",
      "lat": -6.9484111,
      "lng": 113.516303
    },
    {
      "suburb": {
        "id": 1957,
        "name": "Batumarmar",
        "lat": -6.9666317,
        "lng": 113.5014213
      },
      "city": {
        "id": 113,
        "name": "Pamekasan",
        "lat": -7.1050857,
        "lng": 113.5252319
      },
      "province": {
        "id": 11,
        "name": "Jawa Timur",
        "lat": -7.5360639,
        "lng": 112.2384017
      },
      "country": {
        "id": 228,
        "name": "INDONESIA",
        "code": "ID"
      },
      "id": 22116,
      "name": "Pangereman",
      "postcode": "69354",
      "lat": -6.9644474,
      "lng": 113.4478441
    },
    {
      "suburb": {
        "id": 1957,
        "name": "Batumarmar",
        "lat": -6.9666317,
        "lng": 113.5014213
      },
      "city": {
        "id": 113,
        "name": "Pamekasan",
        "lat": -7.1050857,
        "lng": 113.5252319
      },
      "province": {
        "id": 11,
        "name": "Jawa Timur",
        "lat": -7.5360639,
        "lng": 112.2384017
      },
      "country": {
        "id": 228,
        "name": "INDONESIA",
        "code": "ID"
      },
      "id": 22117,
      "name": "Lesong Laok",
      "postcode": "69354",
      "lat": -6.9540162,
      "lng": 113.5043977
    },
    {
      "suburb": {
        "id": 1957,
        "name": "Batumarmar",
        "lat": -6.9666317,
        "lng": 113.5014213
      },
      "city": {
        "id": 113,
        "name": "Pamekasan",
        "lat": -7.1050857,
        "lng": 113.5252319
      },
      "province": {
        "id": 11,
        "name": "Jawa Timur",
        "lat": -7.5360639,
        "lng": 112.2384017
      },
      "country": {
        "id": 228,
        "name": "INDONESIA",
        "code": "ID"
      },
      "id": 22118,
      "name": "Lesong Daja",
      "postcode": "69354",
      "lat": -6.9138529,
      "lng": 113.5103504
    },
    {
      "suburb": {
        "id": 1957,
        "name": "Batumarmar",
        "lat": -6.9666317,
        "lng": 113.5014213
      },
      "city": {
        "id": 113,
        "name": "Pamekasan",
        "lat": -7.1050857,
        "lng": 113.5252319
      },
      "province": {
        "id": 11,
        "name": "Jawa Timur",
        "lat": -7.5360639,
        "lng": 112.2384017
      },
      "country": {
        "id": 228,
        "name": "INDONESIA",
        "code": "ID"
      },
      "id": 22119,
      "name": "Kapong",
      "postcode": "69354",
      "lat": -6.9032758,
      "lng": 113.5222556
    },
    {
      "suburb": {
        "id": 1957,
        "name": "Batumarmar",
        "lat": -6.9666317,
        "lng": 113.5014213
      },
      "city": {
        "id": 113,
        "name": "Pamekasan",
        "lat": -7.1050857,
        "lng": 113.5252319
      },
      "province": {
        "id": 11,
        "name": "Jawa Timur",
        "lat": -7.5360639,
        "lng": 112.2384017
      },
      "country": {
        "id": 228,
        "name": "INDONESIA",
        "code": "ID"
      },
      "id": 22120,
      "name": "Bujur Timur",
      "postcode": "69354",
      "lat": -6.9906208,
      "lng": 113.5192793
    },
    {
      "suburb": {
        "id": 1957,
        "name": "Batumarmar",
        "lat": -6.9666317,
        "lng": 113.5014213
      },
      "city": {
        "id": 113,
        "name": "Pamekasan",
        "lat": -7.1050857,
        "lng": 113.5252319
      },
      "province": {
        "id": 11,
        "name": "Jawa Timur",
        "lat": -7.5360639,
        "lng": 112.2384017
      },
      "country": {
        "id": 228,
        "name": "INDONESIA",
        "code": "ID"
      },
      "id": 22121,
      "name": "Bujur Tengah",
      "postcode": "69354",
      "lat": -6.991872,
      "lng": 113.4954685
    },
    {
      "suburb": {
        "id": 1957,
        "name": "Batumarmar",
        "lat": -6.9666317,
        "lng": 113.5014213
      },
      "city": {
        "id": 113,
        "name": "Pamekasan",
        "lat": -7.1050857,
        "lng": 113.5252319
      },
      "province": {
        "id": 11,
        "name": "Jawa Timur",
        "lat": -7.5360639,
        "lng": 112.2384017
      },
      "country": {
        "id": 228,
        "name": "INDONESIA",
        "code": "ID"
      },
      "id": 22122,
      "name": "Blaban",
      "postcode": "69354",
      "lat": -6.9203805,
      "lng": 113.4805863
    },
    {
      "suburb": {
        "id": 1957,
        "name": "Batumarmar",
        "lat": -6.9666317,
        "lng": 113.5014213
      },
      "city": {
        "id": 113,
        "name": "Pamekasan",
        "lat": -7.1050857,
        "lng": 113.5252319
      },
      "province": {
        "id": 11,
        "name": "Jawa Timur",
        "lat": -7.5360639,
        "lng": 112.2384017
      },
      "country": {
        "id": 228,
        "name": "INDONESIA",
        "code": "ID"
      },
      "id": 22123,
      "name": "Bujur Barat",
      "postcode": "69354",
      "lat": -6.9731749,
      "lng": 113.4716567
    },
    {
      "suburb": {
        "id": 1957,
        "name": "Batumarmar",
        "lat": -6.9666317,
        "lng": 113.5014213
      },
      "city": {
        "id": 113,
        "name": "Pamekasan",
        "lat": -7.1050857,
        "lng": 113.5252319
      },
      "province": {
        "id": 11,
        "name": "Jawa Timur",
        "lat": -7.5360639,
        "lng": 112.2384017
      },
      "country": {
        "id": 228,
        "name": "INDONESIA",
        "code": "ID"
      },
      "id": 22124,
      "name": "Bangsereh",
      "postcode": "69354",
      "lat": -6.9403093,
      "lng": 113.4805863
    },
    {
      "suburb": {
        "id": 1957,
        "name": "Batumarmar",
        "lat": -6.9666317,
        "lng": 113.5014213
      },
      "city": {
        "id": 113,
        "name": "Pamekasan",
        "lat": -7.1050857,
        "lng": 113.5252319
      },
      "province": {
        "id": 11,
        "name": "Jawa Timur",
        "lat": -7.5360639,
        "lng": 112.2384017
      },
      "country": {
        "id": 228,
        "name": "INDONESIA",
        "code": "ID"
      },
      "id": 22125,
      "name": "Batu Bintang",
      "postcode": "69354",
      "lat": -6.9244331,
      "lng": 113.4984449
    },
    {
      "suburb": {
        "id": 1958,
        "name": "Waru",
        "lat": -6.9734771,
        "lng": 113.5609459
      },
      "city": {
        "id": 113,
        "name": "Pamekasan",
        "lat": -7.1050857,
        "lng": 113.5252319
      },
      "province": {
        "id": 11,
        "name": "Jawa Timur",
        "lat": -7.5360639,
        "lng": 112.2384017
      },
      "country": {
        "id": 228,
        "name": "INDONESIA",
        "code": "ID"
      },
      "id": 22126,
      "name": "Waru Barat",
      "postcode": "69353",
      "lat": -6.9495014,
      "lng": 113.5430891
    },
    {
      "suburb": {
        "id": 1958,
        "name": "Waru",
        "lat": -6.9734771,
        "lng": 113.5609459
      },
      "city": {
        "id": 113,
        "name": "Pamekasan",
        "lat": -7.1050857,
        "lng": 113.5252319
      },
      "province": {
        "id": 11,
        "name": "Jawa Timur",
        "lat": -7.5360639,
        "lng": 112.2384017
      },
      "country": {
        "id": 228,
        "name": "INDONESIA",
        "code": "ID"
      },
      "id": 22127,
      "name": "Waru Timur",
      "postcode": "69353",
      "lat": -6.9605521,
      "lng": 113.5698741
    },
    {
      "suburb": {
        "id": 1958,
        "name": "Waru",
        "lat": -6.9734771,
        "lng": 113.5609459
      },
      "city": {
        "id": 113,
        "name": "Pamekasan",
        "lat": -7.1050857,
        "lng": 113.5252319
      },
      "province": {
        "id": 11,
        "name": "Jawa Timur",
        "lat": -7.5360639,
        "lng": 112.2384017
      },
      "country": {
        "id": 228,
        "name": "INDONESIA",
        "code": "ID"
      },
      "id": 22128,
      "name": "Tegangser Laok (Tagangser Laok)",
      "postcode": "69353",
      "lat": -6.9375147,
      "lng": 113.5341606
    },
    {
      "suburb": {
        "id": 1958,
        "name": "Waru",
        "lat": -6.9734771,
        "lng": 113.5609459
      },
      "city": {
        "id": 113,
        "name": "Pamekasan",
        "lat": -7.1050857,
        "lng": 113.5252319
      },
      "province": {
        "id": 11,
        "name": "Jawa Timur",
        "lat": -7.5360639,
        "lng": 112.2384017
      },
      "country": {
        "id": 228,
        "name": "INDONESIA",
        "code": "ID"
      },
      "id": 22129,
      "name": "Tlonto Ares",
      "postcode": "69353",
      "lat": -6.930279,
      "lng": 113.5535057
    },
    {
      "suburb": {
        "id": 1958,
        "name": "Waru",
        "lat": -6.9734771,
        "lng": 113.5609459
      },
      "city": {
        "id": 113,
        "name": "Pamekasan",
        "lat": -7.1050857,
        "lng": 113.5252319
      },
      "province": {
        "id": 11,
        "name": "Jawa Timur",
        "lat": -7.5360639,
        "lng": 112.2384017
      },
      "country": {
        "id": 228,
        "name": "INDONESIA",
        "code": "ID"
      },
      "id": 22130,
      "name": "Tampojung Pregi",
      "postcode": "69353",
      "lat": -6.9867194,
      "lng": 113.5460653
    },
    {
      "suburb": {
        "id": 1958,
        "name": "Waru",
        "lat": -6.9734771,
        "lng": 113.5609459
      },
      "city": {
        "id": 113,
        "name": "Pamekasan",
        "lat": -7.1050857,
        "lng": 113.5252319
      },
      "province": {
        "id": 11,
        "name": "Jawa Timur",
        "lat": -7.5360639,
        "lng": 112.2384017
      },
      "country": {
        "id": 228,
        "name": "INDONESIA",
        "code": "ID"
      },
      "id": 22131,
      "name": "Tampojung Tengah",
      "postcode": "69353",
      "lat": -6.9811088,
      "lng": 113.5579698
    },
    {
      "suburb": {
        "id": 1958,
        "name": "Waru",
        "lat": -6.9734771,
        "lng": 113.5609459
      },
      "city": {
        "id": 113,
        "name": "Pamekasan",
        "lat": -7.1050857,
        "lng": 113.5252319
      },
      "province": {
        "id": 11,
        "name": "Jawa Timur",
        "lat": -7.5360639,
        "lng": 112.2384017
      },
      "country": {
        "id": 228,
        "name": "INDONESIA",
        "code": "ID"
      },
      "id": 22132,
      "name": "Tampojung Tenggina",
      "postcode": "69353",
      "lat": -6.9954346,
      "lng": 113.5698741
    },
    {
      "suburb": {
        "id": 1958,
        "name": "Waru",
        "lat": -6.9734771,
        "lng": 113.5609459
      },
      "city": {
        "id": 113,
        "name": "Pamekasan",
        "lat": -7.1050857,
        "lng": 113.5252319
      },
      "province": {
        "id": 11,
        "name": "Jawa Timur",
        "lat": -7.5360639,
        "lng": 112.2384017
      },
      "country": {
        "id": 228,
        "name": "INDONESIA",
        "code": "ID"
      },
      "id": 22133,
      "name": "Sumber Waru",
      "postcode": "69353",
      "lat": -7.0093117,
      "lng": 113.5430891
    },
    {
      "suburb": {
        "id": 1958,
        "name": "Waru",
        "lat": -6.9734771,
        "lng": 113.5609459
      },
      "city": {
        "id": 113,
        "name": "Pamekasan",
        "lat": -7.1050857,
        "lng": 113.5252319
      },
      "province": {
        "id": 11,
        "name": "Jawa Timur",
        "lat": -7.5360639,
        "lng": 112.2384017
      },
      "country": {
        "id": 228,
        "name": "INDONESIA",
        "code": "ID"
      },
      "id": 22134,
      "name": "Tampojung Guwa",
      "postcode": "69353",
      "lat": -6.9963759,
      "lng": 113.5520176
    },
    {
      "suburb": {
        "id": 1958,
        "name": "Waru",
        "lat": -6.9734771,
        "lng": 113.5609459
      },
      "city": {
        "id": 113,
        "name": "Pamekasan",
        "lat": -7.1050857,
        "lng": 113.5252319
      },
      "province": {
        "id": 11,
        "name": "Jawa Timur",
        "lat": -7.5360639,
        "lng": 112.2384017
      },
      "country": {
        "id": 228,
        "name": "INDONESIA",
        "code": "ID"
      },
      "id": 22135,
      "name": "Ragang",
      "postcode": "69353",
      "lat": -6.9895088,
      "lng": 113.58773
    },
    {
      "suburb": {
        "id": 1958,
        "name": "Waru",
        "lat": -6.9734771,
        "lng": 113.5609459
      },
      "city": {
        "id": 113,
        "name": "Pamekasan",
        "lat": -7.1050857,
        "lng": 113.5252319
      },
      "province": {
        "id": 11,
        "name": "Jawa Timur",
        "lat": -7.5360639,
        "lng": 112.2384017
      },
      "country": {
        "id": 228,
        "name": "INDONESIA",
        "code": "ID"
      },
      "id": 22136,
      "name": "Sana Laok",
      "postcode": "69353",
      "lat": -6.9768945,
      "lng": 113.5907059
    },
    {
      "suburb": {
        "id": 1959,
        "name": "Pakong",
        "lat": -7.033304,
        "lng": 113.5609459
      },
      "city": {
        "id": 113,
        "name": "Pamekasan",
        "lat": -7.1050857,
        "lng": 113.5252319
      },
      "province": {
        "id": 11,
        "name": "Jawa Timur",
        "lat": -7.5360639,
        "lng": 112.2384017
      },
      "country": {
        "id": 228,
        "name": "INDONESIA",
        "code": "ID"
      },
      "id": 22137,
      "name": "Somalang",
      "postcode": "69352",
      "lat": -7.0413229,
      "lng": 113.5743381
    },
    {
      "suburb": {
        "id": 1958,
        "name": "Waru",
        "lat": -6.9734771,
        "lng": 113.5609459
      },
      "city": {
        "id": 113,
        "name": "Pamekasan",
        "lat": -7.1050857,
        "lng": 113.5252319
      },
      "province": {
        "id": 11,
        "name": "Jawa Timur",
        "lat": -7.5360639,
        "lng": 112.2384017
      },
      "country": {
        "id": 228,
        "name": "INDONESIA",
        "code": "ID"
      },
      "id": 22138,
      "name": "Bajur",
      "postcode": "69353",
      "lat": -7.0074257,
      "lng": 113.5788021
    },
    {
      "suburb": {
        "id": 1959,
        "name": "Pakong",
        "lat": -7.033304,
        "lng": 113.5609459
      },
      "city": {
        "id": 113,
        "name": "Pamekasan",
        "lat": -7.1050857,
        "lng": 113.5252319
      },
      "province": {
        "id": 11,
        "name": "Jawa Timur",
        "lat": -7.5360639,
        "lng": 112.2384017
      },
      "country": {
        "id": 228,
        "name": "INDONESIA",
        "code": "ID"
      },
      "id": 22139,
      "name": "Seddur",
      "postcode": "69352",
      "lat": -7.0306523,
      "lng": 113.563922
    },
    {
      "suburb": {
        "id": 1959,
        "name": "Pakong",
        "lat": -7.033304,
        "lng": 113.5609459
      },
      "city": {
        "id": 113,
        "name": "Pamekasan",
        "lat": -7.1050857,
        "lng": 113.5252319
      },
      "province": {
        "id": 11,
        "name": "Jawa Timur",
        "lat": -7.5360639,
        "lng": 112.2384017
      },
      "country": {
        "id": 228,
        "name": "INDONESIA",
        "code": "ID"
      },
      "id": 22140,
      "name": "Palalang",
      "postcode": "69352",
      "lat": -7.0250344,
      "lng": 113.5758261
    },
    {
      "suburb": {
        "id": 1959,
        "name": "Pakong",
        "lat": -7.033304,
        "lng": 113.5609459
      },
      "city": {
        "id": 113,
        "name": "Pamekasan",
        "lat": -7.1050857,
        "lng": 113.5252319
      },
      "province": {
        "id": 11,
        "name": "Jawa Timur",
        "lat": -7.5360639,
        "lng": 112.2384017
      },
      "country": {
        "id": 228,
        "name": "INDONESIA",
        "code": "ID"
      },
      "id": 22141,
      "name": "Pakong",
      "postcode": "69352",
      "lat": -7.026295,
      "lng": 113.5520176
    },
    {
      "suburb": {
        "id": 1959,
        "name": "Pakong",
        "lat": -7.033304,
        "lng": 113.5609459
      },
      "city": {
        "id": 113,
        "name": "Pamekasan",
        "lat": -7.1050857,
        "lng": 113.5252319
      },
      "province": {
        "id": 11,
        "name": "Jawa Timur",
        "lat": -7.5360639,
        "lng": 112.2384017
      },
      "country": {
        "id": 228,
        "name": "INDONESIA",
        "code": "ID"
      },
      "id": 22142,
      "name": "Lebbek",
      "postcode": "69352",
      "lat": -7.0325432,
      "lng": 113.5282081
    },
    {
      "suburb": {
        "id": 1959,
        "name": "Pakong",
        "lat": -7.033304,
        "lng": 113.5609459
      },
      "city": {
        "id": 113,
        "name": "Pamekasan",
        "lat": -7.1050857,
        "lng": 113.5252319
      },
      "province": {
        "id": 11,
        "name": "Jawa Timur",
        "lat": -7.5360639,
        "lng": 112.2384017
      },
      "country": {
        "id": 228,
        "name": "INDONESIA",
        "code": "ID"
      },
      "id": 22143,
      "name": "Klompang Barat",
      "postcode": "69352",
      "lat": -7.0520909,
      "lng": 113.5594579
    },
    {
      "suburb": {
        "id": 1959,
        "name": "Pakong",
        "lat": -7.033304,
        "lng": 113.5609459
      },
      "city": {
        "id": 113,
        "name": "Pamekasan",
        "lat": -7.1050857,
        "lng": 113.5252319
      },
      "province": {
        "id": 11,
        "name": "Jawa Timur",
        "lat": -7.5360639,
        "lng": 112.2384017
      },
      "country": {
        "id": 228,
        "name": "INDONESIA",
        "code": "ID"
      },
      "id": 22144,
      "name": "Klompang Timur",
      "postcode": "69352",
      "lat": -7.0552794,
      "lng": 113.5698741
    },
    {
      "suburb": {
        "id": 1959,
        "name": "Pakong",
        "lat": -7.033304,
        "lng": 113.5609459
      },
      "city": {
        "id": 113,
        "name": "Pamekasan",
        "lat": -7.1050857,
        "lng": 113.5252319
      },
      "province": {
        "id": 11,
        "name": "Jawa Timur",
        "lat": -7.5360639,
        "lng": 112.2384017
      },
      "country": {
        "id": 228,
        "name": "INDONESIA",
        "code": "ID"
      },
      "id": 22145,
      "name": "Cenlecen",
      "postcode": "69352",
      "lat": -7.0490243,
      "lng": 113.5936818
    },
    {
      "suburb": {
        "id": 1959,
        "name": "Pakong",
        "lat": -7.033304,
        "lng": 113.5609459
      },
      "city": {
        "id": 113,
        "name": "Pamekasan",
        "lat": -7.1050857,
        "lng": 113.5252319
      },
      "province": {
        "id": 11,
        "name": "Jawa Timur",
        "lat": -7.5360639,
        "lng": 112.2384017
      },
      "country": {
        "id": 228,
        "name": "INDONESIA",
        "code": "ID"
      },
      "id": 22146,
      "name": "Bandungan",
      "postcode": "69352",
      "lat": -7.0365867,
      "lng": 113.5460653
    },
    {
      "suburb": {
        "id": 1959,
        "name": "Pakong",
        "lat": -7.033304,
        "lng": 113.5609459
      },
      "city": {
        "id": 113,
        "name": "Pamekasan",
        "lat": -7.1050857,
        "lng": 113.5252319
      },
      "province": {
        "id": 11,
        "name": "Jawa Timur",
        "lat": -7.5360639,
        "lng": 112.2384017
      },
      "country": {
        "id": 228,
        "name": "INDONESIA",
        "code": "ID"
      },
      "id": 22147,
      "name": "Bicorong",
      "postcode": "69352",
      "lat": -7.0515548,
      "lng": 113.5460653
    },
    {
      "suburb": {
        "id": 1959,
        "name": "Pakong",
        "lat": -7.033304,
        "lng": 113.5609459
      },
      "city": {
        "id": 113,
        "name": "Pamekasan",
        "lat": -7.1050857,
        "lng": 113.5252319
      },
      "province": {
        "id": 11,
        "name": "Jawa Timur",
        "lat": -7.5360639,
        "lng": 112.2384017
      },
      "country": {
        "id": 228,
        "name": "INDONESIA",
        "code": "ID"
      },
      "id": 22148,
      "name": "Bajang",
      "postcode": "69352",
      "lat": -7.0508254,
      "lng": 113.5832661
    },
    {
      "suburb": {
        "id": 1959,
        "name": "Pakong",
        "lat": -7.033304,
        "lng": 113.5609459
      },
      "city": {
        "id": 113,
        "name": "Pamekasan",
        "lat": -7.1050857,
        "lng": 113.5252319
      },
      "province": {
        "id": 11,
        "name": "Jawa Timur",
        "lat": -7.5360639,
        "lng": 112.2384017
      },
      "country": {
        "id": 228,
        "name": "INDONESIA",
        "code": "ID"
      },
      "id": 22149,
      "name": "Banban",
      "postcode": "69352",
      "lat": -7.0431847,
      "lng": 113.586242
    },
    {
      "suburb": {
        "id": 1960,
        "name": "Pademawu",
        "lat": -7.1957053,
        "lng": 113.5133267
      },
      "city": {
        "id": 113,
        "name": "Pamekasan",
        "lat": -7.1050857,
        "lng": 113.5252319
      },
      "province": {
        "id": 11,
        "name": "Jawa Timur",
        "lat": -7.5360639,
        "lng": 112.2384017
      },
      "country": {
        "id": 228,
        "name": "INDONESIA",
        "code": "ID"
      },
      "id": 22150,
      "name": "Tambung",
      "postcode": "69323",
      "lat": -7.1530367,
      "lng": 113.516303
    },
    {
      "suburb": {
        "id": 1960,
        "name": "Pademawu",
        "lat": -7.1957053,
        "lng": 113.5133267
      },
      "city": {
        "id": 113,
        "name": "Pamekasan",
        "lat": -7.1050857,
        "lng": 113.5252319
      },
      "province": {
        "id": 11,
        "name": "Jawa Timur",
        "lat": -7.5360639,
        "lng": 112.2384017
      },
      "country": {
        "id": 228,
        "name": "INDONESIA",
        "code": "ID"
      },
      "id": 22151,
      "name": "Tanjung",
      "postcode": "69323",
      "lat": -7.2191083,
      "lng": 113.5430891
    },
    {
      "suburb": {
        "id": 1960,
        "name": "Pademawu",
        "lat": -7.1957053,
        "lng": 113.5133267
      },
      "city": {
        "id": 113,
        "name": "Pamekasan",
        "lat": -7.1050857,
        "lng": 113.5252319
      },
      "province": {
        "id": 11,
        "name": "Jawa Timur",
        "lat": -7.5360639,
        "lng": 112.2384017
      },
      "country": {
        "id": 228,
        "name": "INDONESIA",
        "code": "ID"
      },
      "id": 22152,
      "name": "Sopaah",
      "postcode": "69381",
      "lat": -7.1981627,
      "lng": 113.4910039
    },
    {
      "suburb": {
        "id": 1960,
        "name": "Pademawu",
        "lat": -7.1957053,
        "lng": 113.5133267
      },
      "city": {
        "id": 113,
        "name": "Pamekasan",
        "lat": -7.1050857,
        "lng": 113.5252319
      },
      "province": {
        "id": 11,
        "name": "Jawa Timur",
        "lat": -7.5360639,
        "lng": 112.2384017
      },
      "country": {
        "id": 228,
        "name": "INDONESIA",
        "code": "ID"
      },
      "id": 22153,
      "name": "Sumedangan",
      "postcode": "69323",
      "lat": -7.1836817,
      "lng": 113.5043977
    },
    {
      "suburb": {
        "id": 1960,
        "name": "Pademawu",
        "lat": -7.1957053,
        "lng": 113.5133267
      },
      "city": {
        "id": 113,
        "name": "Pamekasan",
        "lat": -7.1050857,
        "lng": 113.5252319
      },
      "province": {
        "id": 11,
        "name": "Jawa Timur",
        "lat": -7.5360639,
        "lng": 112.2384017
      },
      "country": {
        "id": 228,
        "name": "INDONESIA",
        "code": "ID"
      },
      "id": 22154,
      "name": "Pagagan",
      "postcode": "69323",
      "lat": -7.2275458,
      "lng": 113.5029095
    },
    {
      "suburb": {
        "id": 1960,
        "name": "Pademawu",
        "lat": -7.1957053,
        "lng": 113.5133267
      },
      "city": {
        "id": 113,
        "name": "Pamekasan",
        "lat": -7.1050857,
        "lng": 113.5252319
      },
      "province": {
        "id": 11,
        "name": "Jawa Timur",
        "lat": -7.5360639,
        "lng": 112.2384017
      },
      "country": {
        "id": 228,
        "name": "INDONESIA",
        "code": "ID"
      },
      "id": 22155,
      "name": "Prekbun",
      "postcode": "69323",
      "lat": -7.2028446,
      "lng": 113.4969567
    },
    {
      "suburb": {
        "id": 1960,
        "name": "Pademawu",
        "lat": -7.1957053,
        "lng": 113.5133267
      },
      "city": {
        "id": 113,
        "name": "Pamekasan",
        "lat": -7.1050857,
        "lng": 113.5252319
      },
      "province": {
        "id": 11,
        "name": "Jawa Timur",
        "lat": -7.5360639,
        "lng": 112.2384017
      },
      "country": {
        "id": 228,
        "name": "INDONESIA",
        "code": "ID"
      },
      "id": 22156,
      "name": "Sentol",
      "postcode": "69323",
      "lat": -7.1436782,
      "lng": 113.5043977
    },
    {
      "suburb": {
        "id": 1960,
        "name": "Pademawu",
        "lat": -7.1957053,
        "lng": 113.5133267
      },
      "city": {
        "id": 113,
        "name": "Pamekasan",
        "lat": -7.1050857,
        "lng": 113.5252319
      },
      "province": {
        "id": 11,
        "name": "Jawa Timur",
        "lat": -7.5360639,
        "lng": 112.2384017
      },
      "country": {
        "id": 228,
        "name": "INDONESIA",
        "code": "ID"
      },
      "id": 22157,
      "name": "Pademawu Timur",
      "postcode": "69323",
      "lat": -7.2380812,
      "lng": 113.516303
    },
    {
      "suburb": {
        "id": 1960,
        "name": "Pademawu",
        "lat": -7.1957053,
        "lng": 113.5133267
      },
      "city": {
        "id": 113,
        "name": "Pamekasan",
        "lat": -7.1050857,
        "lng": 113.5252319
      },
      "province": {
        "id": 11,
        "name": "Jawa Timur",
        "lat": -7.5360639,
        "lng": 112.2384017
      },
      "country": {
        "id": 228,
        "name": "INDONESIA",
        "code": "ID"
      },
      "id": 22158,
      "name": "Pademawu Barat",
      "postcode": "69323",
      "lat": -7.1930431,
      "lng": 113.516303
    },
    {
      "suburb": {
        "id": 1960,
        "name": "Pademawu",
        "lat": -7.1957053,
        "lng": 113.5133267
      },
      "city": {
        "id": 113,
        "name": "Pamekasan",
        "lat": -7.1050857,
        "lng": 113.5252319
      },
      "province": {
        "id": 11,
        "name": "Jawa Timur",
        "lat": -7.5360639,
        "lng": 112.2384017
      },
      "country": {
        "id": 228,
        "name": "INDONESIA",
        "code": "ID"
      },
      "id": 22159,
      "name": "Murtajih",
      "postcode": "69323",
      "lat": -7.1733576,
      "lng": 113.5103504
    },
    {
      "suburb": {
        "id": 1960,
        "name": "Pademawu",
        "lat": -7.1957053,
        "lng": 113.5133267
      },
      "city": {
        "id": 113,
        "name": "Pamekasan",
        "lat": -7.1050857,
        "lng": 113.5252319
      },
      "province": {
        "id": 11,
        "name": "Jawa Timur",
        "lat": -7.5360639,
        "lng": 112.2384017
      },
      "country": {
        "id": 228,
        "name": "INDONESIA",
        "code": "ID"
      },
      "id": 22160,
      "name": "Padelegan (Pedelegan)",
      "postcode": "69323",
      "lat": -7.2324282,
      "lng": 113.5282081
    },
    {
      "suburb": {
        "id": 1960,
        "name": "Pademawu",
        "lat": -7.1957053,
        "lng": 113.5133267
      },
      "city": {
        "id": 113,
        "name": "Pamekasan",
        "lat": -7.1050857,
        "lng": 113.5252319
      },
      "province": {
        "id": 11,
        "name": "Jawa Timur",
        "lat": -7.5360639,
        "lng": 112.2384017
      },
      "country": {
        "id": 228,
        "name": "INDONESIA",
        "code": "ID"
      },
      "id": 22161,
      "name": "Lemper",
      "postcode": "69323",
      "lat": -7.1728289,
      "lng": 113.4969567
    },
    {
      "suburb": {
        "id": 1960,
        "name": "Pademawu",
        "lat": -7.1957053,
        "lng": 113.5133267
      },
      "city": {
        "id": 113,
        "name": "Pamekasan",
        "lat": -7.1050857,
        "lng": 113.5252319
      },
      "province": {
        "id": 11,
        "name": "Jawa Timur",
        "lat": -7.5360639,
        "lng": 112.2384017
      },
      "country": {
        "id": 228,
        "name": "INDONESIA",
        "code": "ID"
      },
      "id": 22162,
      "name": "Majungan",
      "postcode": "69323",
      "lat": -7.2067619,
      "lng": 113.540113
    },
    {
      "suburb": {
        "id": 1960,
        "name": "Pademawu",
        "lat": -7.1957053,
        "lng": 113.5133267
      },
      "city": {
        "id": 113,
        "name": "Pamekasan",
        "lat": -7.1050857,
        "lng": 113.5252319
      },
      "province": {
        "id": 11,
        "name": "Jawa Timur",
        "lat": -7.5360639,
        "lng": 112.2384017
      },
      "country": {
        "id": 228,
        "name": "INDONESIA",
        "code": "ID"
      },
      "id": 22163,
      "name": "Lawangan Daya",
      "postcode": "69323",
      "lat": -7.1543162,
      "lng": 113.4924921
    },
    {
      "suburb": {
        "id": 1960,
        "name": "Pademawu",
        "lat": -7.1957053,
        "lng": 113.5133267
      },
      "city": {
        "id": 113,
        "name": "Pamekasan",
        "lat": -7.1050857,
        "lng": 113.5252319
      },
      "province": {
        "id": 11,
        "name": "Jawa Timur",
        "lat": -7.5360639,
        "lng": 112.2384017
      },
      "country": {
        "id": 228,
        "name": "INDONESIA",
        "code": "ID"
      },
      "id": 22164,
      "name": "Durbuk",
      "postcode": "69323",
      "lat": -7.1973584,
      "lng": 113.5058858
    },
    {
      "suburb": {
        "id": 1960,
        "name": "Pademawu",
        "lat": -7.1957053,
        "lng": 113.5133267
      },
      "city": {
        "id": 113,
        "name": "Pamekasan",
        "lat": -7.1050857,
        "lng": 113.5252319
      },
      "province": {
        "id": 11,
        "name": "Jawa Timur",
        "lat": -7.5360639,
        "lng": 112.2384017
      },
      "country": {
        "id": 228,
        "name": "INDONESIA",
        "code": "ID"
      },
      "id": 22165,
      "name": "Jarin",
      "postcode": "69323",
      "lat": -7.2140237,
      "lng": 113.4984449
    },
    {
      "suburb": {
        "id": 1960,
        "name": "Pademawu",
        "lat": -7.1957053,
        "lng": 113.5133267
      },
      "city": {
        "id": 113,
        "name": "Pamekasan",
        "lat": -7.1050857,
        "lng": 113.5252319
      },
      "province": {
        "id": 11,
        "name": "Jawa Timur",
        "lat": -7.5360639,
        "lng": 112.2384017
      },
      "country": {
        "id": 228,
        "name": "INDONESIA",
        "code": "ID"
      },
      "id": 22166,
      "name": "Dasok",
      "postcode": "69323",
      "lat": -7.1627154,
      "lng": 113.5222556
    },
    {
      "suburb": {
        "id": 1960,
        "name": "Pademawu",
        "lat": -7.1957053,
        "lng": 113.5133267
      },
      "city": {
        "id": 113,
        "name": "Pamekasan",
        "lat": -7.1050857,
        "lng": 113.5252319
      },
      "province": {
        "id": 11,
        "name": "Jawa Timur",
        "lat": -7.5360639,
        "lng": 112.2384017
      },
      "country": {
        "id": 228,
        "name": "INDONESIA",
        "code": "ID"
      },
      "id": 22167,
      "name": "Buddih",
      "postcode": "69323",
      "lat": -7.1939855,
      "lng": 113.4872833
    },
    {
      "suburb": {
        "id": 1960,
        "name": "Pademawu",
        "lat": -7.1957053,
        "lng": 113.5133267
      },
      "city": {
        "id": 113,
        "name": "Pamekasan",
        "lat": -7.1050857,
        "lng": 113.5252319
      },
      "province": {
        "id": 11,
        "name": "Jawa Timur",
        "lat": -7.5360639,
        "lng": 112.2384017
      },
      "country": {
        "id": 228,
        "name": "INDONESIA",
        "code": "ID"
      },
      "id": 22168,
      "name": "Bunder",
      "postcode": "69323",
      "lat": -7.1823963,
      "lng": 113.5282081
    },
    {
      "suburb": {
        "id": 1960,
        "name": "Pademawu",
        "lat": -7.1957053,
        "lng": 113.5133267
      },
      "city": {
        "id": 113,
        "name": "Pamekasan",
        "lat": -7.1050857,
        "lng": 113.5252319
      },
      "province": {
        "id": 11,
        "name": "Jawa Timur",
        "lat": -7.5360639,
        "lng": 112.2384017
      },
      "country": {
        "id": 228,
        "name": "INDONESIA",
        "code": "ID"
      },
      "id": 22169,
      "name": "Budagan (Buddagan)",
      "postcode": "69323",
      "lat": -7.1586764,
      "lng": 113.5043977
    },
    {
      "suburb": {
        "id": 1960,
        "name": "Pademawu",
        "lat": -7.1957053,
        "lng": 113.5133267
      },
      "city": {
        "id": 113,
        "name": "Pamekasan",
        "lat": -7.1050857,
        "lng": 113.5252319
      },
      "province": {
        "id": 11,
        "name": "Jawa Timur",
        "lat": -7.5360639,
        "lng": 112.2384017
      },
      "country": {
        "id": 228,
        "name": "INDONESIA",
        "code": "ID"
      },
      "id": 22170,
      "name": "Barurambat Timur",
      "postcode": "69321",
      "lat": -7.168148,
      "lng": 113.4910039
    },
    {
      "suburb": {
        "id": 1960,
        "name": "Pademawu",
        "lat": -7.1957053,
        "lng": 113.5133267
      },
      "city": {
        "id": 113,
        "name": "Pamekasan",
        "lat": -7.1050857,
        "lng": 113.5252319
      },
      "province": {
        "id": 11,
        "name": "Jawa Timur",
        "lat": -7.5360639,
        "lng": 112.2384017
      },
      "country": {
        "id": 228,
        "name": "INDONESIA",
        "code": "ID"
      },
      "id": 22171,
      "name": "Baddurih",
      "postcode": "69323",
      "lat": -7.218503,
      "lng": 113.485051
    },
    {
      "suburb": {
        "id": 1961,
        "name": "Pamekasan",
        "lat": -7.1582549,
        "lng": 113.4657037
      },
      "city": {
        "id": 113,
        "name": "Pamekasan",
        "lat": -7.1050857,
        "lng": 113.5252319
      },
      "province": {
        "id": 11,
        "name": "Jawa Timur",
        "lat": -7.5360639,
        "lng": 112.2384017
      },
      "country": {
        "id": 228,
        "name": "INDONESIA",
        "code": "ID"
      },
      "id": 22172,
      "name": "Tejah/Teja Timur",
      "postcode": "69317",
      "lat": -7.1709193,
      "lng": 113.4627271
    },