{
  "metadata": {
    "path": "/v3/location/areas?limit=1000&page=77",
    "http_status_code": 200,
    "http_status": "OK",
    "timestamp": 1647340836
  },
  "data": [
    {
      "suburb": {
        "id": 6606,
        "name": "Ulunoyo",
        "lat": 0.8786391,
        "lng": 97.6765157
      },
      "city": {
        "id": 444,
        "name": "Nias Selatan",
        "lat": 0.7086091,
        "lng": 97.8286368
      },
      "province": {
        "id": 34,
        "name": "Sumatera Utara",
        "lat": 2.0108563,
        "lng": 98.9784887
      },
      "country": {
        "id": 228,
        "name": "INDONESIA",
        "code": "ID"
      },
      "id": 76018,
      "name": "Marao",
      "postcode": "22867",
      "lat": 0.9306454,
      "lng": 97.681943
    },
    {
      "suburb": {
        "id": 6605,
        "name": "Lolomatua",
        "lat": 0.9591444,
        "lng": 97.6385368
      },
      "city": {
        "id": 444,
        "name": "Nias Selatan",
        "lat": 0.7086091,
        "lng": 97.8286368
      },
      "province": {
        "id": 34,
        "name": "Sumatera Utara",
        "lat": 2.0108563,
        "lng": 98.9784887
      },
      "country": {
        "id": 228,
        "name": "INDONESIA",
        "code": "ID"
      },
      "id": 76019,
      "name": "Lawa-Lawa Luo",
      "postcode": "22867",
      "lat": 0.9615185,
      "lng": 97.6358249
    },
    {
      "suburb": {
        "id": 6606,
        "name": "Ulunoyo",
        "lat": 0.8786391,
        "lng": 97.6765157
      },
      "city": {
        "id": 444,
        "name": "Nias Selatan",
        "lat": 0.7086091,
        "lng": 97.8286368
      },
      "province": {
        "id": 34,
        "name": "Sumatera Utara",
        "lat": 2.0108563,
        "lng": 98.9784887
      },
      "country": {
        "id": 228,
        "name": "INDONESIA",
        "code": "ID"
      },
      "id": 76020,
      "name": "Loloanaa",
      "postcode": "22867",
      "lat": 0.8786391,
      "lng": 97.6765157
    },
    {
      "suburb": {
        "id": 6604,
        "name": "Huruna",
        "lat": 0.9780419,
        "lng": 97.6602365
      },
      "city": {
        "id": 444,
        "name": "Nias Selatan",
        "lat": 0.7086091,
        "lng": 97.8286368
      },
      "province": {
        "id": 34,
        "name": "Sumatera Utara",
        "lat": 2.0108563,
        "lng": 98.9784887
      },
      "country": {
        "id": 228,
        "name": "INDONESIA",
        "code": "ID"
      },
      "id": 76021,
      "name": "Lalimanawa",
      "postcode": "22867",
      "lat": 0.9851928,
      "lng": 97.6412489
    },
    {
      "suburb": {
        "id": 6605,
        "name": "Lolomatua",
        "lat": 0.9591444,
        "lng": 97.6385368
      },
      "city": {
        "id": 444,
        "name": "Nias Selatan",
        "lat": 0.7086091,
        "lng": 97.8286368
      },
      "province": {
        "id": 34,
        "name": "Sumatera Utara",
        "lat": 2.0108563,
        "lng": 98.9784887
      },
      "country": {
        "id": 228,
        "name": "INDONESIA",
        "code": "ID"
      },
      "id": 76022,
      "name": "Koendrafo",
      "postcode": "22867",
      "lat": 0.9614818,
      "lng": 97.6520984
    },
    {
      "suburb": {
        "id": 6604,
        "name": "Huruna",
        "lat": 0.9780419,
        "lng": 97.6602365
      },
      "city": {
        "id": 444,
        "name": "Nias Selatan",
        "lat": 0.7086091,
        "lng": 97.8286368
      },
      "province": {
        "id": 34,
        "name": "Sumatera Utara",
        "lat": 2.0108563,
        "lng": 98.9784887
      },
      "country": {
        "id": 228,
        "name": "INDONESIA",
        "code": "ID"
      },
      "id": 76023,
      "name": "Hilizoliga",
      "postcode": "22867",
      "lat": 0.9805041,
      "lng": 97.6195551
    },
    {
      "suburb": {
        "id": 6605,
        "name": "Lolomatua",
        "lat": 0.9591444,
        "lng": 97.6385368
      },
      "city": {
        "id": 444,
        "name": "Nias Selatan",
        "lat": 0.7086091,
        "lng": 97.8286368
      },
      "province": {
        "id": 34,
        "name": "Sumatera Utara",
        "lat": 2.0108563,
        "lng": 98.9784887
      },
      "country": {
        "id": 228,
        "name": "INDONESIA",
        "code": "ID"
      },
      "id": 76024,
      "name": "Koolotano",
      "postcode": "22867",
      "lat": 0.9591444,
      "lng": 97.6385368
    },
    {
      "suburb": {
        "id": 6606,
        "name": "Ulunoyo",
        "lat": 0.8786391,
        "lng": 97.6765157
      },
      "city": {
        "id": 444,
        "name": "Nias Selatan",
        "lat": 0.7086091,
        "lng": 97.8286368
      },
      "province": {
        "id": 34,
        "name": "Sumatera Utara",
        "lat": 2.0108563,
        "lng": 98.9784887
      },
      "country": {
        "id": 228,
        "name": "INDONESIA",
        "code": "ID"
      },
      "id": 76025,
      "name": "Hiliwaebu",
      "postcode": "22867",
      "lat": 0.8834216,
      "lng": 97.6493858
    },
    {
      "suburb": {
        "id": 6604,
        "name": "Huruna",
        "lat": 0.9780419,
        "lng": 97.6602365
      },
      "city": {
        "id": 444,
        "name": "Nias Selatan",
        "lat": 0.7086091,
        "lng": 97.8286368
      },
      "province": {
        "id": 34,
        "name": "Sumatera Utara",
        "lat": 2.0108563,
        "lng": 98.9784887
      },
      "country": {
        "id": 228,
        "name": "INDONESIA",
        "code": "ID"
      },
      "id": 76026,
      "name": "Hilimanawa",
      "postcode": "22867",
      "lat": 0.9780419,
      "lng": 97.6602365
    },
    {
      "suburb": {
        "id": 6604,
        "name": "Huruna",
        "lat": 0.9780419,
        "lng": 97.6602365
      },
      "city": {
        "id": 444,
        "name": "Nias Selatan",
        "lat": 0.7086091,
        "lng": 97.8286368
      },
      "province": {
        "id": 34,
        "name": "Sumatera Utara",
        "lat": 2.0108563,
        "lng": 98.9784887
      },
      "country": {
        "id": 228,
        "name": "INDONESIA",
        "code": "ID"
      },
      "id": 76027,
      "name": "Hiliuso",
      "postcode": "22867",
      "lat": 0.9495774,
      "lng": 97.681943
    },
    {
      "suburb": {
        "id": 6605,
        "name": "Lolomatua",
        "lat": 0.9591444,
        "lng": 97.6385368
      },
      "city": {
        "id": 444,
        "name": "Nias Selatan",
        "lat": 0.7086091,
        "lng": 97.8286368
      },
      "province": {
        "id": 34,
        "name": "Sumatera Utara",
        "lat": 2.0108563,
        "lng": 98.9784887
      },
      "country": {
        "id": 228,
        "name": "INDONESIA",
        "code": "ID"
      },
      "id": 76028,
      "name": "Hilisangowola",
      "postcode": "22867",
      "lat": 0.9520838,
      "lng": 97.6195551
    },
    {
      "suburb": {
        "id": 6605,
        "name": "Lolomatua",
        "lat": 0.9591444,
        "lng": 97.6385368
      },
      "city": {
        "id": 444,
        "name": "Nias Selatan",
        "lat": 0.7086091,
        "lng": 97.8286368
      },
      "province": {
        "id": 34,
        "name": "Sumatera Utara",
        "lat": 2.0108563,
        "lng": 98.9784887
      },
      "country": {
        "id": 228,
        "name": "INDONESIA",
        "code": "ID"
      },
      "id": 76029,
      "name": "Hilifaondrato",
      "postcode": "22867",
      "lat": 0.9591444,
      "lng": 97.6385368
    },
    {
      "suburb": {
        "id": 6606,
        "name": "Ulunoyo",
        "lat": 0.8786391,
        "lng": 97.6765157
      },
      "city": {
        "id": 444,
        "name": "Nias Selatan",
        "lat": 0.7086091,
        "lng": 97.8286368
      },
      "province": {
        "id": 34,
        "name": "Sumatera Utara",
        "lat": 2.0108563,
        "lng": 98.9784887
      },
      "country": {
        "id": 228,
        "name": "INDONESIA",
        "code": "ID"
      },
      "id": 76030,
      "name": "Hilimaera",
      "postcode": "22867",
      "lat": 0.8786391,
      "lng": 97.6765157
    },
    {
      "suburb": {
        "id": 6604,
        "name": "Huruna",
        "lat": 0.9780419,
        "lng": 97.6602365
      },
      "city": {
        "id": 444,
        "name": "Nias Selatan",
        "lat": 0.7086091,
        "lng": 97.8286368
      },
      "province": {
        "id": 34,
        "name": "Sumatera Utara",
        "lat": 2.0108563,
        "lng": 98.9784887
      },
      "country": {
        "id": 228,
        "name": "INDONESIA",
        "code": "ID"
      },
      "id": 76031,
      "name": "Hilifalawu",
      "postcode": "22867",
      "lat": 0.9780419,
      "lng": 97.6602365
    },
    {
      "suburb": {
        "id": 6606,
        "name": "Ulunoyo",
        "lat": 0.8786391,
        "lng": 97.6765157
      },
      "city": {
        "id": 444,
        "name": "Nias Selatan",
        "lat": 0.7086091,
        "lng": 97.8286368
      },
      "province": {
        "id": 34,
        "name": "Sumatera Utara",
        "lat": 2.0108563,
        "lng": 98.9784887
      },
      "country": {
        "id": 228,
        "name": "INDONESIA",
        "code": "ID"
      },
      "id": 76032,
      "name": "Hilifakhe",
      "postcode": "22867",
      "lat": 0.8786391,
      "lng": 97.6765157
    },
    {
      "suburb": {
        "id": 6607,
        "name": "Mandrehe",
        "lat": 1.0590215,
        "lng": 97.5138947
      },
      "city": {
        "id": 446,
        "name": "Nias Barat",
        "lat": 1.0116383,
        "lng": 97.4814163
      },
      "province": {
        "id": 34,
        "name": "Sumatera Utara",
        "lat": 2.0108563,
        "lng": 98.9784887
      },
      "country": {
        "id": 228,
        "name": "INDONESIA",
        "code": "ID"
      },
      "id": 76033,
      "name": "Hayo",
      "postcode": "22867",
      "lat": 1.0816005,
      "lng": 97.5071271
    },
    {
      "suburb": {
        "id": 6604,
        "name": "Huruna",
        "lat": 0.9780419,
        "lng": 97.6602365
      },
      "city": {
        "id": 444,
        "name": "Nias Selatan",
        "lat": 0.7086091,
        "lng": 97.8286368
      },
      "province": {
        "id": 34,
        "name": "Sumatera Utara",
        "lat": 2.0108563,
        "lng": 98.9784887
      },
      "country": {
        "id": 228,
        "name": "INDONESIA",
        "code": "ID"
      },
      "id": 76034,
      "name": "Fadoro Tuhemberua",
      "postcode": "22867",
      "lat": 0.9780419,
      "lng": 97.6602365
    },
    {
      "suburb": {
        "id": 6605,
        "name": "Lolomatua",
        "lat": 0.9591444,
        "lng": 97.6385368
      },
      "city": {
        "id": 444,
        "name": "Nias Selatan",
        "lat": 0.7086091,
        "lng": 97.8286368
      },
      "province": {
        "id": 34,
        "name": "Sumatera Utara",
        "lat": 2.0108563,
        "lng": 98.9784887
      },
      "country": {
        "id": 228,
        "name": "INDONESIA",
        "code": "ID"
      },
      "id": 76035,
      "name": "Hili Otalua",
      "postcode": "22867",
      "lat": 0.9425669,
      "lng": 97.6412489
    },
    {
      "suburb": {
        "id": 6604,
        "name": "Huruna",
        "lat": 0.9780419,
        "lng": 97.6602365
      },
      "city": {
        "id": 444,
        "name": "Nias Selatan",
        "lat": 0.7086091,
        "lng": 97.8286368
      },
      "province": {
        "id": 34,
        "name": "Sumatera Utara",
        "lat": 2.0108563,
        "lng": 98.9784887
      },
      "country": {
        "id": 228,
        "name": "INDONESIA",
        "code": "ID"
      },
      "id": 76036,
      "name": "Ehosakhozi",
      "postcode": "22867",
      "lat": 1.0066053,
      "lng": 97.606
    },
    {
      "suburb": {
        "id": 6605,
        "name": "Lolomatua",
        "lat": 0.9591444,
        "lng": 97.6385368
      },
      "city": {
        "id": 444,
        "name": "Nias Selatan",
        "lat": 0.7086091,
        "lng": 97.8286368
      },
      "province": {
        "id": 34,
        "name": "Sumatera Utara",
        "lat": 2.0108563,
        "lng": 98.9784887
      },
      "country": {
        "id": 228,
        "name": "INDONESIA",
        "code": "ID"
      },
      "id": 76037,
      "name": "Ewo",
      "postcode": "22867",
      "lat": 0.9591444,
      "lng": 97.6385368
    },
    {
      "suburb": {
        "id": 6605,
        "name": "Lolomatua",
        "lat": 0.9591444,
        "lng": 97.6385368
      },
      "city": {
        "id": 444,
        "name": "Nias Selatan",
        "lat": 0.7086091,
        "lng": 97.8286368
      },
      "province": {
        "id": 34,
        "name": "Sumatera Utara",
        "lat": 2.0108563,
        "lng": 98.9784887
      },
      "country": {
        "id": 228,
        "name": "INDONESIA",
        "code": "ID"
      },
      "id": 76038,
      "name": "Botohili Ndruria",
      "postcode": "22867",
      "lat": 0.9591444,
      "lng": 97.6385368
    },
    {
      "suburb": {
        "id": 6605,
        "name": "Lolomatua",
        "lat": 0.9591444,
        "lng": 97.6385368
      },
      "city": {
        "id": 444,
        "name": "Nias Selatan",
        "lat": 0.7086091,
        "lng": 97.8286368
      },
      "province": {
        "id": 34,
        "name": "Sumatera Utara",
        "lat": 2.0108563,
        "lng": 98.9784887
      },
      "country": {
        "id": 228,
        "name": "INDONESIA",
        "code": "ID"
      },
      "id": 76039,
      "name": "Caritas Sogawunasi",
      "postcode": "22867",
      "lat": 0.9591444,
      "lng": 97.6385368
    },
    {
      "suburb": {
        "id": 6606,
        "name": "Ulunoyo",
        "lat": 0.8786391,
        "lng": 97.6765157
      },
      "city": {
        "id": 444,
        "name": "Nias Selatan",
        "lat": 0.7086091,
        "lng": 97.8286368
      },
      "province": {
        "id": 34,
        "name": "Sumatera Utara",
        "lat": 2.0108563,
        "lng": 98.9784887
      },
      "country": {
        "id": 228,
        "name": "INDONESIA",
        "code": "ID"
      },
      "id": 76040,
      "name": "Borowosi",
      "postcode": "22867",
      "lat": 0.8786391,
      "lng": 97.6765157
    },
    {
      "suburb": {
        "id": 6604,
        "name": "Huruna",
        "lat": 0.9780419,
        "lng": 97.6602365
      },
      "city": {
        "id": 444,
        "name": "Nias Selatan",
        "lat": 0.7086091,
        "lng": 97.8286368
      },
      "province": {
        "id": 34,
        "name": "Sumatera Utara",
        "lat": 2.0108563,
        "lng": 98.9784887
      },
      "country": {
        "id": 228,
        "name": "INDONESIA",
        "code": "ID"
      },
      "id": 76041,
      "name": "Bawahosi Huruna",
      "postcode": "22867",
      "lat": 0.9780419,
      "lng": 97.6602365
    },
    {
      "suburb": {
        "id": 6606,
        "name": "Ulunoyo",
        "lat": 0.8786391,
        "lng": 97.6765157
      },
      "city": {
        "id": 444,
        "name": "Nias Selatan",
        "lat": 0.7086091,
        "lng": 97.8286368
      },
      "province": {
        "id": 34,
        "name": "Sumatera Utara",
        "lat": 2.0108563,
        "lng": 98.9784887
      },
      "country": {
        "id": 228,
        "name": "INDONESIA",
        "code": "ID"
      },
      "id": 76042,
      "name": "Bawo Lolomatua",
      "postcode": "22867",
      "lat": 0.8786391,
      "lng": 97.6765157
    },
    {
      "suburb": {
        "id": 6606,
        "name": "Ulunoyo",
        "lat": 0.8786391,
        "lng": 97.6765157
      },
      "city": {
        "id": 444,
        "name": "Nias Selatan",
        "lat": 0.7086091,
        "lng": 97.8286368
      },
      "province": {
        "id": 34,
        "name": "Sumatera Utara",
        "lat": 2.0108563,
        "lng": 98.9784887
      },
      "country": {
        "id": 228,
        "name": "INDONESIA",
        "code": "ID"
      },
      "id": 76043,
      "name": "Ambukha Satu",
      "postcode": "22867",
      "lat": 0.8786391,
      "lng": 97.6765157
    },
    {
      "suburb": {
        "id": 6606,
        "name": "Ulunoyo",
        "lat": 0.8786391,
        "lng": 97.6765157
      },
      "city": {
        "id": 444,
        "name": "Nias Selatan",
        "lat": 0.7086091,
        "lng": 97.8286368
      },
      "province": {
        "id": 34,
        "name": "Sumatera Utara",
        "lat": 2.0108563,
        "lng": 98.9784887
      },
      "country": {
        "id": 228,
        "name": "INDONESIA",
        "code": "ID"
      },
      "id": 76044,
      "name": "Amorosa",
      "postcode": "22867",
      "lat": 0.9141163,
      "lng": 97.6683756
    },
    {
      "suburb": {
        "id": 6608,
        "name": "Amandraya",
        "lat": 0.680622,
        "lng": 97.6873706
      },
      "city": {
        "id": 444,
        "name": "Nias Selatan",
        "lat": 0.7086091,
        "lng": 97.8286368
      },
      "province": {
        "id": 34,
        "name": "Sumatera Utara",
        "lat": 2.0108563,
        "lng": 98.9784887
      },
      "country": {
        "id": 228,
        "name": "INDONESIA",
        "code": "ID"
      },
      "id": 76045,
      "name": "Tuindrao Satu",
      "postcode": "22866",
      "lat": 0.680622,
      "lng": 97.6873706
    },
    {
      "suburb": {
        "id": 6609,
        "name": "Ulususua",
        "lat": 0.817197,
        "lng": 97.7036561
      },
      "city": {
        "id": 444,
        "name": "Nias Selatan",
        "lat": 0.7086091,
        "lng": 97.8286368
      },
      "province": {
        "id": 34,
        "name": "Sumatera Utara",
        "lat": 2.0108563,
        "lng": 98.9784887
      },
      "country": {
        "id": 228,
        "name": "INDONESIA",
        "code": "ID"
      },
      "id": 76046,
      "name": "Susua",
      "postcode": "22866",
      "lat": 0.817176,
      "lng": 97.7145152
    },
    {
      "suburb": {
        "id": 6608,
        "name": "Amandraya",
        "lat": 0.680622,
        "lng": 97.6873706
      },
      "city": {
        "id": 444,
        "name": "Nias Selatan",
        "lat": 0.7086091,
        "lng": 97.8286368
      },
      "province": {
        "id": 34,
        "name": "Sumatera Utara",
        "lat": 2.0108563,
        "lng": 98.9784887
      },
      "country": {
        "id": 228,
        "name": "INDONESIA",
        "code": "ID"
      },
      "id": 76047,
      "name": "Tuhemberua Amandraya",
      "postcode": "22866",
      "lat": 0.680622,
      "lng": 97.6873706
    },
    {
      "suburb": {
        "id": 6608,
        "name": "Amandraya",
        "lat": 0.680622,
        "lng": 97.6873706
      },
      "city": {
        "id": 444,
        "name": "Nias Selatan",
        "lat": 0.7086091,
        "lng": 97.8286368
      },
      "province": {
        "id": 34,
        "name": "Sumatera Utara",
        "lat": 2.0108563,
        "lng": 98.9784887
      },
      "country": {
        "id": 228,
        "name": "INDONESIA",
        "code": "ID"
      },
      "id": 76048,
      "name": "Tuindrao",
      "postcode": "22866",
      "lat": 0.7488813,
      "lng": 97.6792293
    },
    {
      "suburb": {
        "id": 6608,
        "name": "Amandraya",
        "lat": 0.680622,
        "lng": 97.6873706
      },
      "city": {
        "id": 444,
        "name": "Nias Selatan",
        "lat": 0.7086091,
        "lng": 97.8286368
      },
      "province": {
        "id": 34,
        "name": "Sumatera Utara",
        "lat": 2.0108563,
        "lng": 98.9784887
      },
      "country": {
        "id": 228,
        "name": "INDONESIA",
        "code": "ID"
      },
      "id": 76049,
      "name": "Sisobahili",
      "postcode": "22866",
      "lat": 0.7582552,
      "lng": 97.7063707
    },
    {
      "suburb": {
        "id": 6610,
        "name": "Aramo",
        "lat": 0.7369787,
        "lng": 97.7525352
      },
      "city": {
        "id": 444,
        "name": "Nias Selatan",
        "lat": 0.7086091,
        "lng": 97.8286368
      },
      "province": {
        "id": 34,
        "name": "Sumatera Utara",
        "lat": 2.0108563,
        "lng": 98.9784887
      },
      "country": {
        "id": 228,
        "name": "INDONESIA",
        "code": "ID"
      },
      "id": 76050,
      "name": "Sisobambowo",
      "postcode": "22866",
      "lat": 0.7135259,
      "lng": 97.7036561
    },
    {
      "suburb": {
        "id": 6608,
        "name": "Amandraya",
        "lat": 0.680622,
        "lng": 97.6873706
      },
      "city": {
        "id": 444,
        "name": "Nias Selatan",
        "lat": 0.7086091,
        "lng": 97.8286368
      },
      "province": {
        "id": 34,
        "name": "Sumatera Utara",
        "lat": 2.0108563,
        "lng": 98.9784887
      },
      "country": {
        "id": 228,
        "name": "INDONESIA",
        "code": "ID"
      },
      "id": 76051,
      "name": "Sirofi",
      "postcode": "22866",
      "lat": 0.680622,
      "lng": 97.6873706
    },
    {
      "suburb": {
        "id": 6609,
        "name": "Ulususua",
        "lat": 0.817197,
        "lng": 97.7036561
      },
      "city": {
        "id": 444,
        "name": "Nias Selatan",
        "lat": 0.7086091,
        "lng": 97.8286368
      },
      "province": {
        "id": 34,
        "name": "Sumatera Utara",
        "lat": 2.0108563,
        "lng": 98.9784887
      },
      "country": {
        "id": 228,
        "name": "INDONESIA",
        "code": "ID"
      },
      "id": 76052,
      "name": "Sisarahili Susua",
      "postcode": "22866",
      "lat": 0.817176,
      "lng": 97.7145152
    },
    {
      "suburb": {
        "id": 6608,
        "name": "Amandraya",
        "lat": 0.680622,
        "lng": 97.6873706
      },
      "city": {
        "id": 444,
        "name": "Nias Selatan",
        "lat": 0.7086091,
        "lng": 97.8286368
      },
      "province": {
        "id": 34,
        "name": "Sumatera Utara",
        "lat": 2.0108563,
        "lng": 98.9784887
      },
      "country": {
        "id": 228,
        "name": "INDONESIA",
        "code": "ID"
      },
      "id": 76053,
      "name": "Sisarahili",
      "postcode": "22866",
      "lat": 0.817176,
      "lng": 97.7145152
    },
    {
      "suburb": {
        "id": 6608,
        "name": "Amandraya",
        "lat": 0.680622,
        "lng": 97.6873706
      },
      "city": {
        "id": 444,
        "name": "Nias Selatan",
        "lat": 0.7086091,
        "lng": 97.8286368
      },
      "province": {
        "id": 34,
        "name": "Sumatera Utara",
        "lat": 2.0108563,
        "lng": 98.9784887
      },
      "country": {
        "id": 228,
        "name": "INDONESIA",
        "code": "ID"
      },
      "id": 76054,
      "name": "Sinar Inoo",
      "postcode": "22866",
      "lat": 0.680622,
      "lng": 97.6873706
    },
    {
      "suburb": {
        "id": 6610,
        "name": "Aramo",
        "lat": 0.7369787,
        "lng": 97.7525352
      },
      "city": {
        "id": 444,
        "name": "Nias Selatan",
        "lat": 0.7086091,
        "lng": 97.8286368
      },
      "province": {
        "id": 34,
        "name": "Sumatera Utara",
        "lat": 2.0108563,
        "lng": 98.9784887
      },
      "country": {
        "id": 228,
        "name": "INDONESIA",
        "code": "ID"
      },
      "id": 76055,
      "name": "Sikhorilafau",
      "postcode": "22866",
      "lat": 0.7369787,
      "lng": 97.7525352
    },
    {
      "suburb": {
        "id": 6608,
        "name": "Amandraya",
        "lat": 0.680622,
        "lng": 97.6873706
      },
      "city": {
        "id": 444,
        "name": "Nias Selatan",
        "lat": 0.7086091,
        "lng": 97.8286368
      },
      "province": {
        "id": 34,
        "name": "Sumatera Utara",
        "lat": 2.0108563,
        "lng": 98.9784887
      },
      "country": {
        "id": 228,
        "name": "INDONESIA",
        "code": "ID"
      },
      "id": 76056,
      "name": "Sifaoroasi",
      "postcode": "22866",
      "lat": 0.6829252,
      "lng": 97.7172302
    },
    {
      "suburb": {
        "id": 6609,
        "name": "Ulususua",
        "lat": 0.817197,
        "lng": 97.7036561
      },
      "city": {
        "id": 444,
        "name": "Nias Selatan",
        "lat": 0.7086091,
        "lng": 97.8286368
      },
      "province": {
        "id": 34,
        "name": "Sumatera Utara",
        "lat": 2.0108563,
        "lng": 98.9784887
      },
      "country": {
        "id": 228,
        "name": "INDONESIA",
        "code": "ID"
      },
      "id": 76057,
      "name": "Ramba-Ramba",
      "postcode": "22866",
      "lat": 0.7912591,
      "lng": 97.7009416
    },
    {
      "suburb": {
        "id": 6609,
        "name": "Ulususua",
        "lat": 0.817197,
        "lng": 97.7036561
      },
      "city": {
        "id": 444,
        "name": "Nias Selatan",
        "lat": 0.7086091,
        "lng": 97.8286368
      },
      "province": {
        "id": 34,
        "name": "Sumatera Utara",
        "lat": 2.0108563,
        "lng": 98.9784887
      },
      "country": {
        "id": 228,
        "name": "INDONESIA",
        "code": "ID"
      },
      "id": 76058,
      "name": "Sifaoroasi",
      "postcode": "22866",
      "lat": 0.817197,
      "lng": 97.7036561
    },
    {
      "suburb": {
        "id": 6609,
        "name": "Ulususua",
        "lat": 0.817197,
        "lng": 97.7036561
      },
      "city": {
        "id": 444,
        "name": "Nias Selatan",
        "lat": 0.7086091,
        "lng": 97.8286368
      },
      "province": {
        "id": 34,
        "name": "Sumatera Utara",
        "lat": 2.0108563,
        "lng": 98.9784887
      },
      "country": {
        "id": 228,
        "name": "INDONESIA",
        "code": "ID"
      },
      "id": 76059,
      "name": "Orahili Fondrako",
      "postcode": "22866",
      "lat": 0.817197,
      "lng": 97.7036561
    },
    {
      "suburb": {
        "id": 6609,
        "name": "Ulususua",
        "lat": 0.817197,
        "lng": 97.7036561
      },
      "city": {
        "id": 444,
        "name": "Nias Selatan",
        "lat": 0.7086091,
        "lng": 97.8286368
      },
      "province": {
        "id": 34,
        "name": "Sumatera Utara",
        "lat": 2.0108563,
        "lng": 98.9784887
      },
      "country": {
        "id": 228,
        "name": "INDONESIA",
        "code": "ID"
      },
      "id": 76060,
      "name": "Orudu Sibohou",
      "postcode": "22866",
      "lat": 0.817197,
      "lng": 97.7036561
    },
    {
      "suburb": {
        "id": 6608,
        "name": "Amandraya",
        "lat": 0.680622,
        "lng": 97.6873706
      },
      "city": {
        "id": 444,
        "name": "Nias Selatan",
        "lat": 0.7086091,
        "lng": 97.8286368
      },
      "province": {
        "id": 34,
        "name": "Sumatera Utara",
        "lat": 2.0108563,
        "lng": 98.9784887
      },
      "country": {
        "id": 228,
        "name": "INDONESIA",
        "code": "ID"
      },
      "id": 76061,
      "name": "Lolomoyo",
      "postcode": "22866",
      "lat": 0.7701192,
      "lng": 97.6602365
    },
    {
      "suburb": {
        "id": 6608,
        "name": "Amandraya",
        "lat": 0.680622,
        "lng": 97.6873706
      },
      "city": {
        "id": 444,
        "name": "Nias Selatan",
        "lat": 0.7086091,
        "lng": 97.8286368
      },
      "province": {
        "id": 34,
        "name": "Sumatera Utara",
        "lat": 2.0108563,
        "lng": 98.9784887
      },
      "country": {
        "id": 228,
        "name": "INDONESIA",
        "code": "ID"
      },
      "id": 76062,
      "name": "Lolozaria",
      "postcode": "22866",
      "lat": 0.7394894,
      "lng": 97.6629495
    },
    {
      "suburb": {
        "id": 6608,
        "name": "Amandraya",
        "lat": 0.680622,
        "lng": 97.6873706
      },
      "city": {
        "id": 444,
        "name": "Nias Selatan",
        "lat": 0.7086091,
        "lng": 97.8286368
      },
      "province": {
        "id": 34,
        "name": "Sumatera Utara",
        "lat": 2.0108563,
        "lng": 98.9784887
      },
      "country": {
        "id": 228,
        "name": "INDONESIA",
        "code": "ID"
      },
      "id": 76063,
      "name": "Orahili Eho",
      "postcode": "22866",
      "lat": 0.7606354,
      "lng": 97.6927987
    },
    {
      "suburb": {
        "id": 6610,
        "name": "Aramo",
        "lat": 0.7369787,
        "lng": 97.7525352
      },
      "city": {
        "id": 444,
        "name": "Nias Selatan",
        "lat": 0.7086091,
        "lng": 97.8286368
      },
      "province": {
        "id": 34,
        "name": "Sumatera Utara",
        "lat": 2.0108563,
        "lng": 98.9784887
      },
      "country": {
        "id": 228,
        "name": "INDONESIA",
        "code": "ID"
      },
      "id": 76064,
      "name": "Hume",
      "postcode": "22866",
      "lat": 0.7369787,
      "lng": 97.7525352
    },
    {
      "suburb": {
        "id": 6608,
        "name": "Amandraya",
        "lat": 0.680622,
        "lng": 97.6873706
      },
      "city": {
        "id": 444,
        "name": "Nias Selatan",
        "lat": 0.7086091,
        "lng": 97.8286368
      },
      "province": {
        "id": 34,
        "name": "Sumatera Utara",
        "lat": 2.0108563,
        "lng": 98.9784887
      },
      "country": {
        "id": 228,
        "name": "INDONESIA",
        "code": "ID"
      },
      "id": 76065,
      "name": "Loloabolo",
      "postcode": "22866",
      "lat": 0.680622,
      "lng": 97.6873706
    },
    {
      "suburb": {
        "id": 6609,
        "name": "Ulususua",
        "lat": 0.817197,
        "lng": 97.7036561
      },
      "city": {
        "id": 444,
        "name": "Nias Selatan",
        "lat": 0.7086091,
        "lng": 97.8286368
      },
      "province": {
        "id": 34,
        "name": "Sumatera Utara",
        "lat": 2.0108563,
        "lng": 98.9784887
      },
      "country": {
        "id": 228,
        "name": "INDONESIA",
        "code": "ID"
      },
      "id": 76066,
      "name": "Lahusa Susua",
      "postcode": "22866",
      "lat": 0.817197,
      "lng": 97.7036561
    },
    {
      "suburb": {
        "id": 6609,
        "name": "Ulususua",
        "lat": 0.817197,
        "lng": 97.7036561
      },
      "city": {
        "id": 444,
        "name": "Nias Selatan",
        "lat": 0.7086091,
        "lng": 97.8286368
      },
      "province": {
        "id": 34,
        "name": "Sumatera Utara",
        "lat": 2.0108563,
        "lng": 98.9784887
      },
      "country": {
        "id": 228,
        "name": "INDONESIA",
        "code": "ID"
      },
      "id": 76067,
      "name": "Hiliwosi",
      "postcode": "22866",
      "lat": 0.817197,
      "lng": 97.7036561
    },
    {
      "suburb": {
        "id": 6610,
        "name": "Aramo",
        "lat": 0.7369787,
        "lng": 97.7525352
      },
      "city": {
        "id": 444,
        "name": "Nias Selatan",
        "lat": 0.7086091,
        "lng": 97.8286368
      },
      "province": {
        "id": 34,
        "name": "Sumatera Utara",
        "lat": 2.0108563,
        "lng": 98.9784887
      },
      "country": {
        "id": 228,
        "name": "INDONESIA",
        "code": "ID"
      },
      "id": 76068,
      "name": "Hilisawato",
      "postcode": "22866",
      "lat": 0.7369787,
      "lng": 97.7525352
    },
    {
      "suburb": {
        "id": 6610,
        "name": "Aramo",
        "lat": 0.7369787,
        "lng": 97.7525352
      },
      "city": {
        "id": 444,
        "name": "Nias Selatan",
        "lat": 0.7086091,
        "lng": 97.8286368
      },
      "province": {
        "id": 34,
        "name": "Sumatera Utara",
        "lat": 2.0108563,
        "lng": 98.9784887
      },
      "country": {
        "id": 228,
        "name": "INDONESIA",
        "code": "ID"
      },
      "id": 76069,
      "name": "Hilitatao",
      "postcode": "22866",
      "lat": 0.7040058,
      "lng": 97.7688358
    },
    {
      "suburb": {
        "id": 6610,
        "name": "Aramo",
        "lat": 0.7369787,
        "lng": 97.7525352
      },
      "city": {
        "id": 444,
        "name": "Nias Selatan",
        "lat": 0.7086091,
        "lng": 97.8286368
      },
      "province": {
        "id": 34,
        "name": "Sumatera Utara",
        "lat": 2.0108563,
        "lng": 98.9784887
      },
      "country": {
        "id": 228,
        "name": "INDONESIA",
        "code": "ID"
      },
      "id": 76070,
      "name": "Hilioru dua",
      "postcode": "22866",
      "lat": 0.7181863,
      "lng": 97.730807
    },
    {
      "suburb": {
        "id": 6608,
        "name": "Amandraya",
        "lat": 0.680622,
        "lng": 97.6873706
      },
      "city": {
        "id": 444,
        "name": "Nias Selatan",
        "lat": 0.7086091,
        "lng": 97.8286368
      },
      "province": {
        "id": 34,
        "name": "Sumatera Utara",
        "lat": 2.0108563,
        "lng": 98.9784887
      },
      "country": {
        "id": 228,
        "name": "INDONESIA",
        "code": "ID"
      },
      "id": 76071,
      "name": "Hilisaloo",
      "postcode": "22866",
      "lat": 0.680622,
      "lng": 97.6873706
    },
    {
      "suburb": {
        "id": 6609,
        "name": "Ulususua",
        "lat": 0.817197,
        "lng": 97.7036561
      },
      "city": {
        "id": 444,
        "name": "Nias Selatan",
        "lat": 0.7086091,
        "lng": 97.8286368
      },
      "province": {
        "id": 34,
        "name": "Sumatera Utara",
        "lat": 2.0108563,
        "lng": 98.9784887
      },
      "country": {
        "id": 228,
        "name": "INDONESIA",
        "code": "ID"
      },
      "id": 76072,
      "name": "Hilinifaoso",
      "postcode": "22866",
      "lat": 0.817197,
      "lng": 97.7036561
    },
    {
      "suburb": {
        "id": 6608,
        "name": "Amandraya",
        "lat": 0.680622,
        "lng": 97.6873706
      },
      "city": {
        "id": 444,
        "name": "Nias Selatan",
        "lat": 0.7086091,
        "lng": 97.8286368
      },
      "province": {
        "id": 34,
        "name": "Sumatera Utara",
        "lat": 2.0108563,
        "lng": 98.9784887
      },
      "country": {
        "id": 228,
        "name": "INDONESIA",
        "code": "ID"
      },
      "id": 76073,
      "name": "Hilindraso",
      "postcode": "22866",
      "lat": 0.680622,
      "lng": 97.6873706
    },
    {
      "suburb": {
        "id": 6610,
        "name": "Aramo",
        "lat": 0.7369787,
        "lng": 97.7525352
      },
      "city": {
        "id": 444,
        "name": "Nias Selatan",
        "lat": 0.7086091,
        "lng": 97.8286368
      },
      "province": {
        "id": 34,
        "name": "Sumatera Utara",
        "lat": 2.0108563,
        "lng": 98.9784887
      },
      "country": {
        "id": 228,
        "name": "INDONESIA",
        "code": "ID"
      },
      "id": 76074,
      "name": "Hilimezaya",
      "postcode": "22866",
      "lat": 0.7369787,
      "lng": 97.7525352
    },
    {
      "suburb": {
        "id": 6608,
        "name": "Amandraya",
        "lat": 0.680622,
        "lng": 97.6873706
      },
      "city": {
        "id": 444,
        "name": "Nias Selatan",
        "lat": 0.7086091,
        "lng": 97.8286368
      },
      "province": {
        "id": 34,
        "name": "Sumatera Utara",
        "lat": 2.0108563,
        "lng": 98.9784887
      },
      "country": {
        "id": 228,
        "name": "INDONESIA",
        "code": "ID"
      },
      "id": 76075,
      "name": "Hilimbowo",
      "postcode": "22866",
      "lat": 0.7229949,
      "lng": 97.6710889
    },
    {
      "suburb": {
        "id": 6608,
        "name": "Amandraya",
        "lat": 0.680622,
        "lng": 97.6873706
      },
      "city": {
        "id": 444,
        "name": "Nias Selatan",
        "lat": 0.7086091,
        "lng": 97.8286368
      },
      "province": {
        "id": 34,
        "name": "Sumatera Utara",
        "lat": 2.0108563,
        "lng": 98.9784887
      },
      "country": {
        "id": 228,
        "name": "INDONESIA",
        "code": "ID"
      },
      "id": 76076,
      "name": "Hilimbulawa",
      "postcode": "22866",
      "lat": 0.6947232,
      "lng": 97.6927987
    },
    {
      "suburb": {
        "id": 6610,
        "name": "Aramo",
        "lat": 0.7369787,
        "lng": 97.7525352
      },
      "city": {
        "id": 444,
        "name": "Nias Selatan",
        "lat": 0.7086091,
        "lng": 97.8286368
      },
      "province": {
        "id": 34,
        "name": "Sumatera Utara",
        "lat": 2.0108563,
        "lng": 98.9784887
      },
      "country": {
        "id": 228,
        "name": "INDONESIA",
        "code": "ID"
      },
      "id": 76077,
      "name": "Hilimbowo",
      "postcode": "22866",
      "lat": 0.7369787,
      "lng": 97.7525352
    },
    {
      "suburb": {
        "id": 6608,
        "name": "Amandraya",
        "lat": 0.680622,
        "lng": 97.6873706
      },
      "city": {
        "id": 444,
        "name": "Nias Selatan",
        "lat": 0.7086091,
        "lng": 97.8286368
      },
      "province": {
        "id": 34,
        "name": "Sumatera Utara",
        "lat": 2.0108563,
        "lng": 98.9784887
      },
      "country": {
        "id": 228,
        "name": "INDONESIA",
        "code": "ID"
      },
      "id": 76078,
      "name": "Hilimaera",
      "postcode": "22866",
      "lat": 0.680622,
      "lng": 97.6873706
    },
    {
      "suburb": {
        "id": 6610,
        "name": "Aramo",
        "lat": 0.7369787,
        "lng": 97.7525352
      },
      "city": {
        "id": 444,
        "name": "Nias Selatan",
        "lat": 0.7086091,
        "lng": 97.8286368
      },
      "province": {
        "id": 34,
        "name": "Sumatera Utara",
        "lat": 2.0108563,
        "lng": 98.9784887
      },
      "country": {
        "id": 228,
        "name": "INDONESIA",
        "code": "ID"
      },
      "id": 76079,
      "name": "Hilimagiao",
      "postcode": "22866",
      "lat": 0.7369787,
      "lng": 97.7525352
    },
    {
      "suburb": {
        "id": 6608,
        "name": "Amandraya",
        "lat": 0.680622,
        "lng": 97.6873706
      },
      "city": {
        "id": 444,
        "name": "Nias Selatan",
        "lat": 0.7086091,
        "lng": 97.8286368
      },
      "province": {
        "id": 34,
        "name": "Sumatera Utara",
        "lat": 2.0108563,
        "lng": 98.9784887
      },
      "country": {
        "id": 228,
        "name": "INDONESIA",
        "code": "ID"
      },
      "id": 76080,
      "name": "Hilihoru",
      "postcode": "22866",
      "lat": 0.6665084,
      "lng": 97.6927987
    },
    {
      "suburb": {
        "id": 6610,
        "name": "Aramo",
        "lat": 0.7369787,
        "lng": 97.7525352
      },
      "city": {
        "id": 444,
        "name": "Nias Selatan",
        "lat": 0.7086091,
        "lng": 97.8286368
      },
      "province": {
        "id": 34,
        "name": "Sumatera Utara",
        "lat": 2.0108563,
        "lng": 98.9784887
      },
      "country": {
        "id": 228,
        "name": "INDONESIA",
        "code": "ID"
      },
      "id": 76081,
      "name": "Hiligumbu",
      "postcode": "22866",
      "lat": 0.7369787,
      "lng": 97.7525352
    },
    {
      "suburb": {
        "id": 6608,
        "name": "Amandraya",
        "lat": 0.680622,
        "lng": 97.6873706
      },
      "city": {
        "id": 444,
        "name": "Nias Selatan",
        "lat": 0.7086091,
        "lng": 97.8286368
      },
      "province": {
        "id": 34,
        "name": "Sumatera Utara",
        "lat": 2.0108563,
        "lng": 98.9784887
      },
      "country": {
        "id": 228,
        "name": "INDONESIA",
        "code": "ID"
      },
      "id": 76082,
      "name": "Hilifadolo",
      "postcode": "22866",
      "lat": 0.7771254,
      "lng": 97.6955129
    },
    {
      "suburb": {
        "id": 6610,
        "name": "Aramo",
        "lat": 0.7369787,
        "lng": 97.7525352
      },
      "city": {
        "id": 444,
        "name": "Nias Selatan",
        "lat": 0.7086091,
        "lng": 97.8286368
      },
      "province": {
        "id": 34,
        "name": "Sumatera Utara",
        "lat": 2.0108563,
        "lng": 98.9784887
      },
      "country": {
        "id": 228,
        "name": "INDONESIA",
        "code": "ID"
      },
      "id": 76083,
      "name": "Hilifadolo",
      "postcode": "22866",
      "lat": 0.7369787,
      "lng": 97.7525352
    },
    {
      "suburb": {
        "id": 6610,
        "name": "Aramo",
        "lat": 0.7369787,
        "lng": 97.7525352
      },
      "city": {
        "id": 444,
        "name": "Nias Selatan",
        "lat": 0.7086091,
        "lng": 97.8286368
      },
      "province": {
        "id": 34,
        "name": "Sumatera Utara",
        "lat": 2.0108563,
        "lng": 98.9784887
      },
      "country": {
        "id": 228,
        "name": "INDONESIA",
        "code": "ID"
      },
      "id": 76084,
      "name": "Hiligafoa",
      "postcode": "22866",
      "lat": 0.7369787,
      "lng": 97.7525352
    },
    {
      "suburb": {
        "id": 6610,
        "name": "Aramo",
        "lat": 0.7369787,
        "lng": 97.7525352
      },
      "city": {
        "id": 444,
        "name": "Nias Selatan",
        "lat": 0.7086091,
        "lng": 97.8286368
      },
      "province": {
        "id": 34,
        "name": "Sumatera Utara",
        "lat": 2.0108563,
        "lng": 98.9784887
      },
      "country": {
        "id": 228,
        "name": "INDONESIA",
        "code": "ID"
      },
      "id": 76085,
      "name": "Hiliadolowa",
      "postcode": "22866",
      "lat": 0.7369787,
      "lng": 97.7525352
    },
    {
      "suburb": {
        "id": 6610,
        "name": "Aramo",
        "lat": 0.7369787,
        "lng": 97.7525352
      },
      "city": {
        "id": 444,
        "name": "Nias Selatan",
        "lat": 0.7086091,
        "lng": 97.8286368
      },
      "province": {
        "id": 34,
        "name": "Sumatera Utara",
        "lat": 2.0108563,
        "lng": 98.9784887
      },
      "country": {
        "id": 228,
        "name": "INDONESIA",
        "code": "ID"
      },
      "id": 76086,
      "name": "Hiliamozula / Hiliamauzula",
      "postcode": "22866",
      "lat": 0.7699812,
      "lng": 97.7362384
    },
    {
      "suburb": {
        "id": 6610,
        "name": "Aramo",
        "lat": 0.7369787,
        "lng": 97.7525352
      },
      "city": {
        "id": 444,
        "name": "Nias Selatan",
        "lat": 0.7086091,
        "lng": 97.8286368
      },
      "province": {
        "id": 34,
        "name": "Sumatera Utara",
        "lat": 2.0108563,
        "lng": 98.9784887
      },
      "country": {
        "id": 228,
        "name": "INDONESIA",
        "code": "ID"
      },
      "id": 76087,
      "name": "Dao-dao",
      "postcode": "22866",
      "lat": 0.7369787,
      "lng": 97.7525352
    },
    {
      "suburb": {
        "id": 6609,
        "name": "Ulususua",
        "lat": 0.817197,
        "lng": 97.7036561
      },
      "city": {
        "id": 444,
        "name": "Nias Selatan",
        "lat": 0.7086091,
        "lng": 97.8286368
      },
      "province": {
        "id": 34,
        "name": "Sumatera Utara",
        "lat": 2.0108563,
        "lng": 98.9784887
      },
      "country": {
        "id": 228,
        "name": "INDONESIA",
        "code": "ID"
      },
      "id": 76088,
      "name": "Foikhu Fondrako",
      "postcode": "22866",
      "lat": 0.817197,
      "lng": 97.7036561
    },
    {
      "suburb": {
        "id": 6609,
        "name": "Ulususua",
        "lat": 0.817197,
        "lng": 97.7036561
      },
      "city": {
        "id": 444,
        "name": "Nias Selatan",
        "lat": 0.7086091,
        "lng": 97.8286368
      },
      "province": {
        "id": 34,
        "name": "Sumatera Utara",
        "lat": 2.0108563,
        "lng": 98.9784887
      },
      "country": {
        "id": 228,
        "name": "INDONESIA",
        "code": "ID"
      },
      "id": 76089,
      "name": "Fondrakoraya",
      "postcode": "22866",
      "lat": 0.826656,
      "lng": 97.6927987
    },
    {
      "suburb": {
        "id": 6608,
        "name": "Amandraya",
        "lat": 0.680622,
        "lng": 97.6873706
      },
      "city": {
        "id": 444,
        "name": "Nias Selatan",
        "lat": 0.7086091,
        "lng": 97.8286368
      },
      "province": {
        "id": 34,
        "name": "Sumatera Utara",
        "lat": 2.0108563,
        "lng": 98.9784887
      },
      "country": {
        "id": 228,
        "name": "INDONESIA",
        "code": "ID"
      },
      "id": 76090,
      "name": "Boholu",
      "postcode": "22866",
      "lat": 0.680622,
      "lng": 97.6873706
    },
    {
      "suburb": {
        "id": 6610,
        "name": "Aramo",
        "lat": 0.7369787,
        "lng": 97.7525352
      },
      "city": {
        "id": 444,
        "name": "Nias Selatan",
        "lat": 0.7086091,
        "lng": 97.8286368
      },
      "province": {
        "id": 34,
        "name": "Sumatera Utara",
        "lat": 2.0108563,
        "lng": 98.9784887
      },
      "country": {
        "id": 228,
        "name": "INDONESIA",
        "code": "ID"
      },
      "id": 76091,
      "name": "Bagoa",
      "postcode": "22866",
      "lat": 0.7369787,
      "lng": 97.7525352
    },
    {
      "suburb": {
        "id": 6610,
        "name": "Aramo",
        "lat": 0.7369787,
        "lng": 97.7525352
      },
      "city": {
        "id": 444,
        "name": "Nias Selatan",
        "lat": 0.7086091,
        "lng": 97.8286368
      },
      "province": {
        "id": 34,
        "name": "Sumatera Utara",
        "lat": 2.0108563,
        "lng": 98.9784887
      },
      "country": {
        "id": 228,
        "name": "INDONESIA",
        "code": "ID"
      },
      "id": 76092,
      "name": "Baohao",
      "postcode": "22866",
      "lat": 0.7369787,
      "lng": 97.7525352
    },
    {
      "suburb": {
        "id": 6610,
        "name": "Aramo",
        "lat": 0.7369787,
        "lng": 97.7525352
      },
      "city": {
        "id": 444,
        "name": "Nias Selatan",
        "lat": 0.7086091,
        "lng": 97.8286368
      },
      "province": {
        "id": 34,
        "name": "Sumatera Utara",
        "lat": 2.0108563,
        "lng": 98.9784887
      },
      "country": {
        "id": 228,
        "name": "INDONESIA",
        "code": "ID"
      },
      "id": 76093,
      "name": "Aramo",
      "postcode": "22866",
      "lat": 0.7369787,
      "lng": 97.7525352
    },
    {
      "suburb": {
        "id": 6608,
        "name": "Amandraya",
        "lat": 0.680622,
        "lng": 97.6873706
      },
      "city": {
        "id": 444,
        "name": "Nias Selatan",
        "lat": 0.7086091,
        "lng": 97.8286368
      },
      "province": {
        "id": 34,
        "name": "Sumatera Utara",
        "lat": 2.0108563,
        "lng": 98.9784887
      },
      "country": {
        "id": 228,
        "name": "INDONESIA",
        "code": "ID"
      },
      "id": 76094,
      "name": "Amandraya",
      "postcode": "22866",
      "lat": 0.680622,
      "lng": 97.6873706
    },
    {
      "suburb": {
        "id": 6609,
        "name": "Ulususua",
        "lat": 0.817197,
        "lng": 97.7036561
      },
      "city": {
        "id": 444,
        "name": "Nias Selatan",
        "lat": 0.7086091,
        "lng": 97.8286368
      },
      "province": {
        "id": 34,
        "name": "Sumatera Utara",
        "lat": 2.0108563,
        "lng": 98.9784887
      },
      "country": {
        "id": 228,
        "name": "INDONESIA",
        "code": "ID"
      },
      "id": 76095,
      "name": "Amandraya Ulususua",
      "postcode": "22866",
      "lat": 0.817197,
      "lng": 97.7036561
    },
    {
      "suburb": {
        "id": 6611,
        "name": "Maniamolo",
        "lat": 0.6429536,
        "lng": 97.730807
      },
      "city": {
        "id": 444,
        "name": "Nias Selatan",
        "lat": 0.7086091,
        "lng": 97.8286368
      },
      "province": {
        "id": 34,
        "name": "Sumatera Utara",
        "lat": 2.0108563,
        "lng": 98.9784887
      },
      "country": {
        "id": 228,
        "name": "INDONESIA",
        "code": "ID"
      },
      "id": 76096,
      "name": "Sotoo Hilisimaetano",
      "postcode": "22865",
      "lat": 0.6429536,
      "lng": 97.730807
    },
    {
      "suburb": {
        "id": 6612,
        "name": "Fanayama",
        "lat": 0.605328,
        "lng": 97.7742702
      },
      "city": {
        "id": 444,
        "name": "Nias Selatan",
        "lat": 0.7086091,
        "lng": 97.8286368
      },
      "province": {
        "id": 34,
        "name": "Sumatera Utara",
        "lat": 2.0108563,
        "lng": 98.9784887
      },
      "country": {
        "id": 228,
        "name": "INDONESIA",
        "code": "ID"
      },
      "id": 76097,
      "name": "Siwalawa",
      "postcode": "22865",
      "lat": 0.638149,
      "lng": 97.8014482
    },
    {
      "suburb": {
        "id": 6612,
        "name": "Fanayama",
        "lat": 0.605328,
        "lng": 97.7742702
      },
      "city": {
        "id": 444,
        "name": "Nias Selatan",
        "lat": 0.7086091,
        "lng": 97.8286368
      },
      "province": {
        "id": 34,
        "name": "Sumatera Utara",
        "lat": 2.0108563,
        "lng": 98.9784887
      },
      "country": {
        "id": 228,
        "name": "INDONESIA",
        "code": "ID"
      },
      "id": 76098,
      "name": "Sondregeasi",
      "postcode": "22865",
      "lat": 0.605328,
      "lng": 97.7742702
    },
    {
      "suburb": {
        "id": 6611,
        "name": "Maniamolo",
        "lat": 0.6429536,
        "lng": 97.730807
      },
      "city": {
        "id": 444,
        "name": "Nias Selatan",
        "lat": 0.7086091,
        "lng": 97.8286368
      },
      "province": {
        "id": 34,
        "name": "Sumatera Utara",
        "lat": 2.0108563,
        "lng": 98.9784887
      },
      "country": {
        "id": 228,
        "name": "INDONESIA",
        "code": "ID"
      },
      "id": 76099,
      "name": "Samadaya Hilisimaetano",
      "postcode": "22865",
      "lat": 0.6429536,
      "lng": 97.730807
    },
    {
      "suburb": {
        "id": 6612,
        "name": "Fanayama",
        "lat": 0.605328,
        "lng": 97.7742702
      },
      "city": {
        "id": 444,
        "name": "Nias Selatan",
        "lat": 0.7086091,
        "lng": 97.8286368
      },
      "province": {
        "id": 34,
        "name": "Sumatera Utara",
        "lat": 2.0108563,
        "lng": 98.9784887
      },
      "country": {
        "id": 228,
        "name": "INDONESIA",
        "code": "ID"
      },
      "id": 76100,
      "name": "Siliwulawa",
      "postcode": "22865",
      "lat": 0.605328,
      "lng": 97.7742702
    },
    {
      "suburb": {
        "id": 6613,
        "name": "Teluk Dalam",
        "lat": 0.6052335,
        "lng": 97.8395151
      },
      "city": {
        "id": 444,
        "name": "Nias Selatan",
        "lat": 0.7086091,
        "lng": 97.8286368
      },
      "province": {
        "id": 34,
        "name": "Sumatera Utara",
        "lat": 2.0108563,
        "lng": 98.9784887
      },
      "country": {
        "id": 228,
        "name": "INDONESIA",
        "code": "ID"
      },
      "id": 76101,
      "name": "Pasar Teluk Dalam",
      "postcode": "22865",
      "lat": 0.5654053,
      "lng": 97.8150412
    },
    {
      "suburb": {
        "id": 6611,
        "name": "Maniamolo",
        "lat": 0.6429536,
        "lng": 97.730807
      },
      "city": {
        "id": 444,
        "name": "Nias Selatan",
        "lat": 0.7086091,
        "lng": 97.8286368
      },
      "province": {
        "id": 34,
        "name": "Sumatera Utara",
        "lat": 2.0108563,
        "lng": 98.9784887
      },
      "country": {
        "id": 228,
        "name": "INDONESIA",
        "code": "ID"
      },
      "id": 76102,
      "name": "Pekan Hilisimaetano",
      "postcode": "22865",
      "lat": 0.6429536,
      "lng": 97.730807
    },
    {
      "suburb": {
        "id": 6612,
        "name": "Fanayama",
        "lat": 0.605328,
        "lng": 97.7742702
      },
      "city": {
        "id": 444,
        "name": "Nias Selatan",
        "lat": 0.7086091,
        "lng": 97.8286368
      },
      "province": {
        "id": 34,
        "name": "Sumatera Utara",
        "lat": 2.0108563,
        "lng": 98.9784887
      },
      "country": {
        "id": 228,
        "name": "INDONESIA",
        "code": "ID"
      },
      "id": 76103,
      "name": "Orahili Fau",
      "postcode": "22865",
      "lat": 0.6194326,
      "lng": 97.7579683
    },
    {
      "suburb": {
        "id": 6612,
        "name": "Fanayama",
        "lat": 0.605328,
        "lng": 97.7742702
      },
      "city": {
        "id": 444,
        "name": "Nias Selatan",
        "lat": 0.7086091,
        "lng": 97.8286368
      },
      "province": {
        "id": 34,
        "name": "Sumatera Utara",
        "lat": 2.0108563,
        "lng": 98.9784887
      },
      "country": {
        "id": 228,
        "name": "INDONESIA",
        "code": "ID"
      },
      "id": 76104,
      "name": "Ono Hondro",
      "postcode": "22865",
      "lat": 0.6569555,
      "lng": 97.7905758
    },
    {
      "suburb": {
        "id": 6612,
        "name": "Fanayama",
        "lat": 0.605328,
        "lng": 97.7742702
      },
      "city": {
        "id": 444,
        "name": "Nias Selatan",
        "lat": 0.7086091,
        "lng": 97.8286368
      },
      "province": {
        "id": 34,
        "name": "Sumatera Utara",
        "lat": 2.0108563,
        "lng": 98.9784887
      },
      "country": {
        "id": 228,
        "name": "INDONESIA",
        "code": "ID"
      },
      "id": 76105,
      "name": "Orahili Faomasi",
      "postcode": "22865",
      "lat": 0.605328,
      "lng": 97.7742702
    },
    {
      "suburb": {
        "id": 6611,
        "name": "Maniamolo",
        "lat": 0.6429536,
        "lng": 97.730807
      },
      "city": {
        "id": 444,
        "name": "Nias Selatan",
        "lat": 0.7086091,
        "lng": 97.8286368
      },
      "province": {
        "id": 34,
        "name": "Sumatera Utara",
        "lat": 2.0108563,
        "lng": 98.9784887
      },
      "country": {
        "id": 228,
        "name": "INDONESIA",
        "code": "ID"
      },
      "id": 76106,
      "name": "Ndraso Hilisimaetano",
      "postcode": "22865",
      "lat": 0.6429536,
      "lng": 97.730807
    },
    {
      "suburb": {
        "id": 6613,
        "name": "Teluk Dalam",
        "lat": 0.6052335,
        "lng": 97.8395151
      },
      "city": {
        "id": 444,
        "name": "Nias Selatan",
        "lat": 0.7086091,
        "lng": 97.8286368
      },
      "province": {
        "id": 34,
        "name": "Sumatera Utara",
        "lat": 2.0108563,
        "lng": 98.9784887
      },
      "country": {
        "id": 228,
        "name": "INDONESIA",
        "code": "ID"
      },
      "id": 76107,
      "name": "Nanowa",
      "postcode": "22865",
      "lat": 0.6052335,
      "lng": 97.8395151
    },
    {
      "suburb": {
        "id": 6614,
        "name": "Mazino",
        "lat": 0.6991834,
        "lng": 97.8395151
      },
      "city": {
        "id": 444,
        "name": "Nias Selatan",
        "lat": 0.7086091,
        "lng": 97.8286368
      },
      "province": {
        "id": 34,
        "name": "Sumatera Utara",
        "lat": 2.0108563,
        "lng": 98.9784887
      },
      "country": {
        "id": 228,
        "name": "INDONESIA",
        "code": "ID"
      },
      "id": 76108,
      "name": "Lawindra",
      "postcode": "22865",
      "lat": 0.720348,
      "lng": 97.8422349
    },
    {
      "suburb": {
        "id": 6614,
        "name": "Mazino",
        "lat": 0.6991834,
        "lng": 97.8395151
      },
      "city": {
        "id": 444,
        "name": "Nias Selatan",
        "lat": 0.7086091,
        "lng": 97.8286368
      },
      "province": {
        "id": 34,
        "name": "Sumatera Utara",
        "lat": 2.0108563,
        "lng": 98.9784887
      },
      "country": {
        "id": 228,
        "name": "INDONESIA",
        "code": "ID"
      },
      "id": 76109,
      "name": "Lolomboli",
      "postcode": "22865",
      "lat": 0.6991834,
      "lng": 97.8395151
    },
    {
      "suburb": {
        "id": 6612,
        "name": "Fanayama",
        "lat": 0.605328,
        "lng": 97.7742702
      },
      "city": {
        "id": 444,
        "name": "Nias Selatan",
        "lat": 0.7086091,
        "lng": 97.8286368
      },
      "province": {
        "id": 34,
        "name": "Sumatera Utara",
        "lat": 2.0108563,
        "lng": 98.9784887
      },
      "country": {
        "id": 228,
        "name": "INDONESIA",
        "code": "ID"
      },
      "id": 76110,
      "name": "Lagundri",
      "postcode": "22865",
      "lat": 0.5913059,
      "lng": 97.7362384
    },
    {
      "suburb": {
        "id": 6612,
        "name": "Fanayama",
        "lat": 0.605328,
        "lng": 97.7742702
      },
      "city": {
        "id": 444,
        "name": "Nias Selatan",
        "lat": 0.7086091,
        "lng": 97.8286368
      },
      "province": {
        "id": 34,
        "name": "Sumatera Utara",
        "lat": 2.0108563,
        "lng": 98.9784887
      },
      "country": {
        "id": 228,
        "name": "INDONESIA",
        "code": "ID"
      },
      "id": 76111,
      "name": "Lahusa Fau",
      "postcode": "22865",
      "lat": 0.6499377,
      "lng": 97.7715529
    },
    {
      "suburb": {
        "id": 6612,
        "name": "Fanayama",
        "lat": 0.605328,
        "lng": 97.7742702
      },
      "city": {
        "id": 444,
        "name": "Nias Selatan",
        "lat": 0.7086091,
        "lng": 97.8286368
      },
      "province": {
        "id": 34,
        "name": "Sumatera Utara",
        "lat": 2.0108563,
        "lng": 98.9784887
      },
      "country": {
        "id": 228,
        "name": "INDONESIA",
        "code": "ID"
      },
      "id": 76112,
      "name": "Hinawalo Fau",
      "postcode": "22865",
      "lat": 0.6757192,
      "lng": 97.8123224
    },
    {
      "suburb": {
        "id": 6611,
        "name": "Maniamolo",
        "lat": 0.6429536,
        "lng": 97.730807
      },
      "city": {
        "id": 444,
        "name": "Nias Selatan",
        "lat": 0.7086091,
        "lng": 97.8286368
      },
      "province": {
        "id": 34,
        "name": "Sumatera Utara",
        "lat": 2.0108563,
        "lng": 98.9784887
      },
      "country": {
        "id": 228,
        "name": "INDONESIA",
        "code": "ID"
      },
      "id": 76113,
      "name": "Idala Jaya",
      "postcode": "22865",
      "lat": 0.6429536,
      "lng": 97.730807
    },
    {
      "suburb": {
        "id": 6612,
        "name": "Fanayama",
        "lat": 0.605328,
        "lng": 97.7742702
      },
      "city": {
        "id": 444,
        "name": "Nias Selatan",
        "lat": 0.7086091,
        "lng": 97.8286368
      },
      "province": {
        "id": 34,
        "name": "Sumatera Utara",
        "lat": 2.0108563,
        "lng": 98.9784887
      },
      "country": {
        "id": 228,
        "name": "INDONESIA",
        "code": "ID"
      },
      "id": 76114,
      "name": "Hilizihono",
      "postcode": "22865",
      "lat": 0.5748187,
      "lng": 97.7878579
    },
    {
      "suburb": {
        "id": 6614,
        "name": "Mazino",
        "lat": 0.6991834,
        "lng": 97.8395151
      },
      "city": {
        "id": 444,
        "name": "Nias Selatan",
        "lat": 0.7086091,
        "lng": 97.8286368
      },
      "province": {
        "id": 34,
        "name": "Sumatera Utara",
        "lat": 2.0108563,
        "lng": 98.9784887
      },
      "country": {
        "id": 228,
        "name": "INDONESIA",
        "code": "ID"
      },
      "id": 76115,
      "name": "Hilizoroilawa",
      "postcode": "22865",
      "lat": 0.7227527,
      "lng": 97.8123224
    },
    {
      "suburb": {
        "id": 6614,
        "name": "Mazino",
        "lat": 0.6991834,
        "lng": 97.8395151
      },
      "city": {
        "id": 444,
        "name": "Nias Selatan",
        "lat": 0.7086091,
        "lng": 97.8286368
      },
      "province": {
        "id": 34,
        "name": "Sumatera Utara",
        "lat": 2.0108563,
        "lng": 98.9784887
      },
      "country": {
        "id": 228,
        "name": "INDONESIA",
        "code": "ID"
      },
      "id": 76116,
      "name": "Hilizalootano Larono",
      "postcode": "22865",
      "lat": 0.6991834,
      "lng": 97.8395151
    },
    {
      "suburb": {
        "id": 6614,
        "name": "Mazino",
        "lat": 0.6991834,
        "lng": 97.8395151
      },
      "city": {
        "id": 444,
        "name": "Nias Selatan",
        "lat": 0.7086091,
        "lng": 97.8286368
      },
      "province": {
        "id": 34,
        "name": "Sumatera Utara",
        "lat": 2.0108563,
        "lng": 98.9784887
      },
      "country": {
        "id": 228,
        "name": "INDONESIA",
        "code": "ID"
      },
      "id": 76117,
      "name": "Hilizalootano",
      "postcode": "22865",
      "lat": 0.7015213,
      "lng": 97.8476749
    },
    {
      "suburb": {
        "id": 6614,
        "name": "Mazino",
        "lat": 0.6991834,
        "lng": 97.8395151
      },
      "city": {
        "id": 444,
        "name": "Nias Selatan",
        "lat": 0.7086091,
        "lng": 97.8286368
      },
      "province": {
        "id": 34,
        "name": "Sumatera Utara",
        "lat": 2.0108563,
        "lng": 98.9784887
      },
      "country": {
        "id": 228,
        "name": "INDONESIA",
        "code": "ID"
      },
      "id": 76118,
      "name": "Hilizalootano Laowo",
      "postcode": "22865",
      "lat": 0.6991834,
      "lng": 97.8395151
    },
    {
      "suburb": {
        "id": 6615,
        "name": "Toma",
        "lat": 0.6662146,
        "lng": 97.8776023
      },
      "city": {
        "id": 444,
        "name": "Nias Selatan",
        "lat": 0.7086091,
        "lng": 97.8286368
      },
      "province": {
        "id": 34,
        "name": "Sumatera Utara",
        "lat": 2.0108563,
        "lng": 98.9784887
      },
      "country": {
        "id": 228,
        "name": "INDONESIA",
        "code": "ID"
      },
      "id": 76119,
      "name": "Hilisoromi",
      "postcode": "22865",
      "lat": 0.6662146,
      "lng": 97.8776023
    },
    {
      "suburb": {
        "id": 6613,
        "name": "Teluk Dalam",
        "lat": 0.6052335,
        "lng": 97.8395151
      },
      "city": {
        "id": 444,
        "name": "Nias Selatan",
        "lat": 0.7086091,
        "lng": 97.8286368
      },
      "province": {
        "id": 34,
        "name": "Sumatera Utara",
        "lat": 2.0108563,
        "lng": 98.9784887
      },
      "country": {
        "id": 228,
        "name": "INDONESIA",
        "code": "ID"
      },
      "id": 76120,
      "name": "Hilisondrekha",
      "postcode": "22865",
      "lat": 0.6052335,
      "lng": 97.8395151
    },
    {
      "suburb": {
        "id": 6613,
        "name": "Teluk Dalam",
        "lat": 0.6052335,
        "lng": 97.8395151
      },
      "city": {
        "id": 444,
        "name": "Nias Selatan",
        "lat": 0.7086091,
        "lng": 97.8286368
      },
      "province": {
        "id": 34,
        "name": "Sumatera Utara",
        "lat": 2.0108563,
        "lng": 98.9784887
      },
      "country": {
        "id": 228,
        "name": "INDONESIA",
        "code": "ID"
      },
      "id": 76121,
      "name": "Hilitobara",
      "postcode": "22865",
      "lat": 0.5513453,
      "lng": 97.8150412
    },
    {
      "suburb": {
        "id": 6611,
        "name": "Maniamolo",
        "lat": 0.6429536,
        "lng": 97.730807
      },
      "city": {
        "id": 444,
        "name": "Nias Selatan",
        "lat": 0.7086091,
        "lng": 97.8286368
      },
      "province": {
        "id": 34,
        "name": "Sumatera Utara",
        "lat": 2.0108563,
        "lng": 98.9784887
      },
      "country": {
        "id": 228,
        "name": "INDONESIA",
        "code": "ID"
      },
      "id": 76122,
      "name": "Hilisimaetano",
      "postcode": "22865",
      "lat": 0.6429536,
      "lng": 97.730807
    },
    {
      "suburb": {
        "id": 6615,
        "name": "Toma",
        "lat": 0.6662146,
        "lng": 97.8776023
      },
      "city": {
        "id": 444,
        "name": "Nias Selatan",
        "lat": 0.7086091,
        "lng": 97.8286368
      },
      "province": {
        "id": 34,
        "name": "Sumatera Utara",
        "lat": 2.0108563,
        "lng": 98.9784887
      },
      "country": {
        "id": 228,
        "name": "INDONESIA",
        "code": "ID"
      },
      "id": 76123,
      "name": "Hilisataro Raya",
      "postcode": "22865",
      "lat": 0.6356804,
      "lng": 97.8803236
    },
    {
      "suburb": {
        "id": 6615,
        "name": "Toma",
        "lat": 0.6662146,
        "lng": 97.8776023
      },
      "city": {
        "id": 444,
        "name": "Nias Selatan",
        "lat": 0.7086091,
        "lng": 97.8286368
      },
      "province": {
        "id": 34,
        "name": "Sumatera Utara",
        "lat": 2.0108563,
        "lng": 98.9784887
      },
      "country": {
        "id": 228,
        "name": "INDONESIA",
        "code": "ID"
      },
      "id": 76124,
      "name": "Hilisataro Gewa",
      "postcode": "22865",
      "lat": 0.6662146,
      "lng": 97.8776023
    },
    {
      "suburb": {
        "id": 6615,
        "name": "Toma",
        "lat": 0.6662146,
        "lng": 97.8776023
      },
      "city": {
        "id": 444,
        "name": "Nias Selatan",
        "lat": 0.7086091,
        "lng": 97.8286368
      },
      "province": {
        "id": 34,
        "name": "Sumatera Utara",
        "lat": 2.0108563,
        "lng": 98.9784887
      },
      "country": {
        "id": 228,
        "name": "INDONESIA",
        "code": "ID"
      },
      "id": 76125,
      "name": "Hilisataro Nandisa",
      "postcode": "22865",
      "lat": 0.6662146,
      "lng": 97.8776023
    },
    {
      "suburb": {
        "id": 6615,
        "name": "Toma",
        "lat": 0.6662146,
        "lng": 97.8776023
      },
      "city": {
        "id": 444,
        "name": "Nias Selatan",
        "lat": 0.7086091,
        "lng": 97.8286368
      },
      "province": {
        "id": 34,
        "name": "Sumatera Utara",
        "lat": 2.0108563,
        "lng": 98.9784887
      },
      "country": {
        "id": 228,
        "name": "INDONESIA",
        "code": "ID"
      },
      "id": 76126,
      "name": "Hilisataro Eho Sofayo",
      "postcode": "22865",
      "lat": 0.6662146,
      "lng": 97.8776023
    },
    {
      "suburb": {
        "id": 6615,
        "name": "Toma",
        "lat": 0.6662146,
        "lng": 97.8776023
      },
      "city": {
        "id": 444,
        "name": "Nias Selatan",
        "lat": 0.7086091,
        "lng": 97.8286368
      },
      "province": {
        "id": 34,
        "name": "Sumatera Utara",
        "lat": 2.0108563,
        "lng": 98.9784887
      },
      "country": {
        "id": 228,
        "name": "INDONESIA",
        "code": "ID"
      },
      "id": 76127,
      "name": "Hilisataro",
      "postcode": "22865",
      "lat": 0.6356804,
      "lng": 97.8803236
    },
    {
      "suburb": {
        "id": 6613,
        "name": "Teluk Dalam",
        "lat": 0.6052335,
        "lng": 97.8395151
      },
      "city": {
        "id": 444,
        "name": "Nias Selatan",
        "lat": 0.7086091,
        "lng": 97.8286368
      },
      "province": {
        "id": 34,
        "name": "Sumatera Utara",
        "lat": 2.0108563,
        "lng": 98.9784887
      },
      "country": {
        "id": 228,
        "name": "INDONESIA",
        "code": "ID"
      },
      "id": 76128,
      "name": "Hilisaootoniha",
      "postcode": "22865",
      "lat": 0.6005654,
      "lng": 97.8231982
    },
    {
      "suburb": {
        "id": 6613,
        "name": "Teluk Dalam",
        "lat": 0.6052335,
        "lng": 97.8395151
      },
      "city": {
        "id": 444,
        "name": "Nias Selatan",
        "lat": 0.7086091,
        "lng": 97.8286368
      },
      "province": {
        "id": 34,
        "name": "Sumatera Utara",
        "lat": 2.0108563,
        "lng": 98.9784887
      },
      "country": {
        "id": 228,
        "name": "INDONESIA",
        "code": "ID"
      },
      "id": 76129,
      "name": "Hilisanekhehosi",
      "postcode": "22865",
      "lat": 0.6052335,
      "lng": 97.8395151
    },
    {
      "suburb": {
        "id": 6613,
        "name": "Teluk Dalam",
        "lat": 0.6052335,
        "lng": 97.8395151
      },
      "city": {
        "id": 444,
        "name": "Nias Selatan",
        "lat": 0.7086091,
        "lng": 97.8286368
      },
      "province": {
        "id": 34,
        "name": "Sumatera Utara",
        "lat": 2.0108563,
        "lng": 98.9784887
      },
      "country": {
        "id": 228,
        "name": "INDONESIA",
        "code": "ID"
      },
      "id": 76130,
      "name": "Hilionaha",
      "postcode": "22865",
      "lat": 0.6052335,
      "lng": 97.8395151
    },
    {
      "suburb": {
        "id": 6612,
        "name": "Fanayama",
        "lat": 0.605328,
        "lng": 97.7742702
      },
      "city": {
        "id": 444,
        "name": "Nias Selatan",
        "lat": 0.7086091,
        "lng": 97.8286368
      },
      "province": {
        "id": 34,
        "name": "Sumatera Utara",
        "lat": 2.0108563,
        "lng": 98.9784887
      },
      "country": {
        "id": 228,
        "name": "INDONESIA",
        "code": "ID"
      },
      "id": 76131,
      "name": "Hiliofonaluo",
      "postcode": "22865",
      "lat": 0.605328,
      "lng": 97.7742702
    },
    {
      "suburb": {
        "id": 6612,
        "name": "Fanayama",
        "lat": 0.605328,
        "lng": 97.7742702
      },
      "city": {
        "id": 444,
        "name": "Nias Selatan",
        "lat": 0.7086091,
        "lng": 97.8286368
      },
      "province": {
        "id": 34,
        "name": "Sumatera Utara",
        "lat": 2.0108563,
        "lng": 98.9784887
      },
      "country": {
        "id": 228,
        "name": "INDONESIA",
        "code": "ID"
      },
      "id": 76132,
      "name": "Hilisalawa",
      "postcode": "22865",
      "lat": 0.605328,
      "lng": 97.7742702
    },
    {
      "suburb": {
        "id": 6615,
        "name": "Toma",
        "lat": 0.6662146,
        "lng": 97.8776023
      },
      "city": {
        "id": 444,
        "name": "Nias Selatan",
        "lat": 0.7086091,
        "lng": 97.8286368
      },
      "province": {
        "id": 34,
        "name": "Sumatera Utara",
        "lat": 2.0108563,
        "lng": 98.9784887
      },
      "country": {
        "id": 228,
        "name": "INDONESIA",
        "code": "ID"
      },
      "id": 76133,
      "name": "Hilindraso Raya",
      "postcode": "22865",
      "lat": 0.6662146,
      "lng": 97.8776023
    },
    {
      "suburb": {
        "id": 6615,
        "name": "Toma",
        "lat": 0.6662146,
        "lng": 97.8776023
      },
      "city": {
        "id": 444,
        "name": "Nias Selatan",
        "lat": 0.7086091,
        "lng": 97.8286368
      },
      "province": {
        "id": 34,
        "name": "Sumatera Utara",
        "lat": 2.0108563,
        "lng": 98.9784887
      },
      "country": {
        "id": 228,
        "name": "INDONESIA",
        "code": "ID"
      },
      "id": 76134,
      "name": "Hilindrasoniha",
      "postcode": "22865",
      "lat": 0.7132296,
      "lng": 97.8776023
    },
    {
      "suburb": {
        "id": 6613,
        "name": "Teluk Dalam",
        "lat": 0.6052335,
        "lng": 97.8395151
      },
      "city": {
        "id": 444,
        "name": "Nias Selatan",
        "lat": 0.7086091,
        "lng": 97.8286368
      },
      "province": {
        "id": 34,
        "name": "Sumatera Utara",
        "lat": 2.0108563,
        "lng": 98.9784887
      },
      "country": {
        "id": 228,
        "name": "INDONESIA",
        "code": "ID"
      },
      "id": 76135,
      "name": "Hilinamozaua",
      "postcode": "22865",
      "lat": 0.647492,
      "lng": 97.8340757
    },
    {
      "suburb": {
        "id": 6613,
        "name": "Teluk Dalam",
        "lat": 0.6052335,
        "lng": 97.8395151
      },
      "city": {
        "id": 444,
        "name": "Nias Selatan",
        "lat": 0.7086091,
        "lng": 97.8286368
      },
      "province": {
        "id": 34,
        "name": "Sumatera Utara",
        "lat": 2.0108563,
        "lng": 98.9784887
      },
      "country": {
        "id": 228,
        "name": "INDONESIA",
        "code": "ID"
      },
      "id": 76136,
      "name": "Hilinamozaua Raya",
      "postcode": "22865",
      "lat": 0.647492,
      "lng": 97.8340757
    },
    {
      "suburb": {
        "id": 6614,
        "name": "Mazino",
        "lat": 0.6991834,
        "lng": 97.8395151
      },
      "city": {
        "id": 444,
        "name": "Nias Selatan",
        "lat": 0.7086091,
        "lng": 97.8286368
      },
      "province": {
        "id": 34,
        "name": "Sumatera Utara",
        "lat": 2.0108563,
        "lng": 98.9784887
      },
      "country": {
        "id": 228,
        "name": "INDONESIA",
        "code": "ID"
      },
      "id": 76137,
      "name": "Hilinawalo Mazino / Mazingo",
      "postcode": "22865",
      "lat": 0.703951,
      "lng": 97.8014482
    },
    {
      "suburb": {
        "id": 6613,
        "name": "Teluk Dalam",
        "lat": 0.6052335,
        "lng": 97.8395151
      },
      "city": {
        "id": 444,
        "name": "Nias Selatan",
        "lat": 0.7086091,
        "lng": 97.8286368
      },
      "province": {
        "id": 34,
        "name": "Sumatera Utara",
        "lat": 2.0108563,
        "lng": 98.9784887
      },
      "country": {
        "id": 228,
        "name": "INDONESIA",
        "code": "ID"
      },
      "id": 76138,
      "name": "Hilimondregeraya",
      "postcode": "22865",
      "lat": 0.6216871,
      "lng": 97.8204791
    },
    {
      "suburb": {
        "id": 6615,
        "name": "Toma",
        "lat": 0.6662146,
        "lng": 97.8776023
      },
      "city": {
        "id": 444,
        "name": "Nias Selatan",
        "lat": 0.7086091,
        "lng": 97.8286368
      },
      "province": {
        "id": 34,
        "name": "Sumatera Utara",
        "lat": 2.0108563,
        "lng": 98.9784887
      },
      "country": {
        "id": 228,
        "name": "INDONESIA",
        "code": "ID"
      },
      "id": 76139,
      "name": "Hilimagari",
      "postcode": "22865",
      "lat": 0.6662146,
      "lng": 97.8776023
    },
    {
      "suburb": {
        "id": 6615,
        "name": "Toma",
        "lat": 0.6662146,
        "lng": 97.8776023
      },
      "city": {
        "id": 444,
        "name": "Nias Selatan",
        "lat": 0.7086091,
        "lng": 97.8286368
      },
      "province": {
        "id": 34,
        "name": "Sumatera Utara",
        "lat": 2.0108563,
        "lng": 98.9784887
      },
      "country": {
        "id": 228,
        "name": "INDONESIA",
        "code": "ID"
      },
      "id": 76140,
      "name": "Hilinamoniha",
      "postcode": "22865",
      "lat": 0.6474241,
      "lng": 97.8776023
    },
    {
      "suburb": {
        "id": 6611,
        "name": "Maniamolo",
        "lat": 0.6429536,
        "lng": 97.730807
      },
      "city": {
        "id": 444,
        "name": "Nias Selatan",
        "lat": 0.7086091,
        "lng": 97.8286368
      },
      "province": {
        "id": 34,
        "name": "Sumatera Utara",
        "lat": 2.0108563,
        "lng": 98.9784887
      },
      "country": {
        "id": 228,
        "name": "INDONESIA",
        "code": "ID"
      },
      "id": 76141,
      "name": "Hilimae Namolo",
      "postcode": "22865",
      "lat": 0.6124427,
      "lng": 97.7226606
    },
    {
      "suburb": {
        "id": 6614,
        "name": "Mazino",
        "lat": 0.6991834,
        "lng": 97.8395151
      },
      "city": {
        "id": 444,
        "name": "Nias Selatan",
        "lat": 0.7086091,
        "lng": 97.8286368
      },
      "province": {
        "id": 34,
        "name": "Sumatera Utara",
        "lat": 2.0108563,
        "lng": 98.9784887
      },
      "country": {
        "id": 228,
        "name": "INDONESIA",
        "code": "ID"
      },
      "id": 76142,
      "name": "Hililaza Hilinawalo Mazino",
      "postcode": "22865",
      "lat": 0.703951,
      "lng": 97.8014482
    },
    {
      "suburb": {
        "id": 6613,
        "name": "Teluk Dalam",
        "lat": 0.6052335,
        "lng": 97.8395151
      },
      "city": {
        "id": 444,
        "name": "Nias Selatan",
        "lat": 0.7086091,
        "lng": 97.8286368
      },
      "province": {
        "id": 34,
        "name": "Sumatera Utara",
        "lat": 2.0108563,
        "lng": 98.9784887
      },
      "country": {
        "id": 228,
        "name": "INDONESIA",
        "code": "ID"
      },
      "id": 76143,
      "name": "Hilikara",
      "postcode": "22865",
      "lat": 0.6052335,
      "lng": 97.8395151
    },
    {
      "suburb": {
        "id": 6613,
        "name": "Teluk Dalam",
        "lat": 0.6052335,
        "lng": 97.8395151
      },
      "city": {
        "id": 444,
        "name": "Nias Selatan",
        "lat": 0.7086091,
        "lng": 97.8286368
      },
      "province": {
        "id": 34,
        "name": "Sumatera Utara",
        "lat": 2.0108563,
        "lng": 98.9784887
      },
      "country": {
        "id": 228,
        "name": "INDONESIA",
        "code": "ID"
      },
      "id": 76144,
      "name": "Hililaza",
      "postcode": "22865",
      "lat": 0.6052335,
      "lng": 97.8395151
    },
    {
      "suburb": {
        "id": 6612,
        "name": "Fanayama",
        "lat": 0.605328,
        "lng": 97.7742702
      },
      "city": {
        "id": 444,
        "name": "Nias Selatan",
        "lat": 0.7086091,
        "lng": 97.8286368
      },
      "province": {
        "id": 34,
        "name": "Sumatera Utara",
        "lat": 2.0108563,
        "lng": 98.9784887
      },
      "country": {
        "id": 228,
        "name": "INDONESIA",
        "code": "ID"
      },
      "id": 76145,
      "name": "Hilikara Maha",
      "postcode": "22865",
      "lat": 0.605328,
      "lng": 97.7742702
    },
    {
      "suburb": {
        "id": 6612,
        "name": "Fanayama",
        "lat": 0.605328,
        "lng": 97.7742702
      },
      "city": {
        "id": 444,
        "name": "Nias Selatan",
        "lat": 0.7086091,
        "lng": 97.8286368
      },
      "province": {
        "id": 34,
        "name": "Sumatera Utara",
        "lat": 2.0108563,
        "lng": 98.9784887
      },
      "country": {
        "id": 228,
        "name": "INDONESIA",
        "code": "ID"
      },
      "id": 76146,
      "name": "Hiligito",
      "postcode": "22865",
      "lat": 0.605328,
      "lng": 97.7742702
    },
    {
      "suburb": {
        "id": 6613,
        "name": "Teluk Dalam",
        "lat": 0.6052335,
        "lng": 97.8395151
      },
      "city": {
        "id": 444,
        "name": "Nias Selatan",
        "lat": 0.7086091,
        "lng": 97.8286368
      },
      "province": {
        "id": 34,
        "name": "Sumatera Utara",
        "lat": 2.0108563,
        "lng": 98.9784887
      },
      "country": {
        "id": 228,
        "name": "INDONESIA",
        "code": "ID"
      },
      "id": 76147,
      "name": "Hiliganowo Saloo",
      "postcode": "22865",
      "lat": 0.6052335,
      "lng": 97.8395151
    },
    {
      "suburb": {
        "id": 6613,
        "name": "Teluk Dalam",
        "lat": 0.6052335,
        "lng": 97.8395151
      },
      "city": {
        "id": 444,
        "name": "Nias Selatan",
        "lat": 0.7086091,
        "lng": 97.8286368
      },
      "province": {
        "id": 34,
        "name": "Sumatera Utara",
        "lat": 2.0108563,
        "lng": 98.9784887
      },
      "country": {
        "id": 228,
        "name": "INDONESIA",
        "code": "ID"
      },
      "id": 76148,
      "name": "Hiligeho",
      "postcode": "22865",
      "lat": 0.5794853,
      "lng": 97.8041666
    },
    {
      "suburb": {
        "id": 6613,
        "name": "Teluk Dalam",
        "lat": 0.6052335,
        "lng": 97.8395151
      },
      "city": {
        "id": 444,
        "name": "Nias Selatan",
        "lat": 0.7086091,
        "lng": 97.8286368
      },
      "province": {
        "id": 34,
        "name": "Sumatera Utara",
        "lat": 2.0108563,
        "lng": 98.9784887
      },
      "country": {
        "id": 228,
        "name": "INDONESIA",
        "code": "ID"
      },
      "id": 76149,
      "name": "Hilifarono",
      "postcode": "22865",
      "lat": 0.6052335,
      "lng": 97.8395151
    },
    {
      "suburb": {
        "id": 6613,
        "name": "Teluk Dalam",
        "lat": 0.6052335,
        "lng": 97.8395151
      },
      "city": {
        "id": 444,
        "name": "Nias Selatan",
        "lat": 0.7086091,
        "lng": 97.8286368
      },
      "province": {
        "id": 34,
        "name": "Sumatera Utara",
        "lat": 2.0108563,
        "lng": 98.9784887
      },
      "country": {
        "id": 228,
        "name": "INDONESIA",
        "code": "ID"
      },
      "id": 76150,
      "name": "Hiliganowo",
      "postcode": "22865",
      "lat": 0.6122279,
      "lng": 97.8694391
    },
    {
      "suburb": {
        "id": 6614,
        "name": "Mazino",
        "lat": 0.6991834,
        "lng": 97.8395151
      },
      "city": {
        "id": 444,
        "name": "Nias Selatan",
        "lat": 0.7086091,
        "lng": 97.8286368
      },
      "province": {
        "id": 34,
        "name": "Sumatera Utara",
        "lat": 2.0108563,
        "lng": 98.9784887
      },
      "country": {
        "id": 228,
        "name": "INDONESIA",
        "code": "ID"
      },
      "id": 76151,
      "name": "Hilifondege Hilizoroilawa",
      "postcode": "22865",
      "lat": 0.7227527,
      "lng": 97.8123224
    },
    {
      "suburb": {
        "id": 6611,
        "name": "Maniamolo",
        "lat": 0.6429536,
        "lng": 97.730807
      },
      "city": {
        "id": 444,
        "name": "Nias Selatan",
        "lat": 0.7086091,
        "lng": 97.8286368
      },
      "province": {
        "id": 34,
        "name": "Sumatera Utara",
        "lat": 2.0108563,
        "lng": 98.9784887
      },
      "country": {
        "id": 228,
        "name": "INDONESIA",
        "code": "ID"
      },
      "id": 76152,
      "name": "Hilifalawu",
      "postcode": "22865",
      "lat": 0.6923046,
      "lng": 97.7335226
    },
    {
      "suburb": {
        "id": 6612,
        "name": "Fanayama",
        "lat": 0.605328,
        "lng": 97.7742702
      },
      "city": {
        "id": 444,
        "name": "Nias Selatan",
        "lat": 0.7086091,
        "lng": 97.8286368
      },
      "province": {
        "id": 34,
        "name": "Sumatera Utara",
        "lat": 2.0108563,
        "lng": 98.9784887
      },
      "country": {
        "id": 228,
        "name": "INDONESIA",
        "code": "ID"
      },
      "id": 76153,
      "name": "Hilifarokha",
      "postcode": "22865",
      "lat": 0.605328,
      "lng": 97.7742702
    },
    {
      "suburb": {
        "id": 6613,
        "name": "Teluk Dalam",
        "lat": 0.6052335,
        "lng": 97.8395151
      },
      "city": {
        "id": 444,
        "name": "Nias Selatan",
        "lat": 0.7086091,
        "lng": 97.8286368
      },
      "province": {
        "id": 34,
        "name": "Sumatera Utara",
        "lat": 2.0108563,
        "lng": 98.9784887
      },
      "country": {
        "id": 228,
        "name": "INDONESIA",
        "code": "ID"
      },
      "id": 76154,
      "name": "Hilifalago Raya",
      "postcode": "22865",
      "lat": 0.6662496,
      "lng": 97.8558357
    },
    {
      "suburb": {
        "id": 6613,
        "name": "Teluk Dalam",
        "lat": 0.6052335,
        "lng": 97.8395151
      },
      "city": {
        "id": 444,
        "name": "Nias Selatan",
        "lat": 0.7086091,
        "lng": 97.8286368
      },
      "province": {
        "id": 34,
        "name": "Sumatera Utara",
        "lat": 2.0108563,
        "lng": 98.9784887
      },
      "country": {
        "id": 228,
        "name": "INDONESIA",
        "code": "ID"
      },
      "id": 76155,
      "name": "Hilifalago",
      "postcode": "22865",
      "lat": 0.6662496,
      "lng": 97.8558357
    },
    {
      "suburb": {
        "id": 6611,
        "name": "Maniamolo",
        "lat": 0.6429536,
        "lng": 97.730807
      },
      "city": {
        "id": 444,
        "name": "Nias Selatan",
        "lat": 0.7086091,
        "lng": 97.8286368
      },
      "province": {
        "id": 34,
        "name": "Sumatera Utara",
        "lat": 2.0108563,
        "lng": 98.9784887
      },
      "country": {
        "id": 228,
        "name": "INDONESIA",
        "code": "ID"
      },
      "id": 76156,
      "name": "Hiliaurifa Hilisimaetano",
      "postcode": "22865",
      "lat": 0.6429536,
      "lng": 97.730807
    },
    {
      "suburb": {
        "id": 6613,
        "name": "Teluk Dalam",
        "lat": 0.6052335,
        "lng": 97.8395151
      },
      "city": {
        "id": 444,
        "name": "Nias Selatan",
        "lat": 0.7086091,
        "lng": 97.8286368
      },
      "province": {
        "id": 34,
        "name": "Sumatera Utara",
        "lat": 2.0108563,
        "lng": 98.9784887
      },
      "country": {
        "id": 228,
        "name": "INDONESIA",
        "code": "ID"
      },
      "id": 76157,
      "name": "Hiliamuri",
      "postcode": "22865",
      "lat": 0.6052335,
      "lng": 97.8395151
    },
    {
      "suburb": {
        "id": 6615,
        "name": "Toma",
        "lat": 0.6662146,
        "lng": 97.8776023
      },
      "city": {
        "id": 444,
        "name": "Nias Selatan",
        "lat": 0.7086091,
        "lng": 97.8286368
      },
      "province": {
        "id": 34,
        "name": "Sumatera Utara",
        "lat": 2.0108563,
        "lng": 98.9784887
      },
      "country": {
        "id": 228,
        "name": "INDONESIA",
        "code": "ID"
      },
      "id": 76158,
      "name": "Hiliasi",
      "postcode": "22865",
      "lat": 0.6662146,
      "lng": 97.8776023
    },
    {
      "suburb": {
        "id": 6613,
        "name": "Teluk Dalam",
        "lat": 0.6052335,
        "lng": 97.8395151
      },
      "city": {
        "id": 444,
        "name": "Nias Selatan",
        "lat": 0.7086091,
        "lng": 97.8286368
      },
      "province": {
        "id": 34,
        "name": "Sumatera Utara",
        "lat": 2.0108563,
        "lng": 98.9784887
      },
      "country": {
        "id": 228,
        "name": "INDONESIA",
        "code": "ID"
      },
      "id": 76159,
      "name": "Hilianaa",
      "postcode": "22865",
      "lat": 0.6052335,
      "lng": 97.8395151
    },
    {
      "suburb": {
        "id": 6612,
        "name": "Fanayama",
        "lat": 0.605328,
        "lng": 97.7742702
      },
      "city": {
        "id": 444,
        "name": "Nias Selatan",
        "lat": 0.7086091,
        "lng": 97.8286368
      },
      "province": {
        "id": 34,
        "name": "Sumatera Utara",
        "lat": 2.0108563,
        "lng": 98.9784887
      },
      "country": {
        "id": 228,
        "name": "INDONESIA",
        "code": "ID"
      },
      "id": 76160,
      "name": "Hiliamaetaniha",
      "postcode": "22865",
      "lat": 0.5818942,
      "lng": 97.7579683
    },
    {
      "suburb": {
        "id": 6615,
        "name": "Toma",
        "lat": 0.6662146,
        "lng": 97.8776023
      },
      "city": {
        "id": 444,
        "name": "Nias Selatan",
        "lat": 0.7086091,
        "lng": 97.8286368
      },
      "province": {
        "id": 34,
        "name": "Sumatera Utara",
        "lat": 2.0108563,
        "lng": 98.9784887
      },
      "country": {
        "id": 228,
        "name": "INDONESIA",
        "code": "ID"
      },
      "id": 76161,
      "name": "Hiliamaetaluo",
      "postcode": "22865",
      "lat": 0.6216058,
      "lng": 97.8748811
    },
    {
      "suburb": {
        "id": 6615,
        "name": "Toma",
        "lat": 0.6662146,
        "lng": 97.8776023
      },
      "city": {
        "id": 444,
        "name": "Nias Selatan",
        "lat": 0.7086091,
        "lng": 97.8286368
      },
      "province": {
        "id": 34,
        "name": "Sumatera Utara",
        "lat": 2.0108563,
        "lng": 98.9784887
      },
      "country": {
        "id": 228,
        "name": "INDONESIA",
        "code": "ID"
      },
      "id": 76162,
      "name": "Hilialawa",
      "postcode": "22865",
      "lat": 0.6944169,
      "lng": 97.8776023
    },
    {
      "suburb": {
        "id": 6613,
        "name": "Teluk Dalam",
        "lat": 0.6052335,
        "lng": 97.8395151
      },
      "city": {
        "id": 444,
        "name": "Nias Selatan",
        "lat": 0.7086091,
        "lng": 97.8286368
      },
      "province": {
        "id": 34,
        "name": "Sumatera Utara",
        "lat": 2.0108563,
        "lng": 98.9784887
      },
      "country": {
        "id": 228,
        "name": "INDONESIA",
        "code": "ID"
      },
      "id": 76163,
      "name": "Hilialito Saua",
      "postcode": "22865",
      "lat": 0.6052335,
      "lng": 97.8395151
    },
    {
      "suburb": {
        "id": 6612,
        "name": "Fanayama",
        "lat": 0.605328,
        "lng": 97.7742702
      },
      "city": {
        "id": 444,
        "name": "Nias Selatan",
        "lat": 0.7086091,
        "lng": 97.8286368
      },
      "province": {
        "id": 34,
        "name": "Sumatera Utara",
        "lat": 2.0108563,
        "lng": 98.9784887
      },
      "country": {
        "id": 228,
        "name": "INDONESIA",
        "code": "ID"
      },
      "id": 76164,
      "name": "Ete Batu",
      "postcode": "22865",
      "lat": 0.605328,
      "lng": 97.7742702
    },
    {
      "suburb": {
        "id": 6613,
        "name": "Teluk Dalam",
        "lat": 0.6052335,
        "lng": 97.8395151
      },
      "city": {
        "id": 444,
        "name": "Nias Selatan",
        "lat": 0.7086091,
        "lng": 97.8286368
      },
      "province": {
        "id": 34,
        "name": "Sumatera Utara",
        "lat": 2.0108563,
        "lng": 98.9784887
      },
      "country": {
        "id": 228,
        "name": "INDONESIA",
        "code": "ID"
      },
      "id": 76165,
      "name": "Ganowo Saua",
      "postcode": "22865",
      "lat": 0.6052335,
      "lng": 97.8395151
    },
    {
      "suburb": {
        "id": 6611,
        "name": "Maniamolo",
        "lat": 0.6429536,
        "lng": 97.730807
      },
      "city": {
        "id": 444,
        "name": "Nias Selatan",
        "lat": 0.7086091,
        "lng": 97.8286368
      },
      "province": {
        "id": 34,
        "name": "Sumatera Utara",
        "lat": 2.0108563,
        "lng": 98.9784887
      },
      "country": {
        "id": 228,
        "name": "INDONESIA",
        "code": "ID"
      },
      "id": 76166,
      "name": "Faomasi Hilisimaetano",
      "postcode": "22865",
      "lat": 0.6429536,
      "lng": 97.730807
    },
    {
      "suburb": {
        "id": 6612,
        "name": "Fanayama",
        "lat": 0.605328,
        "lng": 97.7742702
      },
      "city": {
        "id": 444,
        "name": "Nias Selatan",
        "lat": 0.7086091,
        "lng": 97.8286368
      },
      "province": {
        "id": 34,
        "name": "Sumatera Utara",
        "lat": 2.0108563,
        "lng": 98.9784887
      },
      "country": {
        "id": 228,
        "name": "INDONESIA",
        "code": "ID"
      },
      "id": 76167,
      "name": "Botohilitano",
      "postcode": "22865",
      "lat": 0.5754214,
      "lng": 97.7256729
    },
    {
      "suburb": {
        "id": 6612,
        "name": "Fanayama",
        "lat": 0.605328,
        "lng": 97.7742702
      },
      "city": {
        "id": 444,
        "name": "Nias Selatan",
        "lat": 0.7086091,
        "lng": 97.8286368
      },
      "province": {
        "id": 34,
        "name": "Sumatera Utara",
        "lat": 2.0108563,
        "lng": 98.9784887
      },
      "country": {
        "id": 228,
        "name": "INDONESIA",
        "code": "ID"
      },
      "id": 76168,
      "name": "Eho Orahili",
      "postcode": "22865",
      "lat": 0.605328,
      "lng": 97.7742702
    },
    {
      "suburb": {
        "id": 6611,
        "name": "Maniamolo",
        "lat": 0.6429536,
        "lng": 97.730807
      },
      "city": {
        "id": 444,
        "name": "Nias Selatan",
        "lat": 0.7086091,
        "lng": 97.8286368
      },
      "province": {
        "id": 34,
        "name": "Sumatera Utara",
        "lat": 2.0108563,
        "lng": 98.9784887
      },
      "country": {
        "id": 228,
        "name": "INDONESIA",
        "code": "ID"
      },
      "id": 76169,
      "name": "Eho Hilisimaetano",
      "postcode": "22865",
      "lat": 0.6429536,
      "lng": 97.730807
    },
    {
      "suburb": {
        "id": 6612,
        "name": "Fanayama",
        "lat": 0.605328,
        "lng": 97.7742702
      },
      "city": {
        "id": 444,
        "name": "Nias Selatan",
        "lat": 0.7086091,
        "lng": 97.8286368
      },
      "province": {
        "id": 34,
        "name": "Sumatera Utara",
        "lat": 2.0108563,
        "lng": 98.9784887
      },
      "country": {
        "id": 228,
        "name": "INDONESIA",
        "code": "ID"
      },
      "id": 76170,
      "name": "Botohili Sorake",
      "postcode": "22865",
      "lat": 0.605328,
      "lng": 97.7742702
    },
    {
      "suburb": {
        "id": 6612,
        "name": "Fanayama",
        "lat": 0.605328,
        "lng": 97.7742702
      },
      "city": {
        "id": 444,
        "name": "Nias Selatan",
        "lat": 0.7086091,
        "lng": 97.8286368
      },
      "province": {
        "id": 34,
        "name": "Sumatera Utara",
        "lat": 2.0108563,
        "lng": 98.9784887
      },
      "country": {
        "id": 228,
        "name": "INDONESIA",
        "code": "ID"
      },
      "id": 76171,
      "name": "Botohilisaloo",
      "postcode": "22865",
      "lat": 0.605328,
      "lng": 97.7742702
    },
    {
      "suburb": {
        "id": 6612,
        "name": "Fanayama",
        "lat": 0.605328,
        "lng": 97.7742702
      },
      "city": {
        "id": 444,
        "name": "Nias Selatan",
        "lat": 0.7086091,
        "lng": 97.8286368
      },
      "province": {
        "id": 34,
        "name": "Sumatera Utara",
        "lat": 2.0108563,
        "lng": 98.9784887
      },
      "country": {
        "id": 228,
        "name": "INDONESIA",
        "code": "ID"
      },
      "id": 76172,
      "name": "Botohili Silambo",
      "postcode": "22865",
      "lat": 0.605328,
      "lng": 97.7742702
    },
    {
      "suburb": {
        "id": 6611,
        "name": "Maniamolo",
        "lat": 0.6429536,
        "lng": 97.730807
      },
      "city": {
        "id": 444,
        "name": "Nias Selatan",
        "lat": 0.7086091,
        "lng": 97.8286368
      },
      "province": {
        "id": 34,
        "name": "Sumatera Utara",
        "lat": 2.0108563,
        "lng": 98.9784887
      },
      "country": {
        "id": 228,
        "name": "INDONESIA",
        "code": "ID"
      },
      "id": 76173,
      "name": "Bawosaodano",
      "postcode": "22865",
      "lat": 0.6429536,
      "lng": 97.730807
    },
    {
      "suburb": {
        "id": 6611,
        "name": "Maniamolo",
        "lat": 0.6429536,
        "lng": 97.730807
      },
      "city": {
        "id": 444,
        "name": "Nias Selatan",
        "lat": 0.7086091,
        "lng": 97.8286368
      },
      "province": {
        "id": 34,
        "name": "Sumatera Utara",
        "lat": 2.0108563,
        "lng": 98.9784887
      },
      "country": {
        "id": 228,
        "name": "INDONESIA",
        "code": "ID"
      },
      "id": 76174,
      "name": "Bonia Hilisimaetano",
      "postcode": "22865",
      "lat": 0.6429536,
      "lng": 97.730807
    },
    {
      "suburb": {
        "id": 6612,
        "name": "Fanayama",
        "lat": 0.605328,
        "lng": 97.7742702
      },
      "city": {
        "id": 444,
        "name": "Nias Selatan",
        "lat": 0.7086091,
        "lng": 97.8286368
      },
      "province": {
        "id": 34,
        "name": "Sumatera Utara",
        "lat": 2.0108563,
        "lng": 98.9784887
      },
      "country": {
        "id": 228,
        "name": "INDONESIA",
        "code": "ID"
      },
      "id": 76175,
      "name": "Bawomataluo",
      "postcode": "22865",
      "lat": 0.6193844,
      "lng": 97.7905758
    },
    {
      "suburb": {
        "id": 6612,
        "name": "Fanayama",
        "lat": 0.605328,
        "lng": 97.7742702
      },
      "city": {
        "id": 444,
        "name": "Nias Selatan",
        "lat": 0.7086091,
        "lng": 97.8286368
      },
      "province": {
        "id": 34,
        "name": "Sumatera Utara",
        "lat": 2.0108563,
        "lng": 98.9784887
      },
      "country": {
        "id": 228,
        "name": "INDONESIA",
        "code": "ID"
      },
      "id": 76176,
      "name": "Bawonahono",
      "postcode": "22865",
      "lat": 0.5889109,
      "lng": 97.7715529
    },
    {
      "suburb": {
        "id": 6611,
        "name": "Maniamolo",
        "lat": 0.6429536,
        "lng": 97.730807
      },
      "city": {
        "id": 444,
        "name": "Nias Selatan",
        "lat": 0.7086091,
        "lng": 97.8286368
      },
      "province": {
        "id": 34,
        "name": "Sumatera Utara",
        "lat": 2.0108563,
        "lng": 98.9784887
      },
      "country": {
        "id": 228,
        "name": "INDONESIA",
        "code": "ID"
      },
      "id": 76177,
      "name": "Bawomaenamolo",
      "postcode": "22865",
      "lat": 0.6429536,
      "lng": 97.730807
    },
    {
      "suburb": {
        "id": 6614,
        "name": "Mazino",
        "lat": 0.6991834,
        "lng": 97.8395151
      },
      "city": {
        "id": 444,
        "name": "Nias Selatan",
        "lat": 0.7086091,
        "lng": 97.8286368
      },
      "province": {
        "id": 34,
        "name": "Sumatera Utara",
        "lat": 2.0108563,
        "lng": 98.9784887
      },
      "country": {
        "id": 228,
        "name": "INDONESIA",
        "code": "ID"
      },