{
  "metadata": {
    "path": "/v3/location/areas?limit=1000&page=78",
    "http_status_code": 200,
    "http_status": "OK",
    "timestamp": 1647340885
  },
  "data": [
    {
      "suburb": {
        "id": 6661,
        "name": "Dolok Sigompulon",
        "lat": 1.9793075,
        "lng": 99.6564092
      },
      "city": {
        "id": 451,
        "name": "Padang Lawas Utara",
        "lat": 1.5758644,
        "lng": 99.634135
      },
      "province": {
        "id": 34,
        "name": "Sumatera Utara",
        "lat": 2.0108563,
        "lng": 98.9784887
      },
      "country": {
        "id": 228,
        "name": "INDONESIA",
        "code": "ID"
      },
      "id": 77018,
      "name": "Gadung Holbung",
      "postcode": "22756",
      "lat": 1.9577709,
      "lng": 99.6257837
    },
    {
      "suburb": {
        "id": 6661,
        "name": "Dolok Sigompulon",
        "lat": 1.9793075,
        "lng": 99.6564092
      },
      "city": {
        "id": 451,
        "name": "Padang Lawas Utara",
        "lat": 1.5758644,
        "lng": 99.634135
      },
      "province": {
        "id": 34,
        "name": "Sumatera Utara",
        "lat": 2.0108563,
        "lng": 98.9784887
      },
      "country": {
        "id": 228,
        "name": "INDONESIA",
        "code": "ID"
      },
      "id": 77019,
      "name": "Gonting Bange",
      "postcode": "22756",
      "lat": 2.0039414,
      "lng": 99.5729115
    },
    {
      "suburb": {
        "id": 6662,
        "name": "Dolok",
        "lat": 1.8251299,
        "lng": 99.6564092
      },
      "city": {
        "id": 451,
        "name": "Padang Lawas Utara",
        "lat": 1.5758644,
        "lng": 99.634135
      },
      "province": {
        "id": 34,
        "name": "Sumatera Utara",
        "lat": 2.0108563,
        "lng": 98.9784887
      },
      "country": {
        "id": 228,
        "name": "INDONESIA",
        "code": "ID"
      },
      "id": 77020,
      "name": "Dolok Sanggul",
      "postcode": "22756",
      "lat": 1.8817484,
      "lng": 99.6438793
    },
    {
      "suburb": {
        "id": 6662,
        "name": "Dolok",
        "lat": 1.8251299,
        "lng": 99.6564092
      },
      "city": {
        "id": 451,
        "name": "Padang Lawas Utara",
        "lat": 1.5758644,
        "lng": 99.634135
      },
      "province": {
        "id": 34,
        "name": "Sumatera Utara",
        "lat": 2.0108563,
        "lng": 98.9784887
      },
      "country": {
        "id": 228,
        "name": "INDONESIA",
        "code": "ID"
      },
      "id": 77021,
      "name": "Bukit Tinggi",
      "postcode": "22756",
      "lat": 1.8285479,
      "lng": 99.6912245
    },
    {
      "suburb": {
        "id": 6662,
        "name": "Dolok",
        "lat": 1.8251299,
        "lng": 99.6564092
      },
      "city": {
        "id": 451,
        "name": "Padang Lawas Utara",
        "lat": 1.5758644,
        "lng": 99.634135
      },
      "province": {
        "id": 34,
        "name": "Sumatera Utara",
        "lat": 2.0108563,
        "lng": 98.9784887
      },
      "country": {
        "id": 228,
        "name": "INDONESIA",
        "code": "ID"
      },
      "id": 77022,
      "name": "Bunut",
      "postcode": "22756",
      "lat": 1.8275196,
      "lng": 99.6591939
    },
    {
      "suburb": {
        "id": 6662,
        "name": "Dolok",
        "lat": 1.8251299,
        "lng": 99.6564092
      },
      "city": {
        "id": 451,
        "name": "Padang Lawas Utara",
        "lat": 1.5758644,
        "lng": 99.634135
      },
      "province": {
        "id": 34,
        "name": "Sumatera Utara",
        "lat": 2.0108563,
        "lng": 98.9784887
      },
      "country": {
        "id": 228,
        "name": "INDONESIA",
        "code": "ID"
      },
      "id": 77023,
      "name": "Dalihan Natolu",
      "postcode": "22756",
      "lat": 1.816526,
      "lng": 99.6912245
    },
    {
      "suburb": {
        "id": 6662,
        "name": "Dolok",
        "lat": 1.8251299,
        "lng": 99.6564092
      },
      "city": {
        "id": 451,
        "name": "Padang Lawas Utara",
        "lat": 1.5758644,
        "lng": 99.634135
      },
      "province": {
        "id": 34,
        "name": "Sumatera Utara",
        "lat": 2.0108563,
        "lng": 98.9784887
      },
      "country": {
        "id": 228,
        "name": "INDONESIA",
        "code": "ID"
      },
      "id": 77024,
      "name": "Batu Runding",
      "postcode": "22756",
      "lat": 1.8584704,
      "lng": 99.7176937
    },
    {
      "suburb": {
        "id": 6662,
        "name": "Dolok",
        "lat": 1.8251299,
        "lng": 99.6564092
      },
      "city": {
        "id": 451,
        "name": "Padang Lawas Utara",
        "lat": 1.5758644,
        "lng": 99.634135
      },
      "province": {
        "id": 34,
        "name": "Sumatera Utara",
        "lat": 2.0108563,
        "lng": 98.9784887
      },
      "country": {
        "id": 228,
        "name": "INDONESIA",
        "code": "ID"
      },
      "id": 77025,
      "name": "Binanga Gumbot",
      "postcode": "22756",
      "lat": 1.8623503,
      "lng": 99.6689411
    },
    {
      "suburb": {
        "id": 6662,
        "name": "Dolok",
        "lat": 1.8251299,
        "lng": 99.6564092
      },
      "city": {
        "id": 451,
        "name": "Padang Lawas Utara",
        "lat": 1.5758644,
        "lng": 99.634135
      },
      "province": {
        "id": 34,
        "name": "Sumatera Utara",
        "lat": 2.0108563,
        "lng": 98.9784887
      },
      "country": {
        "id": 228,
        "name": "INDONESIA",
        "code": "ID"
      },
      "id": 77026,
      "name": "Bintais Julu",
      "postcode": "22756",
      "lat": 1.8772846,
      "lng": 99.7957564
    },
    {
      "suburb": {
        "id": 6662,
        "name": "Dolok",
        "lat": 1.8251299,
        "lng": 99.6564092
      },
      "city": {
        "id": 451,
        "name": "Padang Lawas Utara",
        "lat": 1.5758644,
        "lng": 99.634135
      },
      "province": {
        "id": 34,
        "name": "Sumatera Utara",
        "lat": 2.0108563,
        "lng": 98.9784887
      },
      "country": {
        "id": 228,
        "name": "INDONESIA",
        "code": "ID"
      },
      "id": 77027,
      "name": "Baringin Sil",
      "postcode": "22756",
      "lat": 1.8391639,
      "lng": 99.7288412
    },
    {
      "suburb": {
        "id": 6661,
        "name": "Dolok Sigompulon",
        "lat": 1.9793075,
        "lng": 99.6564092
      },
      "city": {
        "id": 451,
        "name": "Padang Lawas Utara",
        "lat": 1.5758644,
        "lng": 99.634135
      },
      "province": {
        "id": 34,
        "name": "Sumatera Utara",
        "lat": 2.0108563,
        "lng": 98.9784887
      },
      "country": {
        "id": 228,
        "name": "INDONESIA",
        "code": "ID"
      },
      "id": 77028,
      "name": "Batu Hibul",
      "postcode": "22756",
      "lat": 1.9749037,
      "lng": 99.5840397
    },
    {
      "suburb": {
        "id": 6662,
        "name": "Dolok",
        "lat": 1.8251299,
        "lng": 99.6564092
      },
      "city": {
        "id": 451,
        "name": "Padang Lawas Utara",
        "lat": 1.5758644,
        "lng": 99.634135
      },
      "province": {
        "id": 34,
        "name": "Sumatera Utara",
        "lat": 2.0108563,
        "lng": 98.9784887
      },
      "country": {
        "id": 228,
        "name": "INDONESIA",
        "code": "ID"
      },
      "id": 77029,
      "name": "Baringin Sip",
      "postcode": "22756",
      "lat": 1.8869677,
      "lng": 99.5715205
    },
    {
      "suburb": {
        "id": 6662,
        "name": "Dolok",
        "lat": 1.8251299,
        "lng": 99.6564092
      },
      "city": {
        "id": 451,
        "name": "Padang Lawas Utara",
        "lat": 1.5758644,
        "lng": 99.634135
      },
      "province": {
        "id": 34,
        "name": "Sumatera Utara",
        "lat": 2.0108563,
        "lng": 98.9784887
      },
      "country": {
        "id": 228,
        "name": "INDONESIA",
        "code": "ID"
      },
      "id": 77030,
      "name": "Bandar Nauli",
      "postcode": "22756",
      "lat": 1.8710449,
      "lng": 99.6202166
    },
    {
      "suburb": {
        "id": 6662,
        "name": "Dolok",
        "lat": 1.8251299,
        "lng": 99.6564092
      },
      "city": {
        "id": 451,
        "name": "Padang Lawas Utara",
        "lat": 1.5758644,
        "lng": 99.634135
      },
      "province": {
        "id": 34,
        "name": "Sumatera Utara",
        "lat": 2.0108563,
        "lng": 98.9784887
      },
      "country": {
        "id": 228,
        "name": "INDONESIA",
        "code": "ID"
      },
      "id": 77031,
      "name": "Bahap",
      "postcode": "22756",
      "lat": 1.8196236,
      "lng": 99.7846002
    },
    {
      "suburb": {
        "id": 6662,
        "name": "Dolok",
        "lat": 1.8251299,
        "lng": 99.6564092
      },
      "city": {
        "id": 451,
        "name": "Padang Lawas Utara",
        "lat": 1.5758644,
        "lng": 99.634135
      },
      "province": {
        "id": 34,
        "name": "Sumatera Utara",
        "lat": 2.0108563,
        "lng": 98.9784887
      },
      "country": {
        "id": 228,
        "name": "INDONESIA",
        "code": "ID"
      },
      "id": 77032,
      "name": "Aek Sundur",
      "postcode": "22756",
      "lat": 1.8373523,
      "lng": 99.6202166
    },
    {
      "suburb": {
        "id": 6662,
        "name": "Dolok",
        "lat": 1.8251299,
        "lng": 99.6564092
      },
      "city": {
        "id": 451,
        "name": "Padang Lawas Utara",
        "lat": 1.5758644,
        "lng": 99.634135
      },
      "province": {
        "id": 34,
        "name": "Sumatera Utara",
        "lat": 2.0108563,
        "lng": 98.9784887
      },
      "country": {
        "id": 228,
        "name": "INDONESIA",
        "code": "ID"
      },
      "id": 77033,
      "name": "Aek Tangga",
      "postcode": "22756",
      "lat": 1.8616602,
      "lng": 99.5756934
    },
    {
      "suburb": {
        "id": 6662,
        "name": "Dolok",
        "lat": 1.8251299,
        "lng": 99.6564092
      },
      "city": {
        "id": 451,
        "name": "Padang Lawas Utara",
        "lat": 1.5758644,
        "lng": 99.634135
      },
      "province": {
        "id": 34,
        "name": "Sumatera Utara",
        "lat": 2.0108563,
        "lng": 98.9784887
      },
      "country": {
        "id": 228,
        "name": "INDONESIA",
        "code": "ID"
      },
      "id": 77034,
      "name": "Arse",
      "postcode": "22756",
      "lat": 1.7894711,
      "lng": 99.5812575
    },
    {
      "suburb": {
        "id": 6661,
        "name": "Dolok Sigompulon",
        "lat": 1.9793075,
        "lng": 99.6564092
      },
      "city": {
        "id": 451,
        "name": "Padang Lawas Utara",
        "lat": 1.5758644,
        "lng": 99.634135
      },
      "province": {
        "id": 34,
        "name": "Sumatera Utara",
        "lat": 2.0108563,
        "lng": 98.9784887
      },
      "country": {
        "id": 228,
        "name": "INDONESIA",
        "code": "ID"
      },
      "id": 77035,
      "name": "Aek Simanat",
      "postcode": "22756",
      "lat": 1.9835739,
      "lng": 99.7511404
    },
    {
      "suburb": {
        "id": 6662,
        "name": "Dolok",
        "lat": 1.8251299,
        "lng": 99.6564092
      },
      "city": {
        "id": 451,
        "name": "Padang Lawas Utara",
        "lat": 1.5758644,
        "lng": 99.634135
      },
      "province": {
        "id": 34,
        "name": "Sumatera Utara",
        "lat": 2.0108563,
        "lng": 98.9784887
      },
      "country": {
        "id": 228,
        "name": "INDONESIA",
        "code": "ID"
      },
      "id": 77036,
      "name": "Aek Suhat Jae",
      "postcode": "22756",
      "lat": 1.8720403,
      "lng": 99.6578016
    },
    {
      "suburb": {
        "id": 6662,
        "name": "Dolok",
        "lat": 1.8251299,
        "lng": 99.6564092
      },
      "city": {
        "id": 451,
        "name": "Padang Lawas Utara",
        "lat": 1.5758644,
        "lng": 99.634135
      },
      "province": {
        "id": 34,
        "name": "Sumatera Utara",
        "lat": 2.0108563,
        "lng": 98.9784887
      },
      "country": {
        "id": 228,
        "name": "INDONESIA",
        "code": "ID"
      },
      "id": 77037,
      "name": "Aek Suhut Tr",
      "postcode": "22756",
      "lat": 1.8672104,
      "lng": 99.6605863
    },
    {
      "suburb": {
        "id": 6662,
        "name": "Dolok",
        "lat": 1.8251299,
        "lng": 99.6564092
      },
      "city": {
        "id": 451,
        "name": "Padang Lawas Utara",
        "lat": 1.5758644,
        "lng": 99.634135
      },
      "province": {
        "id": 34,
        "name": "Sumatera Utara",
        "lat": 2.0108563,
        "lng": 98.9784887
      },
      "country": {
        "id": 228,
        "name": "INDONESIA",
        "code": "ID"
      },
      "id": 77038,
      "name": "Aek Rao Tapian Nadenggan",
      "postcode": "22756",
      "lat": 1.7434744,
      "lng": 99.6508401
    },
    {
      "suburb": {
        "id": 6661,
        "name": "Dolok Sigompulon",
        "lat": 1.9793075,
        "lng": 99.6564092
      },
      "city": {
        "id": 451,
        "name": "Padang Lawas Utara",
        "lat": 1.5758644,
        "lng": 99.634135
      },
      "province": {
        "id": 34,
        "name": "Sumatera Utara",
        "lat": 2.0108563,
        "lng": 98.9784887
      },
      "country": {
        "id": 228,
        "name": "INDONESIA",
        "code": "ID"
      },
      "id": 77039,
      "name": "Aek Kanan",
      "postcode": "22756",
      "lat": 1.9928924,
      "lng": 99.8069141
    },
    {
      "suburb": {
        "id": 6661,
        "name": "Dolok Sigompulon",
        "lat": 1.9793075,
        "lng": 99.6564092
      },
      "city": {
        "id": 451,
        "name": "Padang Lawas Utara",
        "lat": 1.5758644,
        "lng": 99.634135
      },
      "province": {
        "id": 34,
        "name": "Sumatera Utara",
        "lat": 2.0108563,
        "lng": 98.9784887
      },
      "country": {
        "id": 228,
        "name": "INDONESIA",
        "code": "ID"
      },
      "id": 77040,
      "name": "Aek Kundur",
      "postcode": "22756",
      "lat": 2.0133485,
      "lng": 99.8166783
    },
    {
      "suburb": {
        "id": 6662,
        "name": "Dolok",
        "lat": 1.8251299,
        "lng": 99.6564092
      },
      "city": {
        "id": 451,
        "name": "Padang Lawas Utara",
        "lat": 1.5758644,
        "lng": 99.634135
      },
      "province": {
        "id": 34,
        "name": "Sumatera Utara",
        "lat": 2.0108563,
        "lng": 98.9784887
      },
      "country": {
        "id": 228,
        "name": "INDONESIA",
        "code": "ID"
      },
      "id": 77041,
      "name": "Aek Ilung",
      "postcode": "22756",
      "lat": 1.7986411,
      "lng": 99.6647636
    },
    {
      "suburb": {
        "id": 6661,
        "name": "Dolok Sigompulon",
        "lat": 1.9793075,
        "lng": 99.6564092
      },
      "city": {
        "id": 451,
        "name": "Padang Lawas Utara",
        "lat": 1.5758644,
        "lng": 99.634135
      },
      "province": {
        "id": 34,
        "name": "Sumatera Utara",
        "lat": 2.0108563,
        "lng": 98.9784887
      },
      "country": {
        "id": 228,
        "name": "INDONESIA",
        "code": "ID"
      },
      "id": 77042,
      "name": "Aek Jabut",
      "postcode": "22756",
      "lat": 1.9807123,
      "lng": 99.8264435
    },
    {
      "suburb": {
        "id": 6663,
        "name": "Barumun Tengah",
        "lat": 1.3655295,
        "lng": 99.745565
      },
      "city": {
        "id": 449,
        "name": "Padang Lawas",
        "lat": 1.1186977,
        "lng": 99.8124935
      },
      "province": {
        "id": 34,
        "name": "Sumatera Utara",
        "lat": 2.0108563,
        "lng": 98.9784887
      },
      "country": {
        "id": 228,
        "name": "INDONESIA",
        "code": "ID"
      },
      "id": 77043,
      "name": "Unte Rudang",
      "postcode": "22755",
      "lat": 1.395146,
      "lng": 99.7748397
    },
    {
      "suburb": {
        "id": 6662,
        "name": "Dolok",
        "lat": 1.8251299,
        "lng": 99.6564092
      },
      "city": {
        "id": 451,
        "name": "Padang Lawas Utara",
        "lat": 1.5758644,
        "lng": 99.634135
      },
      "province": {
        "id": 34,
        "name": "Sumatera Utara",
        "lat": 2.0108563,
        "lng": 98.9784887
      },
      "country": {
        "id": 228,
        "name": "INDONESIA",
        "code": "ID"
      },
      "id": 77044,
      "name": "Aek Haruaya",
      "postcode": "22756",
      "lat": 1.8815461,
      "lng": 99.6800821
    },
    {
      "suburb": {
        "id": 6664,
        "name": "Sihapas Barumun",
        "lat": 1.2992934,
        "lng": 99.6675486
      },
      "city": {
        "id": 449,
        "name": "Padang Lawas",
        "lat": 1.1186977,
        "lng": 99.8124935
      },
      "province": {
        "id": 34,
        "name": "Sumatera Utara",
        "lat": 2.0108563,
        "lng": 98.9784887
      },
      "country": {
        "id": 228,
        "name": "INDONESIA",
        "code": "ID"
      },
      "id": 77045,
      "name": "Ujung Gading",
      "postcode": "22755",
      "lat": 1.3266646,
      "lng": 99.6550169
    },
    {
      "suburb": {
        "id": 6664,
        "name": "Sihapas Barumun",
        "lat": 1.2992934,
        "lng": 99.6675486
      },
      "city": {
        "id": 449,
        "name": "Padang Lawas",
        "lat": 1.1186977,
        "lng": 99.8124935
      },
      "province": {
        "id": 34,
        "name": "Sumatera Utara",
        "lat": 2.0108563,
        "lng": 98.9784887
      },
      "country": {
        "id": 228,
        "name": "INDONESIA",
        "code": "ID"
      },
      "id": 77046,
      "name": "Ujung Padang",
      "postcode": "22755",
      "lat": 1.3491878,
      "lng": 99.6703336
    },
    {
      "suburb": {
        "id": 6665,
        "name": "Aek Nabara Barumun",
        "lat": 1.2515284,
        "lng": 99.745565
      },
      "city": {
        "id": 449,
        "name": "Padang Lawas",
        "lat": 1.1186977,
        "lng": 99.8124935
      },
      "province": {
        "id": 34,
        "name": "Sumatera Utara",
        "lat": 2.0108563,
        "lng": 98.9784887
      },
      "country": {
        "id": 228,
        "name": "INDONESIA",
        "code": "ID"
      },
      "id": 77047,
      "name": "Tanjung Rokan",
      "postcode": "22755",
      "lat": 1.2777007,
      "lng": 99.7260542
    },
    {
      "suburb": {
        "id": 6665,
        "name": "Aek Nabara Barumun",
        "lat": 1.2515284,
        "lng": 99.745565
      },
      "city": {
        "id": 449,
        "name": "Padang Lawas",
        "lat": 1.1186977,
        "lng": 99.8124935
      },
      "province": {
        "id": 34,
        "name": "Sumatera Utara",
        "lat": 2.0108563,
        "lng": 98.9784887
      },
      "country": {
        "id": 228,
        "name": "INDONESIA",
        "code": "ID"
      },
      "id": 77048,
      "name": "Tobing",
      "postcode": "22755",
      "lat": 1.2751034,
      "lng": 99.7846002
    },
    {
      "suburb": {
        "id": 6665,
        "name": "Aek Nabara Barumun",
        "lat": 1.2515284,
        "lng": 99.745565
      },
      "city": {
        "id": 449,
        "name": "Padang Lawas",
        "lat": 1.1186977,
        "lng": 99.8124935
      },
      "province": {
        "id": 34,
        "name": "Sumatera Utara",
        "lat": 2.0108563,
        "lng": 98.9784887
      },
      "country": {
        "id": 228,
        "name": "INDONESIA",
        "code": "ID"
      },
      "id": 77049,
      "name": "Tobing Tinggi",
      "postcode": "22755",
      "lat": 1.208717,
      "lng": 99.7846002
    },
    {
      "suburb": {
        "id": 6663,
        "name": "Barumun Tengah",
        "lat": 1.3655295,
        "lng": 99.745565
      },
      "city": {
        "id": 449,
        "name": "Padang Lawas",
        "lat": 1.1186977,
        "lng": 99.8124935
      },
      "province": {
        "id": 34,
        "name": "Sumatera Utara",
        "lat": 2.0108563,
        "lng": 98.9784887
      },
      "country": {
        "id": 228,
        "name": "INDONESIA",
        "code": "ID"
      },
      "id": 77050,
      "name": "Tandihat",
      "postcode": "22755",
      "lat": 1.3791463,
      "lng": 99.7602011
    },
    {
      "suburb": {
        "id": 6664,
        "name": "Sihapas Barumun",
        "lat": 1.2992934,
        "lng": 99.6675486
      },
      "city": {
        "id": 449,
        "name": "Padang Lawas",
        "lat": 1.1186977,
        "lng": 99.8124935
      },
      "province": {
        "id": 34,
        "name": "Sumatera Utara",
        "lat": 2.0108563,
        "lng": 98.9784887
      },
      "country": {
        "id": 228,
        "name": "INDONESIA",
        "code": "ID"
      },
      "id": 77051,
      "name": "Tanjung Morang",
      "postcode": "22755",
      "lat": 1.3111377,
      "lng": 99.675904
    },
    {
      "suburb": {
        "id": 6665,
        "name": "Aek Nabara Barumun",
        "lat": 1.2515284,
        "lng": 99.745565
      },
      "city": {
        "id": 449,
        "name": "Padang Lawas",
        "lat": 1.1186977,
        "lng": 99.8124935
      },
      "province": {
        "id": 34,
        "name": "Sumatera Utara",
        "lat": 2.0108563,
        "lng": 98.9784887
      },
      "country": {
        "id": 228,
        "name": "INDONESIA",
        "code": "ID"
      },
      "id": 77052,
      "name": "Tanjung",
      "postcode": "22755",
      "lat": 1.2536374,
      "lng": 99.8152833
    },
    {
      "suburb": {
        "id": 6663,
        "name": "Barumun Tengah",
        "lat": 1.3655295,
        "lng": 99.745565
      },
      "city": {
        "id": 449,
        "name": "Padang Lawas",
        "lat": 1.1186977,
        "lng": 99.8124935
      },
      "province": {
        "id": 34,
        "name": "Sumatera Utara",
        "lat": 2.0108563,
        "lng": 98.9784887
      },
      "country": {
        "id": 228,
        "name": "INDONESIA",
        "code": "ID"
      },
      "id": 77053,
      "name": "Sisalean",
      "postcode": "22755",
      "lat": 1.3608867,
      "lng": 99.7176937
    },
    {
      "suburb": {
        "id": 6664,
        "name": "Sihapas Barumun",
        "lat": 1.2992934,
        "lng": 99.6675486
      },
      "city": {
        "id": 449,
        "name": "Padang Lawas",
        "lat": 1.1186977,
        "lng": 99.8124935
      },
      "province": {
        "id": 34,
        "name": "Sumatera Utara",
        "lat": 2.0108563,
        "lng": 98.9784887
      },
      "country": {
        "id": 228,
        "name": "INDONESIA",
        "code": "ID"
      },
      "id": 77054,
      "name": "Sitada Tada",
      "postcode": "22755",
      "lat": 1.3040653,
      "lng": 99.6619787
    },
    {
      "suburb": {
        "id": 6663,
        "name": "Barumun Tengah",
        "lat": 1.3655295,
        "lng": 99.745565
      },
      "city": {
        "id": 449,
        "name": "Padang Lawas",
        "lat": 1.1186977,
        "lng": 99.8124935
      },
      "province": {
        "id": 34,
        "name": "Sumatera Utara",
        "lat": 2.0108563,
        "lng": 98.9784887
      },
      "country": {
        "id": 228,
        "name": "INDONESIA",
        "code": "ID"
      },
      "id": 77055,
      "name": "Siolip",
      "postcode": "22755",
      "lat": 1.3992903,
      "lng": 99.7797198
    },
    {
      "suburb": {
        "id": 6663,
        "name": "Barumun Tengah",
        "lat": 1.3655295,
        "lng": 99.745565
      },
      "city": {
        "id": 449,
        "name": "Padang Lawas",
        "lat": 1.1186977,
        "lng": 99.8124935
      },
      "province": {
        "id": 34,
        "name": "Sumatera Utara",
        "lat": 2.0108563,
        "lng": 98.9784887
      },
      "country": {
        "id": 228,
        "name": "INDONESIA",
        "code": "ID"
      },
      "id": 77056,
      "name": "Siparau",
      "postcode": "22755",
      "lat": 1.3917104,
      "lng": 99.7427775
    },
    {
      "suburb": {
        "id": 6665,
        "name": "Aek Nabara Barumun",
        "lat": 1.2515284,
        "lng": 99.745565
      },
      "city": {
        "id": 449,
        "name": "Padang Lawas",
        "lat": 1.1186977,
        "lng": 99.8124935
      },
      "province": {
        "id": 34,
        "name": "Sumatera Utara",
        "lat": 2.0108563,
        "lng": 98.9784887
      },
      "country": {
        "id": 228,
        "name": "INDONESIA",
        "code": "ID"
      },
      "id": 77057,
      "name": "Sipagabu",
      "postcode": "22755",
      "lat": 1.2276736,
      "lng": 99.7846002
    },
    {
      "suburb": {
        "id": 6664,
        "name": "Sihapas Barumun",
        "lat": 1.2992934,
        "lng": 99.6675486
      },
      "city": {
        "id": 449,
        "name": "Padang Lawas",
        "lat": 1.1186977,
        "lng": 99.8124935
      },
      "province": {
        "id": 34,
        "name": "Sumatera Utara",
        "lat": 2.0108563,
        "lng": 98.9784887
      },
      "country": {
        "id": 228,
        "name": "INDONESIA",
        "code": "ID"
      },
      "id": 77058,
      "name": "Silenjeng",
      "postcode": "22755",
      "lat": 1.3385387,
      "lng": 99.6578016
    },
    {
      "suburb": {
        "id": 6664,
        "name": "Sihapas Barumun",
        "lat": 1.2992934,
        "lng": 99.6675486
      },
      "city": {
        "id": 449,
        "name": "Padang Lawas",
        "lat": 1.1186977,
        "lng": 99.8124935
      },
      "province": {
        "id": 34,
        "name": "Sumatera Utara",
        "lat": 2.0108563,
        "lng": 98.9784887
      },
      "country": {
        "id": 228,
        "name": "INDONESIA",
        "code": "ID"
      },
      "id": 77059,
      "name": "Simaninggir",
      "postcode": "22755",
      "lat": 1.3242661,
      "lng": 99.6605863
    },
    {
      "suburb": {
        "id": 6663,
        "name": "Barumun Tengah",
        "lat": 1.3655295,
        "lng": 99.745565
      },
      "city": {
        "id": 449,
        "name": "Padang Lawas",
        "lat": 1.1186977,
        "lng": 99.8124935
      },
      "province": {
        "id": 34,
        "name": "Sumatera Utara",
        "lat": 2.0108563,
        "lng": 98.9784887
      },
      "country": {
        "id": 228,
        "name": "INDONESIA",
        "code": "ID"
      },
      "id": 77060,
      "name": "Sihaborgoan Barum",
      "postcode": "22755",
      "lat": 1.3655295,
      "lng": 99.745565
    },
    {
      "suburb": {
        "id": 6663,
        "name": "Barumun Tengah",
        "lat": 1.3655295,
        "lng": 99.745565
      },
      "city": {
        "id": 449,
        "name": "Padang Lawas",
        "lat": 1.1186977,
        "lng": 99.8124935
      },
      "province": {
        "id": 34,
        "name": "Sumatera Utara",
        "lat": 2.0108563,
        "lng": 98.9784887
      },
      "country": {
        "id": 228,
        "name": "INDONESIA",
        "code": "ID"
      },
      "id": 77061,
      "name": "Sihaborgoan Dalan",
      "postcode": "22755",
      "lat": 1.4107295,
      "lng": 99.7483527
    },
    {
      "suburb": {
        "id": 6665,
        "name": "Aek Nabara Barumun",
        "lat": 1.2515284,
        "lng": 99.745565
      },
      "city": {
        "id": 449,
        "name": "Padang Lawas",
        "lat": 1.1186977,
        "lng": 99.8124935
      },
      "province": {
        "id": 34,
        "name": "Sumatera Utara",
        "lat": 2.0108563,
        "lng": 98.9784887
      },
      "country": {
        "id": 228,
        "name": "INDONESIA",
        "code": "ID"
      },
      "id": 77062,
      "name": "Sidokan",
      "postcode": "22755",
      "lat": 1.2953698,
      "lng": 99.7608981
    },
    {
      "suburb": {
        "id": 6663,
        "name": "Barumun Tengah",
        "lat": 1.3655295,
        "lng": 99.745565
      },
      "city": {
        "id": 449,
        "name": "Padang Lawas",
        "lat": 1.1186977,
        "lng": 99.8124935
      },
      "province": {
        "id": 34,
        "name": "Sumatera Utara",
        "lat": 2.0108563,
        "lng": 98.9784887
      },
      "country": {
        "id": 228,
        "name": "INDONESIA",
        "code": "ID"
      },
      "id": 77063,
      "name": "Sidong-Dong",
      "postcode": "22755",
      "lat": 1.3251958,
      "lng": 99.7260542
    },
    {
      "suburb": {
        "id": 6663,
        "name": "Barumun Tengah",
        "lat": 1.3655295,
        "lng": 99.745565
      },
      "city": {
        "id": 449,
        "name": "Padang Lawas",
        "lat": 1.1186977,
        "lng": 99.8124935
      },
      "province": {
        "id": 34,
        "name": "Sumatera Utara",
        "lat": 2.0108563,
        "lng": 98.9784887
      },
      "country": {
        "id": 228,
        "name": "INDONESIA",
        "code": "ID"
      },
      "id": 77064,
      "name": "Siboris Dolok",
      "postcode": "22755",
      "lat": 1.3832605,
      "lng": 99.7720512
    },
    {
      "suburb": {
        "id": 6663,
        "name": "Barumun Tengah",
        "lat": 1.3655295,
        "lng": 99.745565
      },
      "city": {
        "id": 449,
        "name": "Padang Lawas",
        "lat": 1.1186977,
        "lng": 99.8124935
      },
      "province": {
        "id": 34,
        "name": "Sumatera Utara",
        "lat": 2.0108563,
        "lng": 98.9784887
      },
      "country": {
        "id": 228,
        "name": "INDONESIA",
        "code": "ID"
      },
      "id": 77065,
      "name": "Siboris Lombang",
      "postcode": "22755",
      "lat": 1.3832141,
      "lng": 99.7832058
    },
    {
      "suburb": {
        "id": 6663,
        "name": "Barumun Tengah",
        "lat": 1.3655295,
        "lng": 99.745565
      },
      "city": {
        "id": 449,
        "name": "Padang Lawas",
        "lat": 1.1186977,
        "lng": 99.8124935
      },
      "province": {
        "id": 34,
        "name": "Sumatera Utara",
        "lat": 2.0108563,
        "lng": 98.9784887
      },
      "country": {
        "id": 228,
        "name": "INDONESIA",
        "code": "ID"
      },
      "id": 77066,
      "name": "Sibatu Loting",
      "postcode": "22755",
      "lat": 1.4060619,
      "lng": 99.7260542
    },
    {
      "suburb": {
        "id": 6663,
        "name": "Barumun Tengah",
        "lat": 1.3655295,
        "lng": 99.745565
      },
      "city": {
        "id": 449,
        "name": "Padang Lawas",
        "lat": 1.1186977,
        "lng": 99.8124935
      },
      "province": {
        "id": 34,
        "name": "Sumatera Utara",
        "lat": 2.0108563,
        "lng": 98.9784887
      },
      "country": {
        "id": 228,
        "name": "INDONESIA",
        "code": "ID"
      },
      "id": 77067,
      "name": "Sibontar",
      "postcode": "22755",
      "lat": 1.3489862,
      "lng": 99.7204805
    },
    {
      "suburb": {
        "id": 6663,
        "name": "Barumun Tengah",
        "lat": 1.3655295,
        "lng": 99.745565
      },
      "city": {
        "id": 449,
        "name": "Padang Lawas",
        "lat": 1.1186977,
        "lng": 99.8124935
      },
      "province": {
        "id": 34,
        "name": "Sumatera Utara",
        "lat": 2.0108563,
        "lng": 98.9784887
      },
      "country": {
        "id": 228,
        "name": "INDONESIA",
        "code": "ID"
      },
      "id": 77068,
      "name": "Siboris Bahal",
      "postcode": "22755",
      "lat": 1.4117721,
      "lng": 99.7832058
    },
    {
      "suburb": {
        "id": 6665,
        "name": "Aek Nabara Barumun",
        "lat": 1.2515284,
        "lng": 99.745565
      },
      "city": {
        "id": 449,
        "name": "Padang Lawas",
        "lat": 1.1186977,
        "lng": 99.8124935
      },
      "province": {
        "id": 34,
        "name": "Sumatera Utara",
        "lat": 2.0108563,
        "lng": 98.9784887
      },
      "country": {
        "id": 228,
        "name": "INDONESIA",
        "code": "ID"
      },
      "id": 77069,
      "name": "Sayur Mahincat",
      "postcode": "22755",
      "lat": 1.3320012,
      "lng": 99.8069141
    },
    {
      "suburb": {
        "id": 6665,
        "name": "Aek Nabara Barumun",
        "lat": 1.2515284,
        "lng": 99.745565
      },
      "city": {
        "id": 449,
        "name": "Padang Lawas",
        "lat": 1.1186977,
        "lng": 99.8124935
      },
      "province": {
        "id": 34,
        "name": "Sumatera Utara",
        "lat": 2.0108563,
        "lng": 98.9784887
      },
      "country": {
        "id": 228,
        "name": "INDONESIA",
        "code": "ID"
      },
      "id": 77070,
      "name": "Sayur Matua",
      "postcode": "22755",
      "lat": 1.3286547,
      "lng": 99.7525343
    },
    {
      "suburb": {
        "id": 6663,
        "name": "Barumun Tengah",
        "lat": 1.3655295,
        "lng": 99.745565
      },
      "city": {
        "id": 449,
        "name": "Padang Lawas",
        "lat": 1.1186977,
        "lng": 99.8124935
      },
      "province": {
        "id": 34,
        "name": "Sumatera Utara",
        "lat": 2.0108563,
        "lng": 98.9784887
      },
      "country": {
        "id": 228,
        "name": "INDONESIA",
        "code": "ID"
      },
      "id": 77071,
      "name": "Pp Makmur",
      "postcode": "22755",
      "lat": 1.404619,
      "lng": 99.7859947
    },
    {
      "suburb": {
        "id": 6665,
        "name": "Aek Nabara Barumun",
        "lat": 1.2515284,
        "lng": 99.745565
      },
      "city": {
        "id": 449,
        "name": "Padang Lawas",
        "lat": 1.1186977,
        "lng": 99.8124935
      },
      "province": {
        "id": 34,
        "name": "Sumatera Utara",
        "lat": 2.0108563,
        "lng": 98.9784887
      },
      "country": {
        "id": 228,
        "name": "INDONESIA",
        "code": "ID"
      },
      "id": 77072,
      "name": "Paya Bahung",
      "postcode": "22755",
      "lat": 1.2660352,
      "lng": 99.6731188
    },
    {
      "suburb": {
        "id": 6663,
        "name": "Barumun Tengah",
        "lat": 1.3655295,
        "lng": 99.745565
      },
      "city": {
        "id": 449,
        "name": "Padang Lawas",
        "lat": 1.1186977,
        "lng": 99.8124935
      },
      "province": {
        "id": 34,
        "name": "Sumatera Utara",
        "lat": 2.0108563,
        "lng": 98.9784887
      },
      "country": {
        "id": 228,
        "name": "INDONESIA",
        "code": "ID"
      },
      "id": 77073,
      "name": "Paran Napa Jae",
      "postcode": "22755",
      "lat": 1.3204878,
      "lng": 99.7149071
    },
    {
      "suburb": {
        "id": 6663,
        "name": "Barumun Tengah",
        "lat": 1.3655295,
        "lng": 99.745565
      },
      "city": {
        "id": 449,
        "name": "Padang Lawas",
        "lat": 1.1186977,
        "lng": 99.8124935
      },
      "province": {
        "id": 34,
        "name": "Sumatera Utara",
        "lat": 2.0108563,
        "lng": 98.9784887
      },
      "country": {
        "id": 228,
        "name": "INDONESIA",
        "code": "ID"
      },
      "id": 77074,
      "name": "Pasar Binanga",
      "postcode": "22755",
      "lat": 1.4022859,
      "lng": 99.7748397
    },
    {
      "suburb": {
        "id": 6665,
        "name": "Aek Nabara Barumun",
        "lat": 1.2515284,
        "lng": 99.745565
      },
      "city": {
        "id": 449,
        "name": "Padang Lawas",
        "lat": 1.1186977,
        "lng": 99.8124935
      },
      "province": {
        "id": 34,
        "name": "Sumatera Utara",
        "lat": 2.0108563,
        "lng": 98.9784887
      },
      "country": {
        "id": 228,
        "name": "INDONESIA",
        "code": "ID"
      },
      "id": 77075,
      "name": "Paran Tonga An",
      "postcode": "22755",
      "lat": 1.2442574,
      "lng": 99.7873891
    },
    {
      "suburb": {
        "id": 6663,
        "name": "Barumun Tengah",
        "lat": 1.3655295,
        "lng": 99.745565
      },
      "city": {
        "id": 449,
        "name": "Padang Lawas",
        "lat": 1.1186977,
        "lng": 99.8124935
      },
      "province": {
        "id": 34,
        "name": "Sumatera Utara",
        "lat": 2.0108563,
        "lng": 98.9784887
      },
      "country": {
        "id": 228,
        "name": "INDONESIA",
        "code": "ID"
      },
      "id": 77076,
      "name": "Paran Napa Dolok",
      "postcode": "22755",
      "lat": 1.3609773,
      "lng": 99.6954033
    },
    {
      "suburb": {
        "id": 6665,
        "name": "Aek Nabara Barumun",
        "lat": 1.2515284,
        "lng": 99.745565
      },
      "city": {
        "id": 449,
        "name": "Padang Lawas",
        "lat": 1.1186977,
        "lng": 99.8124935
      },
      "province": {
        "id": 34,
        "name": "Sumatera Utara",
        "lat": 2.0108563,
        "lng": 98.9784887
      },
      "country": {
        "id": 228,
        "name": "INDONESIA",
        "code": "ID"
      },
      "id": 77077,
      "name": "Paran Julu",
      "postcode": "22755",
      "lat": 1.2680811,
      "lng": 99.7595041
    },
    {
      "suburb": {
        "id": 6663,
        "name": "Barumun Tengah",
        "lat": 1.3655295,
        "lng": 99.745565
      },
      "city": {
        "id": 449,
        "name": "Padang Lawas",
        "lat": 1.1186977,
        "lng": 99.8124935
      },
      "province": {
        "id": 34,
        "name": "Sumatera Utara",
        "lat": 2.0108563,
        "lng": 98.9784887
      },
      "country": {
        "id": 228,
        "name": "INDONESIA",
        "code": "ID"
      },
      "id": 77078,
      "name": "Pangirkiran Dolok",
      "postcode": "22755",
      "lat": 1.3606138,
      "lng": 99.7846002
    },
    {
      "suburb": {
        "id": 6664,
        "name": "Sihapas Barumun",
        "lat": 1.2992934,
        "lng": 99.6675486
      },
      "city": {
        "id": 449,
        "name": "Padang Lawas",
        "lat": 1.1186977,
        "lng": 99.8124935
      },
      "province": {
        "id": 34,
        "name": "Sumatera Utara",
        "lat": 2.0108563,
        "lng": 98.9784887
      },
      "country": {
        "id": 228,
        "name": "INDONESIA",
        "code": "ID"
      },
      "id": 77079,
      "name": "Paran Dolok",
      "postcode": "22755",
      "lat": 1.3361945,
      "lng": 99.6494479
    },
    {
      "suburb": {
        "id": 6663,
        "name": "Barumun Tengah",
        "lat": 1.3655295,
        "lng": 99.745565
      },
      "city": {
        "id": 449,
        "name": "Padang Lawas",
        "lat": 1.1186977,
        "lng": 99.8124935
      },
      "province": {
        "id": 34,
        "name": "Sumatera Utara",
        "lat": 2.0108563,
        "lng": 98.9784887
      },
      "country": {
        "id": 228,
        "name": "INDONESIA",
        "code": "ID"
      },
      "id": 77080,
      "name": "Padang Matinggi",
      "postcode": "22755",
      "lat": 1.3868815,
      "lng": 99.7595041
    },
    {
      "suburb": {
        "id": 6664,
        "name": "Sihapas Barumun",
        "lat": 1.2992934,
        "lng": 99.6675486
      },
      "city": {
        "id": 449,
        "name": "Padang Lawas",
        "lat": 1.1186977,
        "lng": 99.8124935
      },
      "province": {
        "id": 34,
        "name": "Sumatera Utara",
        "lat": 2.0108563,
        "lng": 98.9784887
      },
      "country": {
        "id": 228,
        "name": "INDONESIA",
        "code": "ID"
      },
      "id": 77081,
      "name": "Padang Hasior Lombang",
      "postcode": "22755",
      "lat": 1.3314622,
      "lng": 99.6438793
    },
    {
      "suburb": {
        "id": 6663,
        "name": "Barumun Tengah",
        "lat": 1.3655295,
        "lng": 99.745565
      },
      "city": {
        "id": 449,
        "name": "Padang Lawas",
        "lat": 1.1186977,
        "lng": 99.8124935
      },
      "province": {
        "id": 34,
        "name": "Sumatera Utara",
        "lat": 2.0108563,
        "lng": 98.9784887
      },
      "country": {
        "id": 228,
        "name": "INDONESIA",
        "code": "ID"
      },
      "id": 77082,
      "name": "Padang Garugur",
      "postcode": "22755",
      "lat": 1.3738027,
      "lng": 99.7581101
    },
    {
      "suburb": {
        "id": 6665,
        "name": "Aek Nabara Barumun",
        "lat": 1.2515284,
        "lng": 99.745565
      },
      "city": {
        "id": 449,
        "name": "Padang Lawas",
        "lat": 1.1186977,
        "lng": 99.8124935
      },
      "province": {
        "id": 34,
        "name": "Sumatera Utara",
        "lat": 2.0108563,
        "lng": 98.9784887
      },
      "country": {
        "id": 228,
        "name": "INDONESIA",
        "code": "ID"
      },
      "id": 77083,
      "name": "Padang Garugur Jae",
      "postcode": "22755",
      "lat": 1.2918357,
      "lng": 99.7539282
    },
    {
      "suburb": {
        "id": 6664,
        "name": "Sihapas Barumun",
        "lat": 1.2992934,
        "lng": 99.6675486
      },
      "city": {
        "id": 449,
        "name": "Padang Lawas",
        "lat": 1.1186977,
        "lng": 99.8124935
      },
      "province": {
        "id": 34,
        "name": "Sumatera Utara",
        "lat": 2.0108563,
        "lng": 98.9784887
      },
      "country": {
        "id": 228,
        "name": "INDONESIA",
        "code": "ID"
      },
      "id": 77084,
      "name": "Padang Hasior Dolok",
      "postcode": "22755",
      "lat": 1.3207942,
      "lng": 99.636919
    },
    {
      "suburb": {
        "id": 6665,
        "name": "Aek Nabara Barumun",
        "lat": 1.2515284,
        "lng": 99.745565
      },
      "city": {
        "id": 449,
        "name": "Padang Lawas",
        "lat": 1.1186977,
        "lng": 99.8124935
      },
      "province": {
        "id": 34,
        "name": "Sumatera Utara",
        "lat": 2.0108563,
        "lng": 98.9784887
      },
      "country": {
        "id": 228,
        "name": "INDONESIA",
        "code": "ID"
      },
      "id": 77085,
      "name": "Padang Galugur Julu",
      "postcode": "22755",
      "lat": 1.2883017,
      "lng": 99.7469588
    },
    {
      "suburb": {
        "id": 6665,
        "name": "Aek Nabara Barumun",
        "lat": 1.2515284,
        "lng": 99.745565
      },
      "city": {
        "id": 449,
        "name": "Padang Lawas",
        "lat": 1.1186977,
        "lng": 99.8124935
      },
      "province": {
        "id": 34,
        "name": "Sumatera Utara",
        "lat": 2.0108563,
        "lng": 98.9784887
      },
      "country": {
        "id": 228,
        "name": "INDONESIA",
        "code": "ID"
      },
      "id": 77086,
      "name": "Padang Galugur Tonga",
      "postcode": "22755",
      "lat": 1.291922,
      "lng": 99.7316282
    },
    {
      "suburb": {
        "id": 6665,
        "name": "Aek Nabara Barumun",
        "lat": 1.2515284,
        "lng": 99.745565
      },
      "city": {
        "id": 449,
        "name": "Padang Lawas",
        "lat": 1.1186977,
        "lng": 99.8124935
      },
      "province": {
        "id": 34,
        "name": "Sumatera Utara",
        "lat": 2.0108563,
        "lng": 98.9784887
      },
      "country": {
        "id": 228,
        "name": "INDONESIA",
        "code": "ID"
      },
      "id": 77087,
      "name": "Marenu",
      "postcode": "22755",
      "lat": 1.2231994,
      "lng": 99.7121206
    },
    {
      "suburb": {
        "id": 6663,
        "name": "Barumun Tengah",
        "lat": 1.3655295,
        "lng": 99.745565
      },
      "city": {
        "id": 449,
        "name": "Padang Lawas",
        "lat": 1.1186977,
        "lng": 99.8124935
      },
      "province": {
        "id": 34,
        "name": "Sumatera Utara",
        "lat": 2.0108563,
        "lng": 98.9784887
      },
      "country": {
        "id": 228,
        "name": "INDONESIA",
        "code": "ID"
      },
      "id": 77088,
      "name": "Manombo",
      "postcode": "22755",
      "lat": 1.4285118,
      "lng": 99.7664745
    },
    {
      "suburb": {
        "id": 6664,
        "name": "Sihapas Barumun",
        "lat": 1.2992934,
        "lng": 99.6675486
      },
      "city": {
        "id": 449,
        "name": "Padang Lawas",
        "lat": 1.1186977,
        "lng": 99.8124935
      },
      "province": {
        "id": 34,
        "name": "Sumatera Utara",
        "lat": 2.0108563,
        "lng": 98.9784887
      },
      "country": {
        "id": 228,
        "name": "INDONESIA",
        "code": "ID"
      },
      "id": 77089,
      "name": "Lubuk Gonting",
      "postcode": "22755",
      "lat": 1.3112678,
      "lng": 99.6424872
    },
    {
      "suburb": {
        "id": 6663,
        "name": "Barumun Tengah",
        "lat": 1.3655295,
        "lng": 99.745565
      },
      "city": {
        "id": 449,
        "name": "Padang Lawas",
        "lat": 1.1186977,
        "lng": 99.8124935
      },
      "province": {
        "id": 34,
        "name": "Sumatera Utara",
        "lat": 2.0108563,
        "lng": 98.9784887
      },
      "country": {
        "id": 228,
        "name": "INDONESIA",
        "code": "ID"
      },
      "id": 77090,
      "name": "Janji Raja",
      "postcode": "22755",
      "lat": 1.3556989,
      "lng": 99.8236533
    },
    {
      "suburb": {
        "id": 6663,
        "name": "Barumun Tengah",
        "lat": 1.3655295,
        "lng": 99.745565
      },
      "city": {
        "id": 449,
        "name": "Padang Lawas",
        "lat": 1.1186977,
        "lng": 99.8124935
      },
      "province": {
        "id": 34,
        "name": "Sumatera Utara",
        "lat": 2.0108563,
        "lng": 98.9784887
      },
      "country": {
        "id": 228,
        "name": "INDONESIA",
        "code": "ID"
      },
      "id": 77091,
      "name": "Janji Matogu Ur",
      "postcode": "22755",
      "lat": 1.3950641,
      "lng": 99.7943618
    },
    {
      "suburb": {
        "id": 6665,
        "name": "Aek Nabara Barumun",
        "lat": 1.2515284,
        "lng": 99.745565
      },
      "city": {
        "id": 449,
        "name": "Padang Lawas",
        "lat": 1.1186977,
        "lng": 99.8124935
      },
      "province": {
        "id": 34,
        "name": "Sumatera Utara",
        "lat": 2.0108563,
        "lng": 98.9784887
      },
      "country": {
        "id": 228,
        "name": "INDONESIA",
        "code": "ID"
      },
      "id": 77092,
      "name": "Janji Maria",
      "postcode": "22755",
      "lat": 1.3132183,
      "lng": 99.7511404
    },
    {
      "suburb": {
        "id": 6663,
        "name": "Barumun Tengah",
        "lat": 1.3655295,
        "lng": 99.745565
      },
      "city": {
        "id": 449,
        "name": "Padang Lawas",
        "lat": 1.1186977,
        "lng": 99.8124935
      },
      "province": {
        "id": 34,
        "name": "Sumatera Utara",
        "lat": 2.0108563,
        "lng": 98.9784887
      },
      "country": {
        "id": 228,
        "name": "INDONESIA",
        "code": "ID"
      },
      "id": 77093,
      "name": "Janji Manahan",
      "postcode": "22755",
      "lat": 1.4154204,
      "lng": 99.7650804
    },
    {
      "suburb": {
        "id": 6663,
        "name": "Barumun Tengah",
        "lat": 1.3655295,
        "lng": 99.745565
      },
      "city": {
        "id": 449,
        "name": "Padang Lawas",
        "lat": 1.1186977,
        "lng": 99.8124935
      },
      "province": {
        "id": 34,
        "name": "Sumatera Utara",
        "lat": 2.0108563,
        "lng": 98.9784887
      },
      "country": {
        "id": 228,
        "name": "INDONESIA",
        "code": "ID"
      },
      "id": 77094,
      "name": "Huta Ruhom",
      "postcode": "22755",
      "lat": 1.3491431,
      "lng": 99.6814748
    },
    {
      "suburb": {
        "id": 6665,
        "name": "Aek Nabara Barumun",
        "lat": 1.2515284,
        "lng": 99.745565
      },
      "city": {
        "id": 449,
        "name": "Padang Lawas",
        "lat": 1.1186977,
        "lng": 99.8124935
      },
      "province": {
        "id": 34,
        "name": "Sumatera Utara",
        "lat": 2.0108563,
        "lng": 98.9784887
      },
      "country": {
        "id": 228,
        "name": "INDONESIA",
        "code": "ID"
      },
      "id": 77095,
      "name": "Huta Bargot",
      "postcode": "22755",
      "lat": 1.3156485,
      "lng": 99.7372027
    },
    {
      "suburb": {
        "id": 6665,
        "name": "Aek Nabara Barumun",
        "lat": 1.2515284,
        "lng": 99.745565
      },
      "city": {
        "id": 449,
        "name": "Padang Lawas",
        "lat": 1.1186977,
        "lng": 99.8124935
      },
      "province": {
        "id": 34,
        "name": "Sumatera Utara",
        "lat": 2.0108563,
        "lng": 98.9784887
      },
      "country": {
        "id": 228,
        "name": "INDONESIA",
        "code": "ID"
      },
      "id": 77096,
      "name": "Hadungdung Pintu Padang",
      "postcode": "22755",
      "lat": 1.282405,
      "lng": 99.7372027
    },
    {
      "suburb": {
        "id": 6665,
        "name": "Aek Nabara Barumun",
        "lat": 1.2515284,
        "lng": 99.745565
      },
      "city": {
        "id": 449,
        "name": "Padang Lawas",
        "lat": 1.1186977,
        "lng": 99.8124935
      },
      "province": {
        "id": 34,
        "name": "Sumatera Utara",
        "lat": 2.0108563,
        "lng": 98.9784887
      },
      "country": {
        "id": 228,
        "name": "INDONESIA",
        "code": "ID"
      },
      "id": 77097,
      "name": "Hadungdung Aek Rampa",
      "postcode": "22755",
      "lat": 1.2515284,
      "lng": 99.745565
    },
    {
      "suburb": {
        "id": 6663,
        "name": "Barumun Tengah",
        "lat": 1.3655295,
        "lng": 99.745565
      },
      "city": {
        "id": 449,
        "name": "Padang Lawas",
        "lat": 1.1186977,
        "lng": 99.8124935
      },
      "province": {
        "id": 34,
        "name": "Sumatera Utara",
        "lat": 2.0108563,
        "lng": 98.9784887
      },
      "country": {
        "id": 228,
        "name": "INDONESIA",
        "code": "ID"
      },
      "id": 77098,
      "name": "Gunung Manaon Ur",
      "postcode": "22755",
      "lat": 1.377905,
      "lng": 99.7727484
    },
    {
      "suburb": {
        "id": 6663,
        "name": "Barumun Tengah",
        "lat": 1.3655295,
        "lng": 99.745565
      },
      "city": {
        "id": 449,
        "name": "Padang Lawas",
        "lat": 1.1186977,
        "lng": 99.8124935
      },
      "province": {
        "id": 34,
        "name": "Sumatera Utara",
        "lat": 2.0108563,
        "lng": 98.9784887
      },
      "country": {
        "id": 228,
        "name": "INDONESIA",
        "code": "ID"
      },
      "id": 77099,
      "name": "Gunung Malintang",
      "postcode": "22755",
      "lat": 1.4093442,
      "lng": 99.7943618
    },
    {
      "suburb": {
        "id": 6663,
        "name": "Barumun Tengah",
        "lat": 1.3655295,
        "lng": 99.745565
      },
      "city": {
        "id": 449,
        "name": "Padang Lawas",
        "lat": 1.1186977,
        "lng": 99.8124935
      },
      "province": {
        "id": 34,
        "name": "Sumatera Utara",
        "lat": 2.0108563,
        "lng": 98.9784887
      },
      "country": {
        "id": 228,
        "name": "INDONESIA",
        "code": "ID"
      },
      "id": 77100,
      "name": "Gunung Baringin",
      "postcode": "22755",
      "lat": 1.3914538,
      "lng": 99.8041245
    },
    {
      "suburb": {
        "id": 6664,
        "name": "Sihapas Barumun",
        "lat": 1.2992934,
        "lng": 99.6675486
      },
      "city": {
        "id": 449,
        "name": "Padang Lawas",
        "lat": 1.1186977,
        "lng": 99.8124935
      },
      "province": {
        "id": 34,
        "name": "Sumatera Utara",
        "lat": 2.0108563,
        "lng": 98.9784887
      },
      "country": {
        "id": 228,
        "name": "INDONESIA",
        "code": "ID"
      },
      "id": 77101,
      "name": "Gulangan",
      "postcode": "22755",
      "lat": 1.2825971,
      "lng": 99.6870459
    },
    {
      "suburb": {
        "id": 6663,
        "name": "Barumun Tengah",
        "lat": 1.3655295,
        "lng": 99.745565
      },
      "city": {
        "id": 449,
        "name": "Padang Lawas",
        "lat": 1.1186977,
        "lng": 99.8124935
      },
      "province": {
        "id": 34,
        "name": "Sumatera Utara",
        "lat": 2.0108563,
        "lng": 98.9784887
      },
      "country": {
        "id": 228,
        "name": "INDONESIA",
        "code": "ID"
      },
      "id": 77102,
      "name": "Ginduang Batu",
      "postcode": "22755",
      "lat": 1.3488511,
      "lng": 99.7539282
    },
    {
      "suburb": {
        "id": 6663,
        "name": "Barumun Tengah",
        "lat": 1.3655295,
        "lng": 99.745565
      },
      "city": {
        "id": 449,
        "name": "Padang Lawas",
        "lat": 1.1186977,
        "lng": 99.8124935
      },
      "province": {
        "id": 34,
        "name": "Sumatera Utara",
        "lat": 2.0108563,
        "lng": 98.9784887
      },
      "country": {
        "id": 228,
        "name": "INDONESIA",
        "code": "ID"
      },
      "id": 77103,
      "name": "Gading",
      "postcode": "22755",
      "lat": 1.3134371,
      "lng": 99.6954033
    },
    {
      "suburb": {
        "id": 6663,
        "name": "Barumun Tengah",
        "lat": 1.3655295,
        "lng": 99.745565
      },
      "city": {
        "id": 449,
        "name": "Padang Lawas",
        "lat": 1.1186977,
        "lng": 99.8124935
      },
      "province": {
        "id": 34,
        "name": "Sumatera Utara",
        "lat": 2.0108563,
        "lng": 98.9784887
      },
      "country": {
        "id": 228,
        "name": "INDONESIA",
        "code": "ID"
      },
      "id": 77104,
      "name": "Binanga",
      "postcode": "22755",
      "lat": 1.4094388,
      "lng": 99.7720512
    },
    {
      "suburb": {
        "id": 6663,
        "name": "Barumun Tengah",
        "lat": 1.3655295,
        "lng": 99.745565
      },
      "city": {
        "id": 449,
        "name": "Padang Lawas",
        "lat": 1.1186977,
        "lng": 99.8124935
      },
      "province": {
        "id": 34,
        "name": "Sumatera Utara",
        "lat": 2.0108563,
        "lng": 98.9784887
      },
      "country": {
        "id": 228,
        "name": "INDONESIA",
        "code": "ID"
      },
      "id": 77105,
      "name": "Bire",
      "postcode": "22755",
      "lat": 1.3430931,
      "lng": 99.707941
    },
    {
      "suburb": {
        "id": 6663,
        "name": "Barumun Tengah",
        "lat": 1.3655295,
        "lng": 99.745565
      },
      "city": {
        "id": 449,
        "name": "Padang Lawas",
        "lat": 1.1186977,
        "lng": 99.8124935
      },
      "province": {
        "id": 34,
        "name": "Sumatera Utara",
        "lat": 2.0108563,
        "lng": 98.9784887
      },
      "country": {
        "id": 228,
        "name": "INDONESIA",
        "code": "ID"
      },
      "id": 77106,
      "name": "Batu Sundung",
      "postcode": "22755",
      "lat": 1.3347458,
      "lng": 99.7149071
    },
    {
      "suburb": {
        "id": 6663,
        "name": "Barumun Tengah",
        "lat": 1.3655295,
        "lng": 99.745565
      },
      "city": {
        "id": 449,
        "name": "Padang Lawas",
        "lat": 1.1186977,
        "lng": 99.8124935
      },
      "province": {
        "id": 34,
        "name": "Sumatera Utara",
        "lat": 2.0108563,
        "lng": 98.9784887
      },
      "country": {
        "id": 228,
        "name": "INDONESIA",
        "code": "ID"
      },
      "id": 77107,
      "name": "Bara Batu",
      "postcode": "22755",
      "lat": 1.3416413,
      "lng": 99.7734455
    },
    {
      "suburb": {
        "id": 6664,
        "name": "Sihapas Barumun",
        "lat": 1.2992934,
        "lng": 99.6675486
      },
      "city": {
        "id": 449,
        "name": "Padang Lawas",
        "lat": 1.1186977,
        "lng": 99.8124935
      },
      "province": {
        "id": 34,
        "name": "Sumatera Utara",
        "lat": 2.0108563,
        "lng": 98.9784887
      },
      "country": {
        "id": 228,
        "name": "INDONESIA",
        "code": "ID"
      },
      "id": 77108,
      "name": "Balangka",
      "postcode": "22755",
      "lat": 1.3396996,
      "lng": 99.6647636
    },
    {
      "suburb": {
        "id": 6665,
        "name": "Aek Nabara Barumun",
        "lat": 1.2515284,
        "lng": 99.745565
      },
      "city": {
        "id": 449,
        "name": "Padang Lawas",
        "lat": 1.1186977,
        "lng": 99.8124935
      },
      "province": {
        "id": 34,
        "name": "Sumatera Utara",
        "lat": 2.0108563,
        "lng": 98.9784887
      },
      "country": {
        "id": 228,
        "name": "INDONESIA",
        "code": "ID"
      },
      "id": 77109,
      "name": "Bangkuang",
      "postcode": "22755",
      "lat": 1.2860673,
      "lng": 99.7107273
    },
    {
      "suburb": {
        "id": 6663,
        "name": "Barumun Tengah",
        "lat": 1.3655295,
        "lng": 99.745565
      },
      "city": {
        "id": 449,
        "name": "Padang Lawas",
        "lat": 1.1186977,
        "lng": 99.8124935
      },
      "province": {
        "id": 34,
        "name": "Sumatera Utara",
        "lat": 2.0108563,
        "lng": 98.9784887
      },
      "country": {
        "id": 228,
        "name": "INDONESIA",
        "code": "ID"
      },
      "id": 77110,
      "name": "Bakkudu (Bangkudu)",
      "postcode": "22755",
      "lat": 1.4296608,
      "lng": 99.776234
    },
    {
      "suburb": {
        "id": 6663,
        "name": "Barumun Tengah",
        "lat": 1.3655295,
        "lng": 99.745565
      },
      "city": {
        "id": 449,
        "name": "Padang Lawas",
        "lat": 1.1186977,
        "lng": 99.8124935
      },
      "province": {
        "id": 34,
        "name": "Sumatera Utara",
        "lat": 2.0108563,
        "lng": 98.9784887
      },
      "country": {
        "id": 228,
        "name": "INDONESIA",
        "code": "ID"
      },
      "id": 77111,
      "name": "Bahal Batu",
      "postcode": "22755",
      "lat": 1.3708151,
      "lng": 99.7615952
    },
    {
      "suburb": {
        "id": 6663,
        "name": "Barumun Tengah",
        "lat": 1.3655295,
        "lng": 99.745565
      },
      "city": {
        "id": 449,
        "name": "Padang Lawas",
        "lat": 1.1186977,
        "lng": 99.8124935
      },
      "province": {
        "id": 34,
        "name": "Sumatera Utara",
        "lat": 2.0108563,
        "lng": 98.9784887
      },
      "country": {
        "id": 228,
        "name": "INDONESIA",
        "code": "ID"
      },
      "id": 77112,
      "name": "Aek Tunjang",
      "postcode": "22755",
      "lat": 1.391524,
      "lng": 99.7873891
    },
    {
      "suburb": {
        "id": 6663,
        "name": "Barumun Tengah",
        "lat": 1.3655295,
        "lng": 99.745565
      },
      "city": {
        "id": 449,
        "name": "Padang Lawas",
        "lat": 1.1186977,
        "lng": 99.8124935
      },
      "province": {
        "id": 34,
        "name": "Sumatera Utara",
        "lat": 2.0108563,
        "lng": 98.9784887
      },
      "country": {
        "id": 228,
        "name": "INDONESIA",
        "code": "ID"
      },
      "id": 77113,
      "name": "Aek Siala",
      "postcode": "22755",
      "lat": 1.3727451,
      "lng": 99.7260542
    },
    {
      "suburb": {
        "id": 6663,
        "name": "Barumun Tengah",
        "lat": 1.3655295,
        "lng": 99.745565
      },
      "city": {
        "id": 449,
        "name": "Padang Lawas",
        "lat": 1.1186977,
        "lng": 99.8124935
      },
      "province": {
        "id": 34,
        "name": "Sumatera Utara",
        "lat": 2.0108563,
        "lng": 98.9784887
      },
      "country": {
        "id": 228,
        "name": "INDONESIA",
        "code": "ID"
      },
      "id": 77114,
      "name": "Aek Tanduk",
      "postcode": "22755",
      "lat": 1.4212839,
      "lng": 99.7859947
    },
    {
      "suburb": {
        "id": 6665,
        "name": "Aek Nabara Barumun",
        "lat": 1.2515284,
        "lng": 99.745565
      },
      "city": {
        "id": 449,
        "name": "Padang Lawas",
        "lat": 1.1186977,
        "lng": 99.8124935
      },
      "province": {
        "id": 34,
        "name": "Sumatera Utara",
        "lat": 2.0108563,
        "lng": 98.9784887
      },
      "country": {
        "id": 228,
        "name": "INDONESIA",
        "code": "ID"
      },
      "id": 77115,
      "name": "Aek Nabara Tonga",
      "postcode": "22755",
      "lat": 1.2977874,
      "lng": 99.7497465
    },
    {
      "suburb": {
        "id": 6665,
        "name": "Aek Nabara Barumun",
        "lat": 1.2515284,
        "lng": 99.745565
      },
      "city": {
        "id": 449,
        "name": "Padang Lawas",
        "lat": 1.1186977,
        "lng": 99.8124935
      },
      "province": {
        "id": 34,
        "name": "Sumatera Utara",
        "lat": 2.0108563,
        "lng": 98.9784887
      },
      "country": {
        "id": 228,
        "name": "INDONESIA",
        "code": "ID"
      },
      "id": 77116,
      "name": "Aek Nabara Julu",
      "postcode": "22755",
      "lat": 1.306213,
      "lng": 99.7204805
    },
    {
      "suburb": {
        "id": 6665,
        "name": "Aek Nabara Barumun",
        "lat": 1.2515284,
        "lng": 99.745565
      },
      "city": {
        "id": 449,
        "name": "Padang Lawas",
        "lat": 1.1186977,
        "lng": 99.8124935
      },
      "province": {
        "id": 34,
        "name": "Sumatera Utara",
        "lat": 2.0108563,
        "lng": 98.9784887
      },
      "country": {
        "id": 228,
        "name": "INDONESIA",
        "code": "ID"
      },
      "id": 77117,
      "name": "Aek Nabara Jae",
      "postcode": "22755",
      "lat": 1.3129096,
      "lng": 99.8292338
    },
    {
      "suburb": {
        "id": 6664,
        "name": "Sihapas Barumun",
        "lat": 1.2992934,
        "lng": 99.6675486
      },
      "city": {
        "id": 449,
        "name": "Padang Lawas",
        "lat": 1.1186977,
        "lng": 99.8124935
      },
      "province": {
        "id": 34,
        "name": "Sumatera Utara",
        "lat": 2.0108563,
        "lng": 98.9784887
      },
      "country": {
        "id": 228,
        "name": "INDONESIA",
        "code": "ID"
      },
      "id": 77118,
      "name": "Aek Goti",
      "postcode": "22755",
      "lat": 1.2921368,
      "lng": 99.675904
    },
    {
      "suburb": {
        "id": 6665,
        "name": "Aek Nabara Barumun",
        "lat": 1.2515284,
        "lng": 99.745565
      },
      "city": {
        "id": 449,
        "name": "Padang Lawas",
        "lat": 1.1186977,
        "lng": 99.8124935
      },
      "province": {
        "id": 34,
        "name": "Sumatera Utara",
        "lat": 2.0108563,
        "lng": 98.9784887
      },
      "country": {
        "id": 228,
        "name": "INDONESIA",
        "code": "ID"
      },
      "id": 77119,
      "name": "Aek Buaton",
      "postcode": "22755",
      "lat": 1.3346568,
      "lng": 99.7372027
    },
    {
      "suburb": {
        "id": 6665,
        "name": "Aek Nabara Barumun",
        "lat": 1.2515284,
        "lng": 99.745565
      },
      "city": {
        "id": 449,
        "name": "Padang Lawas",
        "lat": 1.1186977,
        "lng": 99.8124935
      },
      "province": {
        "id": 34,
        "name": "Sumatera Utara",
        "lat": 2.0108563,
        "lng": 98.9784887
      },
      "country": {
        "id": 228,
        "name": "INDONESIA",
        "code": "ID"
      },
      "id": 77120,
      "name": "Aek Bonban",
      "postcode": "22755",
      "lat": 1.2541403,
      "lng": 99.6814748
    },
    {
      "suburb": {
        "id": 6666,
        "name": "Padang Bolak Julu",
        "lat": 1.4810114,
        "lng": 99.4783816
      },
      "city": {
        "id": 451,
        "name": "Padang Lawas Utara",
        "lat": 1.5758644,
        "lng": 99.634135
      },
      "province": {
        "id": 34,
        "name": "Sumatera Utara",
        "lat": 2.0108563,
        "lng": 98.9784887
      },
      "country": {
        "id": 228,
        "name": "INDONESIA",
        "code": "ID"
      },
      "id": 77121,
      "name": "Ubar",
      "postcode": "22753",
      "lat": 1.4285609,
      "lng": 99.4728244
    },
    {
      "suburb": {
        "id": 6667,
        "name": "Halongonan",
        "lat": 1.6134933,
        "lng": 99.7678687
      },
      "city": {
        "id": 451,
        "name": "Padang Lawas Utara",
        "lat": 1.5758644,
        "lng": 99.634135
      },
      "province": {
        "id": 34,
        "name": "Sumatera Utara",
        "lat": 2.0108563,
        "lng": 98.9784887
      },
      "country": {
        "id": 228,
        "name": "INDONESIA",
        "code": "ID"
      },
      "id": 77122,
      "name": "Ujung Padang",
      "postcode": "22753",
      "lat": 1.6348773,
      "lng": 99.7985457
    },
    {
      "suburb": {
        "id": 6668,
        "name": "Padang Sidempuan Hutaimbaru",
        "lat": 1.4295182,
        "lng": 99.2397606
      },
      "city": {
        "id": 452,
        "name": "Padang Sidempuan",
        "lat": 1.3721801,
        "lng": 99.2730146
      },
      "province": {
        "id": 34,
        "name": "Sumatera Utara",
        "lat": 2.0108563,
        "lng": 98.9784887
      },
      "country": {
        "id": 228,
        "name": "INDONESIA",
        "code": "ID"
      },
      "id": 77123,
      "name": "Tinjoman Lama",
      "postcode": "22753",
      "lat": 1.3721801,
      "lng": 99.2730146
    },
    {
      "suburb": {
        "id": 6667,
        "name": "Halongonan",
        "lat": 1.6134933,
        "lng": 99.7678687
      },
      "city": {
        "id": 451,
        "name": "Padang Lawas Utara",
        "lat": 1.5758644,
        "lng": 99.634135
      },
      "province": {
        "id": 34,
        "name": "Sumatera Utara",
        "lat": 2.0108563,
        "lng": 98.9784887
      },
      "country": {
        "id": 228,
        "name": "INDONESIA",
        "code": "ID"
      },
      "id": 77124,
      "name": "Tapus Jae",
      "postcode": "22753",
      "lat": 1.6669002,
      "lng": 99.6174332
    },
    {
      "suburb": {
        "id": 6669,
        "name": "Padang Bolak",
        "lat": 1.5378286,
        "lng": 99.5896043
      },
      "city": {
        "id": 451,
        "name": "Padang Lawas Utara",
        "lat": 1.5758644,
        "lng": 99.634135
      },
      "province": {
        "id": 34,
        "name": "Sumatera Utara",
        "lat": 2.0108563,
        "lng": 98.9784887
      },
      "country": {
        "id": 228,
        "name": "INDONESIA",
        "code": "ID"
      },
      "id": 77125,
      "name": "Tanjung Toram",
      "postcode": "22753",
      "lat": 1.5210457,
      "lng": 99.6035176
    },
    {
      "suburb": {
        "id": 6669,
        "name": "Padang Bolak",
        "lat": 1.5378286,
        "lng": 99.5896043
      },
      "city": {
        "id": 451,
        "name": "Padang Lawas Utara",
        "lat": 1.5758644,
        "lng": 99.634135
      },
      "province": {
        "id": 34,
        "name": "Sumatera Utara",
        "lat": 2.0108563,
        "lng": 98.9784887
      },
      "country": {
        "id": 228,
        "name": "INDONESIA",
        "code": "ID"
      },
      "id": 77126,
      "name": "Tanjung Marulak",
      "postcode": "22753",
      "lat": 1.6576966,
      "lng": 99.5395357
    },
    {
      "suburb": {
        "id": 6669,
        "name": "Padang Bolak",
        "lat": 1.5378286,
        "lng": 99.5896043
      },
      "city": {
        "id": 451,
        "name": "Padang Lawas Utara",
        "lat": 1.5758644,
        "lng": 99.634135
      },
      "province": {
        "id": 34,
        "name": "Sumatera Utara",
        "lat": 2.0108563,
        "lng": 98.9784887
      },
      "country": {
        "id": 228,
        "name": "INDONESIA",
        "code": "ID"
      },
      "id": 77127,
      "name": "Tangga Tangga Hambeng",
      "postcode": "22753",
      "lat": 1.4450039,
      "lng": 99.5311939
    },
    {
      "suburb": {
        "id": 6669,
        "name": "Padang Bolak",
        "lat": 1.5378286,
        "lng": 99.5896043
      },
      "city": {
        "id": 451,
        "name": "Padang Lawas Utara",
        "lat": 1.5758644,
        "lng": 99.634135
      },
      "province": {
        "id": 34,
        "name": "Sumatera Utara",
        "lat": 2.0108563,
        "lng": 98.9784887
      },
      "country": {
        "id": 228,
        "name": "INDONESIA",
        "code": "ID"
      },
      "id": 77128,
      "name": "Sunge Tolang",
      "postcode": "22753",
      "lat": 1.7462623,
      "lng": 99.5756934
    },
    {
      "suburb": {
        "id": 6669,
        "name": "Padang Bolak",
        "lat": 1.5378286,
        "lng": 99.5896043
      },
      "city": {
        "id": 451,
        "name": "Padang Lawas Utara",
        "lat": 1.5758644,
        "lng": 99.634135
      },
      "province": {
        "id": 34,
        "name": "Sumatera Utara",
        "lat": 2.0108563,
        "lng": 98.9784887
      },
      "country": {
        "id": 228,
        "name": "INDONESIA",
        "code": "ID"
      },
      "id": 77129,
      "name": "Sunge Orosan",
      "postcode": "22753",
      "lat": 1.5999123,
      "lng": 99.6063006
    },
    {
      "suburb": {
        "id": 6669,
        "name": "Padang Bolak",
        "lat": 1.5378286,
        "lng": 99.5896043
      },
      "city": {
        "id": 451,
        "name": "Padang Lawas Utara",
        "lat": 1.5758644,
        "lng": 99.634135
      },
      "province": {
        "id": 34,
        "name": "Sumatera Utara",
        "lat": 2.0108563,
        "lng": 98.9784887
      },
      "country": {
        "id": 228,
        "name": "INDONESIA",
        "code": "ID"
      },
      "id": 77130,
      "name": "Sunge Durian",
      "postcode": "22753",
      "lat": 1.5735642,
      "lng": 99.6146499
    },
    {
      "suburb": {
        "id": 6666,
        "name": "Padang Bolak Julu",
        "lat": 1.4810114,
        "lng": 99.4783816
      },
      "city": {
        "id": 451,
        "name": "Padang Lawas Utara",
        "lat": 1.5758644,
        "lng": 99.634135
      },
      "province": {
        "id": 34,
        "name": "Sumatera Utara",
        "lat": 2.0108563,
        "lng": 98.9784887
      },
      "country": {
        "id": 228,
        "name": "INDONESIA",
        "code": "ID"
      },
      "id": 77131,
      "name": "Sobar",
      "postcode": "22753",
      "lat": 1.3616045,
      "lng": 99.5395357
    },
    {
      "suburb": {
        "id": 6669,
        "name": "Padang Bolak",
        "lat": 1.5378286,
        "lng": 99.5896043
      },
      "city": {
        "id": 451,
        "name": "Padang Lawas Utara",
        "lat": 1.5758644,
        "lng": 99.634135
      },
      "province": {
        "id": 34,
        "name": "Sumatera Utara",
        "lat": 2.0108563,
        "lng": 98.9784887
      },
      "country": {
        "id": 228,
        "name": "INDONESIA",
        "code": "ID"
      },
      "id": 77132,
      "name": "Sosopan",
      "postcode": "22753",
      "lat": 1.5019208,
      "lng": 99.6090836
    },
    {
      "suburb": {
        "id": 6669,
        "name": "Padang Bolak",
        "lat": 1.5378286,
        "lng": 99.5896043
      },
      "city": {
        "id": 451,
        "name": "Padang Lawas Utara",
        "lat": 1.5758644,
        "lng": 99.634135
      },
      "province": {
        "id": 34,
        "name": "Sumatera Utara",
        "lat": 2.0108563,
        "lng": 98.9784887
      },
      "country": {
        "id": 228,
        "name": "INDONESIA",
        "code": "ID"
      },
      "id": 77133,
      "name": "Siunggam Jae",
      "postcode": "22753",
      "lat": 1.4068043,
      "lng": 99.5478784
    },
    {
      "suburb": {
        "id": 6669,
        "name": "Padang Bolak",
        "lat": 1.5378286,
        "lng": 99.5896043
      },
      "city": {
        "id": 451,
        "name": "Padang Lawas Utara",
        "lat": 1.5758644,
        "lng": 99.634135
      },
      "province": {
        "id": 34,
        "name": "Sumatera Utara",
        "lat": 2.0108563,
        "lng": 98.9784887
      },
      "country": {
        "id": 228,
        "name": "INDONESIA",
        "code": "ID"
      },
      "id": 77134,
      "name": "Siunggam Julu",
      "postcode": "22753",
      "lat": 1.4305841,
      "lng": 99.5590033
    },
    {
      "suburb": {
        "id": 6669,
        "name": "Padang Bolak",
        "lat": 1.5378286,
        "lng": 99.5896043
      },
      "city": {
        "id": 451,
        "name": "Padang Lawas Utara",
        "lat": 1.5758644,
        "lng": 99.634135
      },
      "province": {
        "id": 34,
        "name": "Sumatera Utara",
        "lat": 2.0108563,
        "lng": 98.9784887
      },
      "country": {
        "id": 228,
        "name": "INDONESIA",
        "code": "ID"
      },
      "id": 77135,
      "name": "Siunggam Tonga",
      "postcode": "22753",
      "lat": 1.4211218,
      "lng": 99.5423165
    },
    {
      "suburb": {
        "id": 6666,
        "name": "Padang Bolak Julu",
        "lat": 1.4810114,
        "lng": 99.4783816
      },
      "city": {
        "id": 451,
        "name": "Padang Lawas Utara",
        "lat": 1.5758644,
        "lng": 99.634135
      },
      "province": {
        "id": 34,
        "name": "Sumatera Utara",
        "lat": 2.0108563,
        "lng": 98.9784887
      },
      "country": {
        "id": 228,
        "name": "INDONESIA",
        "code": "ID"
      },
      "id": 77136,
      "name": "Siunggam Dolok",
      "postcode": "22753",
      "lat": 1.5624121,
      "lng": 99.4394889
    },
    {
      "suburb": {
        "id": 6667,
        "name": "Halongonan",
        "lat": 1.6134933,
        "lng": 99.7678687
      },
      "city": {
        "id": 451,
        "name": "Padang Lawas Utara",
        "lat": 1.5758644,
        "lng": 99.634135
      },
      "province": {
        "id": 34,
        "name": "Sumatera Utara",
        "lat": 2.0108563,
        "lng": 98.9784887
      },
      "country": {
        "id": 228,
        "name": "INDONESIA",
        "code": "ID"
      },
      "id": 77137,
      "name": "Sitonun (Sitenun)",
      "postcode": "22753",
      "lat": 1.6090581,
      "lng": 99.6954033
    },
    {
      "suburb": {
        "id": 6667,
        "name": "Halongonan",
        "lat": 1.6134933,
        "lng": 99.7678687
      },
      "city": {
        "id": 451,
        "name": "Padang Lawas Utara",
        "lat": 1.5758644,
        "lng": 99.634135
      },
      "province": {
        "id": 34,
        "name": "Sumatera Utara",
        "lat": 2.0108563,
        "lng": 98.9784887
      },
      "country": {
        "id": 228,
        "name": "INDONESIA",
        "code": "ID"
      },
      "id": 77138,
      "name": "Situmbaga",
      "postcode": "22753",
      "lat": 1.6367306,
      "lng": 99.9073986
    },
    {
      "suburb": {
        "id": 6666,
        "name": "Padang Bolak Julu",
        "lat": 1.4810114,
        "lng": 99.4783816
      },
      "city": {
        "id": 451,
        "name": "Padang Lawas Utara",
        "lat": 1.5758644,
        "lng": 99.634135
      },
      "province": {
        "id": 34,
        "name": "Sumatera Utara",
        "lat": 2.0108563,
        "lng": 98.9784887
      },
      "country": {
        "id": 228,
        "name": "INDONESIA",
        "code": "ID"
      },
      "id": 77139,
      "name": "Sitanggoru",
      "postcode": "22753",
      "lat": 1.6005902,
      "lng": 99.4617111
    },
    {
      "suburb": {
        "id": 6667,
        "name": "Halongonan",
        "lat": 1.6134933,
        "lng": 99.7678687
      },
      "city": {
        "id": 451,
        "name": "Padang Lawas Utara",
        "lat": 1.5758644,
        "lng": 99.634135
      },
      "province": {
        "id": 34,
        "name": "Sumatera Utara",
        "lat": 2.0108563,
        "lng": 98.9784887
      },
      "country": {
        "id": 228,
        "name": "INDONESIA",
        "code": "ID"
      },
      "id": 77140,
      "name": "Sitabola",
      "postcode": "22753",
      "lat": 1.5659385,
      "lng": 99.7121206
    },
    {
      "suburb": {
        "id": 6666,
        "name": "Padang Bolak Julu",
        "lat": 1.4810114,
        "lng": 99.4783816
      },
      "city": {
        "id": 451,
        "name": "Padang Lawas Utara",
        "lat": 1.5758644,
        "lng": 99.634135
      },
      "province": {
        "id": 34,
        "name": "Sumatera Utara",
        "lat": 2.0108563,
        "lng": 98.9784887
      },
      "country": {
        "id": 228,
        "name": "INDONESIA",
        "code": "ID"
      },
      "id": 77141,
      "name": "Sipupus Lombang",
      "postcode": "22753",
      "lat": 1.3926736,
      "lng": 99.508953
    },
    {
      "suburb": {
        "id": 6667,
        "name": "Halongonan",
        "lat": 1.6134933,
        "lng": 99.7678687
      },
      "city": {
        "id": 451,
        "name": "Padang Lawas Utara",
        "lat": 1.5758644,
        "lng": 99.634135
      },
      "province": {
        "id": 34,
        "name": "Sumatera Utara",
        "lat": 2.0108563,
        "lng": 98.9784887
      },
      "country": {
        "id": 228,
        "name": "INDONESIA",
        "code": "ID"
      },
      "id": 77142,
      "name": "Siringkit Jae",
      "postcode": "22753",
      "lat": 1.6397189,
      "lng": 99.7873891
    },
    {
      "suburb": {
        "id": 6667,
        "name": "Halongonan",
        "lat": 1.6134933,
        "lng": 99.7678687
      },
      "city": {
        "id": 451,
        "name": "Padang Lawas Utara",
        "lat": 1.5758644,
        "lng": 99.634135
      },
      "province": {
        "id": 34,
        "name": "Sumatera Utara",
        "lat": 2.0108563,
        "lng": 98.9784887
      },
      "country": {
        "id": 228,
        "name": "INDONESIA",
        "code": "ID"
      },
      "id": 77143,
      "name": "Siringkit Julu",
      "postcode": "22753",
      "lat": 1.656435,
      "lng": 99.7957564
    },
    {
      "suburb": {
        "id": 6667,
        "name": "Halongonan",
        "lat": 1.6134933,
        "lng": 99.7678687
      },
      "city": {
        "id": 451,
        "name": "Padang Lawas Utara",
        "lat": 1.5758644,
        "lng": 99.634135
      },
      "province": {
        "id": 34,
        "name": "Sumatera Utara",
        "lat": 2.0108563,
        "lng": 98.9784887
      },
      "country": {
        "id": 228,
        "name": "INDONESIA",
        "code": "ID"
      },
      "id": 77144,
      "name": "Siopuk/Sihopuk Lama",
      "postcode": "22753",
      "lat": 1.5794033,
      "lng": 99.8962279
    },
    {
      "suburb": {
        "id": 6667,
        "name": "Halongonan",
        "lat": 1.6134933,
        "lng": 99.7678687
      },
      "city": {
        "id": 451,
        "name": "Padang Lawas Utara",
        "lat": 1.5758644,
        "lng": 99.634135
      },
      "province": {
        "id": 34,
        "name": "Sumatera Utara",
        "lat": 2.0108563,
        "lng": 98.9784887
      },
      "country": {
        "id": 228,
        "name": "INDONESIA",
        "code": "ID"
      },
      "id": 77145,
      "name": "Sipaho",
      "postcode": "22753",
      "lat": 1.6180878,
      "lng": 99.8069141
    },
    {
      "suburb": {
        "id": 6667,
        "name": "Halongonan",
        "lat": 1.6134933,
        "lng": 99.7678687
      },
      "city": {
        "id": 451,
        "name": "Padang Lawas Utara",
        "lat": 1.5758644,
        "lng": 99.634135
      },
      "province": {
        "id": 34,
        "name": "Sumatera Utara",
        "lat": 2.0108563,
        "lng": 98.9784887
      },
      "country": {
        "id": 228,
        "name": "INDONESIA",
        "code": "ID"
      },
      "id": 77146,
      "name": "Sipenggeng",
      "postcode": "22753",
      "lat": 1.5514206,
      "lng": 99.7511404
    },
    {
      "suburb": {
        "id": 6667,
        "name": "Halongonan",
        "lat": 1.6134933,
        "lng": 99.7678687
      },
      "city": {
        "id": 451,
        "name": "Padang Lawas Utara",
        "lat": 1.5758644,
        "lng": 99.634135
      },
      "province": {
        "id": 34,
        "name": "Sumatera Utara",
        "lat": 2.0108563,
        "lng": 98.9784887
      },
      "country": {
        "id": 228,
        "name": "INDONESIA",
        "code": "ID"
      },
      "id": 77147,
      "name": "Siopuk/Sihopuk Baru",
      "postcode": "22753",
      "lat": 1.5891235,
      "lng": 99.8627243
    },
    {
      "suburb": {
        "id": 6668,
        "name": "Padang Sidempuan Hutaimbaru",
        "lat": 1.4295182,
        "lng": 99.2397606
      },
      "city": {
        "id": 452,
        "name": "Padang Sidempuan",
        "lat": 1.3721801,
        "lng": 99.2730146
      },
      "province": {
        "id": 34,
        "name": "Sumatera Utara",
        "lat": 2.0108563,
        "lng": 98.9784887
      },
      "country": {
        "id": 228,
        "name": "INDONESIA",
        "code": "ID"
      },
      "id": 77148,
      "name": "Singali",
      "postcode": "22753",
      "lat": 1.4163621,
      "lng": 99.2494583
    },
    {
      "suburb": {
        "id": 6669,
        "name": "Padang Bolak",
        "lat": 1.5378286,
        "lng": 99.5896043
      },
      "city": {
        "id": 451,
        "name": "Padang Lawas Utara",
        "lat": 1.5758644,
        "lng": 99.634135
      },
      "province": {
        "id": 34,
        "name": "Sumatera Utara",
        "lat": 2.0108563,
        "lng": 98.9784887
      },
      "country": {
        "id": 228,
        "name": "INDONESIA",
        "code": "ID"
      },
      "id": 77149,
      "name": "Siombob",
      "postcode": "22753",
      "lat": 1.6866253,
      "lng": 99.5061733
    },
    {
      "suburb": {
        "id": 6669,
        "name": "Padang Bolak",
        "lat": 1.5378286,
        "lng": 99.5896043
      },
      "city": {
        "id": 451,
        "name": "Padang Lawas Utara",
        "lat": 1.5758644,
        "lng": 99.634135
      },
      "province": {
        "id": 34,
        "name": "Sumatera Utara",
        "lat": 2.0108563,
        "lng": 98.9784887
      },
      "country": {
        "id": 228,
        "name": "INDONESIA",
        "code": "ID"
      },
      "id": 77150,
      "name": "Simasi",
      "postcode": "22753",
      "lat": 1.7318877,
      "lng": 99.5701296
    },
    {
      "suburb": {
        "id": 6669,
        "name": "Padang Bolak",
        "lat": 1.5378286,
        "lng": 99.5896043
      },
      "city": {
        "id": 451,
        "name": "Padang Lawas Utara",
        "lat": 1.5758644,
        "lng": 99.634135
      },
      "province": {
        "id": 34,
        "name": "Sumatera Utara",
        "lat": 2.0108563,
        "lng": 98.9784887
      },
      "country": {
        "id": 228,
        "name": "INDONESIA",
        "code": "ID"
      },
      "id": 77151,
      "name": "Simbolon",
      "postcode": "22753",
      "lat": 1.5304479,
      "lng": 99.636919
    },
    {
      "suburb": {
        "id": 6667,
        "name": "Halongonan",
        "lat": 1.6134933,
        "lng": 99.7678687
      },
      "city": {
        "id": 451,
        "name": "Padang Lawas Utara",
        "lat": 1.5758644,
        "lng": 99.634135
      },
      "province": {
        "id": 34,
        "name": "Sumatera Utara",
        "lat": 2.0108563,
        "lng": 98.9784887
      },
      "country": {
        "id": 228,
        "name": "INDONESIA",
        "code": "ID"
      },
      "id": 77152,
      "name": "Silantoyung",
      "postcode": "22753",
      "lat": 1.6184672,
      "lng": 99.7288412
    },
    {
      "suburb": {
        "id": 6669,
        "name": "Padang Bolak",
        "lat": 1.5378286,
        "lng": 99.5896043
      },
      "city": {
        "id": 451,
        "name": "Padang Lawas Utara",
        "lat": 1.5758644,
        "lng": 99.634135
      },
      "province": {
        "id": 34,
        "name": "Sumatera Utara",
        "lat": 2.0108563,
        "lng": 98.9784887
      },
      "country": {
        "id": 228,
        "name": "INDONESIA",
        "code": "ID"
      },
      "id": 77153,
      "name": "Simaninggir",
      "postcode": "22753",
      "lat": 1.390077,
      "lng": 99.5617847
    },
    {
      "suburb": {
        "id": 6669,
        "name": "Padang Bolak",
        "lat": 1.5378286,
        "lng": 99.5896043
      },
      "city": {
        "id": 451,
        "name": "Padang Lawas Utara",
        "lat": 1.5758644,
        "lng": 99.634135
      },
      "province": {
        "id": 34,
        "name": "Sumatera Utara",
        "lat": 2.0108563,
        "lng": 98.9784887
      },
      "country": {
        "id": 228,
        "name": "INDONESIA",
        "code": "ID"
      },
      "id": 77154,
      "name": "Simanosor",
      "postcode": "22753",
      "lat": 1.4756361,
      "lng": 99.6174332
    },
    {
      "suburb": {
        "id": 6669,
        "name": "Padang Bolak",
        "lat": 1.5378286,
        "lng": 99.5896043
      },
      "city": {
        "id": 451,
        "name": "Padang Lawas Utara",
        "lat": 1.5758644,
        "lng": 99.634135
      },
      "province": {
        "id": 34,
        "name": "Sumatera Utara",
        "lat": 2.0108563,
        "lng": 98.9784887
      },
      "country": {
        "id": 228,
        "name": "INDONESIA",
        "code": "ID"
      },
      "id": 77155,
      "name": "Sihapas Hapas",
      "postcode": "22753",
      "lat": 1.7126347,
      "lng": 99.5812575
    },
    {
      "suburb": {
        "id": 6669,
        "name": "Padang Bolak",
        "lat": 1.5378286,
        "lng": 99.5896043
      },
      "city": {
        "id": 451,
        "name": "Padang Lawas Utara",
        "lat": 1.5758644,
        "lng": 99.634135
      },
      "province": {
        "id": 34,
        "name": "Sumatera Utara",
        "lat": 2.0108563,
        "lng": 98.9784887
      },
      "country": {
        "id": 228,
        "name": "INDONESIA",
        "code": "ID"
      },
      "id": 77156,
      "name": "Sihodahoda",
      "postcode": "22753",
      "lat": 1.4006376,
      "lng": 99.5993434
    },
    {
      "suburb": {
        "id": 6669,
        "name": "Padang Bolak",
        "lat": 1.5378286,
        "lng": 99.5896043
      },
      "city": {
        "id": 451,
        "name": "Padang Lawas Utara",
        "lat": 1.5758644,
        "lng": 99.634135
      },
      "province": {
        "id": 34,
        "name": "Sumatera Utara",
        "lat": 2.0108563,
        "lng": 98.9784887
      },
      "country": {
        "id": 228,
        "name": "INDONESIA",
        "code": "ID"
      },
      "id": 77157,
      "name": "Sigama Ujung Gading",
      "postcode": "22753",
      "lat": 1.4543043,
      "lng": 99.586822
    },
    {
      "suburb": {
        "id": 6669,
        "name": "Padang Bolak",
        "lat": 1.5378286,
        "lng": 99.5896043
      },
      "city": {
        "id": 451,
        "name": "Padang Lawas Utara",
        "lat": 1.5758644,
        "lng": 99.634135
      },
      "province": {
        "id": 34,
        "name": "Sumatera Utara",
        "lat": 2.0108563,
        "lng": 98.9784887
      },
      "country": {
        "id": 228,
        "name": "INDONESIA",
        "code": "ID"
      },
      "id": 77158,
      "name": "Sigimbal",
      "postcode": "22753",
      "lat": 1.6970232,
      "lng": 99.5854308
    },
    {
      "suburb": {
        "id": 6669,
        "name": "Padang Bolak",
        "lat": 1.5378286,
        "lng": 99.5896043
      },
      "city": {
        "id": 451,
        "name": "Padang Lawas Utara",
        "lat": 1.5758644,
        "lng": 99.634135
      },
      "province": {
        "id": 34,
        "name": "Sumatera Utara",
        "lat": 2.0108563,
        "lng": 98.9784887
      },
      "country": {
        "id": 228,
        "name": "INDONESIA",
        "code": "ID"
      },
      "id": 77159,
      "name": "Sigama",
      "postcode": "22753",
      "lat": 1.4733839,
      "lng": 99.586822
    },
    {
      "suburb": {
        "id": 6667,
        "name": "Halongonan",
        "lat": 1.6134933,
        "lng": 99.7678687
      },
      "city": {
        "id": 451,
        "name": "Padang Lawas Utara",
        "lat": 1.5758644,
        "lng": 99.634135
      },
      "province": {
        "id": 34,
        "name": "Sumatera Utara",
        "lat": 2.0108563,
        "lng": 98.9784887
      },
      "country": {
        "id": 228,
        "name": "INDONESIA",
        "code": "ID"
      },
      "id": 77160,
      "name": "Sigala-Gala",
      "postcode": "22753",
      "lat": 1.6394982,
      "lng": 99.8320242
    },
    {
      "suburb": {
        "id": 6667,
        "name": "Halongonan",
        "lat": 1.6134933,
        "lng": 99.7678687
      },
      "city": {
        "id": 451,
        "name": "Padang Lawas Utara",
        "lat": 1.5758644,
        "lng": 99.634135
      },
      "province": {
        "id": 34,
        "name": "Sumatera Utara",
        "lat": 2.0108563,
        "lng": 98.9784887
      },
      "country": {
        "id": 228,
        "name": "INDONESIA",
        "code": "ID"
      },
      "id": 77161,
      "name": "Siboru Angin",
      "postcode": "22753",
      "lat": 1.6761537,
      "lng": 99.6842603
    },
    {
      "suburb": {
        "id": 6669,
        "name": "Padang Bolak",
        "lat": 1.5378286,
        "lng": 99.5896043
      },
      "city": {
        "id": 451,
        "name": "Padang Lawas Utara",
        "lat": 1.5758644,
        "lng": 99.634135
      },
      "province": {
        "id": 34,
        "name": "Sumatera Utara",
        "lat": 2.0108563,
        "lng": 98.9784887
      },
      "country": {
        "id": 228,
        "name": "INDONESIA",
        "code": "ID"
      },
      "id": 77162,
      "name": "Sibatang Kayu",
      "postcode": "22753",
      "lat": 1.440071,
      "lng": 99.5701296
    },
    {
      "suburb": {
        "id": 6669,
        "name": "Padang Bolak",
        "lat": 1.5378286,
        "lng": 99.5896043
      },
      "city": {
        "id": 451,
        "name": "Padang Lawas Utara",
        "lat": 1.5758644,
        "lng": 99.634135
      },
      "province": {
        "id": 34,
        "name": "Sumatera Utara",
        "lat": 2.0108563,
        "lng": 98.9784887
      },
      "country": {
        "id": 228,
        "name": "INDONESIA",
        "code": "ID"
      },
      "id": 77163,
      "name": "Sidikkat (Sidingkat)",
      "postcode": "22753",
      "lat": 1.5043696,
      "lng": 99.5951694
    },
    {
      "suburb": {
        "id": 6667,
        "name": "Halongonan",
        "lat": 1.6134933,
        "lng": 99.7678687
      },
      "city": {
        "id": 451,
        "name": "Padang Lawas Utara",
        "lat": 1.5758644,
        "lng": 99.634135
      },
      "province": {
        "id": 34,
        "name": "Sumatera Utara",
        "lat": 2.0108563,
        "lng": 98.9784887
      },
      "country": {
        "id": 228,
        "name": "INDONESIA",
        "code": "ID"
      },
      "id": 77164,
      "name": "Siancimun",
      "postcode": "22753",
      "lat": 1.634574,
      "lng": 99.8599329
    },
    {
      "suburb": {
        "id": 6669,
        "name": "Padang Bolak",
        "lat": 1.5378286,
        "lng": 99.5896043
      },
      "city": {
        "id": 451,
        "name": "Padang Lawas Utara",
        "lat": 1.5758644,
        "lng": 99.634135
      },
      "province": {
        "id": 34,
        "name": "Sumatera Utara",
        "lat": 2.0108563,
        "lng": 98.9784887
      },
      "country": {
        "id": 228,
        "name": "INDONESIA",
        "code": "ID"
      },
      "id": 77165,
      "name": "Sibagasi",
      "postcode": "22753",
      "lat": 1.5639757,
      "lng": 99.6202166
    },
    {
      "suburb": {
        "id": 6666,
        "name": "Padang Bolak Julu",
        "lat": 1.4810114,
        "lng": 99.4783816
      },
      "city": {
        "id": 451,
        "name": "Padang Lawas Utara",
        "lat": 1.5758644,
        "lng": 99.634135
      },
      "province": {
        "id": 34,
        "name": "Sumatera Utara",
        "lat": 2.0108563,
        "lng": 98.9784887
      },
      "country": {
        "id": 228,
        "name": "INDONESIA",
        "code": "ID"
      },
      "id": 77166,
      "name": "Sialang",
      "postcode": "22753",
      "lat": 1.5525458,
      "lng": 99.5061733
    },
    {
      "suburb": {
        "id": 6667,
        "name": "Halongonan",
        "lat": 1.6134933,
        "lng": 99.7678687
      },
      "city": {
        "id": 451,
        "name": "Padang Lawas Utara",
        "lat": 1.5758644,
        "lng": 99.634135
      },
      "province": {
        "id": 34,
        "name": "Sumatera Utara",
        "lat": 2.0108563,
        "lng": 98.9784887
      },
      "country": {
        "id": 228,
        "name": "INDONESIA",
        "code": "ID"
      },
      "id": 77167,
      "name": "Sandean Tonga",
      "postcode": "22753",
      "lat": 1.647463,
      "lng": 99.6731188
    },
    {
      "suburb": {
        "id": 6667,
        "name": "Halongonan",
        "lat": 1.6134933,
        "lng": 99.7678687
      },
      "city": {
        "id": 451,
        "name": "Padang Lawas Utara",
        "lat": 1.5758644,
        "lng": 99.634135
      },
      "province": {
        "id": 34,
        "name": "Sumatera Utara",
        "lat": 2.0108563,
        "lng": 98.9784887
      },
      "country": {
        "id": 228,
        "name": "INDONESIA",
        "code": "ID"
      },
      "id": 77168,
      "name": "Sandean Jae",
      "postcode": "22753",
      "lat": 1.6281475,
      "lng": 99.7065478
    },
    {
      "suburb": {
        "id": 6667,
        "name": "Halongonan",
        "lat": 1.6134933,
        "lng": 99.7678687
      },
      "city": {
        "id": 451,
        "name": "Padang Lawas Utara",
        "lat": 1.5758644,
        "lng": 99.634135
      },
      "province": {
        "id": 34,
        "name": "Sumatera Utara",
        "lat": 2.0108563,
        "lng": 98.9784887
      },
      "country": {
        "id": 228,
        "name": "INDONESIA",
        "code": "ID"
      },
      "id": 77169,
      "name": "Sandean Julu",
      "postcode": "22753",
      "lat": 1.7049749,
      "lng": 99.6731188
    },
    {
      "suburb": {
        "id": 6668,
        "name": "Padang Sidempuan Hutaimbaru",
        "lat": 1.4295182,
        "lng": 99.2397606
      },
      "city": {
        "id": 452,
        "name": "Padang Sidempuan",
        "lat": 1.3721801,
        "lng": 99.2730146
      },
      "province": {
        "id": 34,
        "name": "Sumatera Utara",
        "lat": 2.0108563,
        "lng": 98.9784887
      },
      "country": {
        "id": 228,
        "name": "INDONESIA",
        "code": "ID"
      },
      "id": 77170,
      "name": "Sabungan Sipabangun",
      "postcode": "22753",
      "lat": 1.4176045,
      "lng": 99.23699
    },
    {
      "suburb": {
        "id": 6669,
        "name": "Padang Bolak",
        "lat": 1.5378286,
        "lng": 99.5896043
      },
      "city": {
        "id": 451,
        "name": "Padang Lawas Utara",
        "lat": 1.5758644,
        "lng": 99.634135
      },
      "province": {
        "id": 34,
        "name": "Sumatera Utara",
        "lat": 2.0108563,
        "lng": 98.9784887
      },
      "country": {
        "id": 228,
        "name": "INDONESIA",
        "code": "ID"
      },
      "id": 77171,
      "name": "Sampuran",
      "postcode": "22753",
      "lat": 1.5523435,
      "lng": 99.5506595
    },
    {
      "suburb": {
        "id": 6668,
        "name": "Padang Sidempuan Hutaimbaru",
        "lat": 1.4295182,
        "lng": 99.2397606
      },
      "city": {
        "id": 452,
        "name": "Padang Sidempuan",
        "lat": 1.3721801,
        "lng": 99.2730146
      },
      "province": {
        "id": 34,
        "name": "Sumatera Utara",
        "lat": 2.0108563,
        "lng": 98.9784887
      },
      "country": {
        "id": 228,
        "name": "INDONESIA",
        "code": "ID"
      },
      "id": 77172,
      "name": "Sabungan Jae",
      "postcode": "22753",
      "lat": 1.4092203,
      "lng": 99.2466874
    },
    {
      "suburb": {
        "id": 6669,
        "name": "Padang Bolak",
        "lat": 1.5378286,
        "lng": 99.5896043
      },
      "city": {
        "id": 451,
        "name": "Padang Lawas Utara",
        "lat": 1.5758644,
        "lng": 99.634135
      },
      "province": {
        "id": 34,
        "name": "Sumatera Utara",
        "lat": 2.0108563,
        "lng": 98.9784887
      },
      "country": {
        "id": 228,
        "name": "INDONESIA",
        "code": "ID"
      },
      "id": 77173,
      "name": "Saba Sitahul Tahul",
      "postcode": "22753",
      "lat": 1.492202,
      "lng": 99.6480557
    },
    {
      "suburb": {
        "id": 6669,
        "name": "Padang Bolak",
        "lat": 1.5378286,
        "lng": 99.5896043
      },
      "city": {
        "id": 451,
        "name": "Padang Lawas Utara",
        "lat": 1.5758644,
        "lng": 99.634135
      },
      "province": {
        "id": 34,
        "name": "Sumatera Utara",
        "lat": 2.0108563,
        "lng": 98.9784887
      },
      "country": {
        "id": 228,
        "name": "INDONESIA",
        "code": "ID"
      },
      "id": 77174,
      "name": "Saba Bangunan",
      "postcode": "22753",
      "lat": 1.5017228,
      "lng": 99.6536246
    },
    {
      "suburb": {
        "id": 6667,
        "name": "Halongonan",
        "lat": 1.6134933,
        "lng": 99.7678687
      },
      "city": {
        "id": 451,
        "name": "Padang Lawas Utara",
        "lat": 1.5758644,
        "lng": 99.634135
      },
      "province": {
        "id": 34,
        "name": "Sumatera Utara",
        "lat": 2.0108563,
        "lng": 98.9784887
      },
      "country": {
        "id": 228,
        "name": "INDONESIA",
        "code": "ID"
      },
      "id": 77175,
      "name": "Rondaman Siburegar",
      "postcode": "22753",
      "lat": 1.6279304,
      "lng": 99.7511404
    },
    {
      "suburb": {
        "id": 6667,
        "name": "Halongonan",
        "lat": 1.6134933,
        "lng": 99.7678687
      },
      "city": {
        "id": 451,
        "name": "Padang Lawas Utara",
        "lat": 1.5758644,
        "lng": 99.634135
      },
      "province": {
        "id": 34,
        "name": "Sumatera Utara",
        "lat": 2.0108563,
        "lng": 98.9784887
      },