{
  "metadata": {
    "path": "/v3/location/areas?limit=1000&page=9",
    "http_status_code": 200,
    "http_status": "OK",
    "timestamp": 1647334330
  },
  "data": [
    {
      "suburb": {
        "id": 816,
        "name": "Kalimanggis",
        "lat": -6.955215,
        "lng": 108.6235004
      },
      "city": {
        "id": 65,
        "name": "Kuningan",
        "lat": -7.0138053,
        "lng": 108.5700636
      },
      "province": {
        "id": 9,
        "name": "Jawa Barat",
        "lat": -7.090911,
        "lng": 107.668887
      },
      "country": {
        "id": 228,
        "name": "INDONESIA",
        "code": "ID"
      },
      "id": 8001,
      "name": "Wanasaraya",
      "postcode": "45594",
      "lat": -6.9313125,
      "lng": 108.6442835
    },
    {
      "suburb": {
        "id": 816,
        "name": "Kalimanggis",
        "lat": -6.955215,
        "lng": 108.6235004
      },
      "city": {
        "id": 65,
        "name": "Kuningan",
        "lat": -7.0138053,
        "lng": 108.5700636
      },
      "province": {
        "id": 9,
        "name": "Jawa Barat",
        "lat": -7.090911,
        "lng": 107.668887
      },
      "country": {
        "id": 228,
        "name": "INDONESIA",
        "code": "ID"
      },
      "id": 8002,
      "name": "Kertawana",
      "postcode": "45594",
      "lat": -6.9471659,
      "lng": 108.6324073
    },
    {
      "suburb": {
        "id": 816,
        "name": "Kalimanggis",
        "lat": -6.955215,
        "lng": 108.6235004
      },
      "city": {
        "id": 65,
        "name": "Kuningan",
        "lat": -7.0138053,
        "lng": 108.5700636
      },
      "province": {
        "id": 9,
        "name": "Jawa Barat",
        "lat": -7.090911,
        "lng": 107.668887
      },
      "country": {
        "id": 228,
        "name": "INDONESIA",
        "code": "ID"
      },
      "id": 8003,
      "name": "Kalimanggis Wetan",
      "postcode": "45594",
      "lat": -6.9543542,
      "lng": 108.6131093
    },
    {
      "suburb": {
        "id": 816,
        "name": "Kalimanggis",
        "lat": -6.955215,
        "lng": 108.6235004
      },
      "city": {
        "id": 65,
        "name": "Kuningan",
        "lat": -7.0138053,
        "lng": 108.5700636
      },
      "province": {
        "id": 9,
        "name": "Jawa Barat",
        "lat": -7.090911,
        "lng": 107.668887
      },
      "country": {
        "id": 228,
        "name": "INDONESIA",
        "code": "ID"
      },
      "id": 8004,
      "name": "Cipancur",
      "postcode": "45594",
      "lat": -6.9623022,
      "lng": 108.6383454
    },
    {
      "suburb": {
        "id": 816,
        "name": "Kalimanggis",
        "lat": -6.955215,
        "lng": 108.6235004
      },
      "city": {
        "id": 65,
        "name": "Kuningan",
        "lat": -7.0138053,
        "lng": 108.5700636
      },
      "province": {
        "id": 9,
        "name": "Jawa Barat",
        "lat": -7.090911,
        "lng": 107.668887
      },
      "country": {
        "id": 228,
        "name": "INDONESIA",
        "code": "ID"
      },
      "id": 8005,
      "name": "Kalimanggis Kulon",
      "postcode": "45594",
      "lat": -6.9637467,
      "lng": 108.6027185
    },
    {
      "suburb": {
        "id": 817,
        "name": "Cipicung",
        "lat": -6.9375866,
        "lng": 108.5522531
      },
      "city": {
        "id": 65,
        "name": "Kuningan",
        "lat": -7.0138053,
        "lng": 108.5700636
      },
      "province": {
        "id": 9,
        "name": "Jawa Barat",
        "lat": -7.090911,
        "lng": 107.668887
      },
      "country": {
        "id": 228,
        "name": "INDONESIA",
        "code": "ID"
      },
      "id": 8006,
      "name": "Susukan",
      "postcode": "45592",
      "lat": -6.959198,
      "lng": 108.5567057
    },
    {
      "suburb": {
        "id": 818,
        "name": "Ciawigebang",
        "lat": -6.9415169,
        "lng": 108.5819378
      },
      "city": {
        "id": 65,
        "name": "Kuningan",
        "lat": -7.0138053,
        "lng": 108.5700636
      },
      "province": {
        "id": 9,
        "name": "Jawa Barat",
        "lat": -7.090911,
        "lng": 107.668887
      },
      "country": {
        "id": 228,
        "name": "INDONESIA",
        "code": "ID"
      },
      "id": 8007,
      "name": "Cihirup",
      "postcode": "45593",
      "lat": -6.9142202,
      "lng": 108.6235004
    },
    {
      "suburb": {
        "id": 817,
        "name": "Cipicung",
        "lat": -6.9375866,
        "lng": 108.5522531
      },
      "city": {
        "id": 65,
        "name": "Kuningan",
        "lat": -7.0138053,
        "lng": 108.5700636
      },
      "province": {
        "id": 9,
        "name": "Jawa Barat",
        "lat": -7.090911,
        "lng": 107.668887
      },
      "country": {
        "id": 228,
        "name": "INDONESIA",
        "code": "ID"
      },
      "id": 8008,
      "name": "Sukamukti",
      "postcode": "45592",
      "lat": -6.9487033,
      "lng": 108.5626425
    },
    {
      "suburb": {
        "id": 817,
        "name": "Cipicung",
        "lat": -6.9375866,
        "lng": 108.5522531
      },
      "city": {
        "id": 65,
        "name": "Kuningan",
        "lat": -7.0138053,
        "lng": 108.5700636
      },
      "province": {
        "id": 9,
        "name": "Jawa Barat",
        "lat": -7.090911,
        "lng": 107.668887
      },
      "country": {
        "id": 228,
        "name": "INDONESIA",
        "code": "ID"
      },
      "id": 8009,
      "name": "Salareuma",
      "postcode": "45592",
      "lat": -6.9334434,
      "lng": 108.5596741
    },
    {
      "suburb": {
        "id": 817,
        "name": "Cipicung",
        "lat": -6.9375866,
        "lng": 108.5522531
      },
      "city": {
        "id": 65,
        "name": "Kuningan",
        "lat": -7.0138053,
        "lng": 108.5700636
      },
      "province": {
        "id": 9,
        "name": "Jawa Barat",
        "lat": -7.090911,
        "lng": 107.668887
      },
      "country": {
        "id": 228,
        "name": "INDONESIA",
        "code": "ID"
      },
      "id": 8010,
      "name": "Suganangan",
      "postcode": "45592",
      "lat": -6.9174715,
      "lng": 108.5745164
    },
    {
      "suburb": {
        "id": 817,
        "name": "Cipicung",
        "lat": -6.9375866,
        "lng": 108.5522531
      },
      "city": {
        "id": 65,
        "name": "Kuningan",
        "lat": -7.0138053,
        "lng": 108.5700636
      },
      "province": {
        "id": 9,
        "name": "Jawa Barat",
        "lat": -7.090911,
        "lng": 107.668887
      },
      "country": {
        "id": 228,
        "name": "INDONESIA",
        "code": "ID"
      },
      "id": 8011,
      "name": "Muncangela",
      "postcode": "45592",
      "lat": -6.9672504,
      "lng": 108.5478006
    },
    {
      "suburb": {
        "id": 817,
        "name": "Cipicung",
        "lat": -6.9375866,
        "lng": 108.5522531
      },
      "city": {
        "id": 65,
        "name": "Kuningan",
        "lat": -7.0138053,
        "lng": 108.5700636
      },
      "province": {
        "id": 9,
        "name": "Jawa Barat",
        "lat": -7.090911,
        "lng": 107.668887
      },
      "country": {
        "id": 228,
        "name": "INDONESIA",
        "code": "ID"
      },
      "id": 8012,
      "name": "Pamulihan",
      "postcode": "45592",
      "lat": -6.9304938,
      "lng": 108.5374117
    },
    {
      "suburb": {
        "id": 817,
        "name": "Cipicung",
        "lat": -6.9375866,
        "lng": 108.5522531
      },
      "city": {
        "id": 65,
        "name": "Kuningan",
        "lat": -7.0138053,
        "lng": 108.5700636
      },
      "province": {
        "id": 9,
        "name": "Jawa Barat",
        "lat": -7.090911,
        "lng": 107.668887
      },
      "country": {
        "id": 228,
        "name": "INDONESIA",
        "code": "ID"
      },
      "id": 8013,
      "name": "Karoya",
      "postcode": "45592",
      "lat": -6.9644462,
      "lng": 108.5537373
    },
    {
      "suburb": {
        "id": 817,
        "name": "Cipicung",
        "lat": -6.9375866,
        "lng": 108.5522531
      },
      "city": {
        "id": 65,
        "name": "Kuningan",
        "lat": -7.0138053,
        "lng": 108.5700636
      },
      "province": {
        "id": 9,
        "name": "Jawa Barat",
        "lat": -7.090911,
        "lng": 107.668887
      },
      "country": {
        "id": 228,
        "name": "INDONESIA",
        "code": "ID"
      },
      "id": 8014,
      "name": "Cipicung",
      "postcode": "45592",
      "lat": -6.9453963,
      "lng": 108.5492848
    },
    {
      "suburb": {
        "id": 817,
        "name": "Cipicung",
        "lat": -6.9375866,
        "lng": 108.5522531
      },
      "city": {
        "id": 65,
        "name": "Kuningan",
        "lat": -7.0138053,
        "lng": 108.5700636
      },
      "province": {
        "id": 9,
        "name": "Jawa Barat",
        "lat": -7.090911,
        "lng": 107.668887
      },
      "country": {
        "id": 228,
        "name": "INDONESIA",
        "code": "ID"
      },
      "id": 8015,
      "name": "Cimaranten",
      "postcode": "45592",
      "lat": -6.9423273,
      "lng": 108.5299912
    },
    {
      "suburb": {
        "id": 818,
        "name": "Ciawigebang",
        "lat": -6.9415169,
        "lng": 108.5819378
      },
      "city": {
        "id": 65,
        "name": "Kuningan",
        "lat": -7.0138053,
        "lng": 108.5700636
      },
      "province": {
        "id": 9,
        "name": "Jawa Barat",
        "lat": -7.090911,
        "lng": 107.668887
      },
      "country": {
        "id": 228,
        "name": "INDONESIA",
        "code": "ID"
      },
      "id": 8016,
      "name": "Sukaraja",
      "postcode": "45591",
      "lat": -6.9285838,
      "lng": 108.5849064
    },
    {
      "suburb": {
        "id": 818,
        "name": "Ciawigebang",
        "lat": -6.9415169,
        "lng": 108.5819378
      },
      "city": {
        "id": 65,
        "name": "Kuningan",
        "lat": -7.0138053,
        "lng": 108.5700636
      },
      "province": {
        "id": 9,
        "name": "Jawa Barat",
        "lat": -7.090911,
        "lng": 107.668887
      },
      "country": {
        "id": 228,
        "name": "INDONESIA",
        "code": "ID"
      },
      "id": 8017,
      "name": "Sukadana",
      "postcode": "45591",
      "lat": -6.9225029,
      "lng": 108.6086561
    },
    {
      "suburb": {
        "id": 818,
        "name": "Ciawigebang",
        "lat": -6.9415169,
        "lng": 108.5819378
      },
      "city": {
        "id": 65,
        "name": "Kuningan",
        "lat": -7.0138053,
        "lng": 108.5700636
      },
      "province": {
        "id": 9,
        "name": "Jawa Barat",
        "lat": -7.090911,
        "lng": 107.668887
      },
      "country": {
        "id": 228,
        "name": "INDONESIA",
        "code": "ID"
      },
      "id": 8018,
      "name": "Sidaraja",
      "postcode": "45591",
      "lat": -6.9854642,
      "lng": 108.5730321
    },
    {
      "suburb": {
        "id": 818,
        "name": "Ciawigebang",
        "lat": -6.9415169,
        "lng": 108.5819378
      },
      "city": {
        "id": 65,
        "name": "Kuningan",
        "lat": -7.0138053,
        "lng": 108.5700636
      },
      "province": {
        "id": 9,
        "name": "Jawa Barat",
        "lat": -7.090911,
        "lng": 107.668887
      },
      "country": {
        "id": 228,
        "name": "INDONESIA",
        "code": "ID"
      },
      "id": 8019,
      "name": "Pamijahan",
      "postcode": "45591",
      "lat": -6.960322,
      "lng": 108.592328
    },
    {
      "suburb": {
        "id": 818,
        "name": "Ciawigebang",
        "lat": -6.9415169,
        "lng": 108.5819378
      },
      "city": {
        "id": 65,
        "name": "Kuningan",
        "lat": -7.0138053,
        "lng": 108.5700636
      },
      "province": {
        "id": 9,
        "name": "Jawa Barat",
        "lat": -7.090911,
        "lng": 107.668887
      },
      "country": {
        "id": 228,
        "name": "INDONESIA",
        "code": "ID"
      },
      "id": 8020,
      "name": "Pangkalan",
      "postcode": "45591",
      "lat": -6.9689747,
      "lng": 108.5685794
    },
    {
      "suburb": {
        "id": 818,
        "name": "Ciawigebang",
        "lat": -6.9415169,
        "lng": 108.5819378
      },
      "city": {
        "id": 65,
        "name": "Kuningan",
        "lat": -7.0138053,
        "lng": 108.5700636
      },
      "province": {
        "id": 9,
        "name": "Jawa Barat",
        "lat": -7.090911,
        "lng": 107.668887
      },
      "country": {
        "id": 228,
        "name": "INDONESIA",
        "code": "ID"
      },
      "id": 8021,
      "name": "Pajawanlor",
      "postcode": "45591",
      "lat": -6.9883993,
      "lng": 108.5797114
    },
    {
      "suburb": {
        "id": 818,
        "name": "Ciawigebang",
        "lat": -6.9415169,
        "lng": 108.5819378
      },
      "city": {
        "id": 65,
        "name": "Kuningan",
        "lat": -7.0138053,
        "lng": 108.5700636
      },
      "province": {
        "id": 9,
        "name": "Jawa Barat",
        "lat": -7.090911,
        "lng": 107.668887
      },
      "country": {
        "id": 228,
        "name": "INDONESIA",
        "code": "ID"
      },
      "id": 8022,
      "name": "Mekarjaya",
      "postcode": "45591",
      "lat": -6.9439602,
      "lng": 108.5849064
    },
    {
      "suburb": {
        "id": 818,
        "name": "Ciawigebang",
        "lat": -6.9415169,
        "lng": 108.5819378
      },
      "city": {
        "id": 65,
        "name": "Kuningan",
        "lat": -7.0138053,
        "lng": 108.5700636
      },
      "province": {
        "id": 9,
        "name": "Jawa Barat",
        "lat": -7.090911,
        "lng": 107.668887
      },
      "country": {
        "id": 228,
        "name": "INDONESIA",
        "code": "ID"
      },
      "id": 8023,
      "name": "Padarama",
      "postcode": "45591",
      "lat": -6.919198,
      "lng": 108.5952967
    },
    {
      "suburb": {
        "id": 818,
        "name": "Ciawigebang",
        "lat": -6.9415169,
        "lng": 108.5819378
      },
      "city": {
        "id": 65,
        "name": "Kuningan",
        "lat": -7.0138053,
        "lng": 108.5700636
      },
      "province": {
        "id": 9,
        "name": "Jawa Barat",
        "lat": -7.090911,
        "lng": 107.668887
      },
      "country": {
        "id": 228,
        "name": "INDONESIA",
        "code": "ID"
      },
      "id": 8024,
      "name": "Lebaksiuh",
      "postcode": "45591",
      "lat": -6.9886488,
      "lng": 108.5893594
    },
    {
      "suburb": {
        "id": 818,
        "name": "Ciawigebang",
        "lat": -6.9415169,
        "lng": 108.5819378
      },
      "city": {
        "id": 65,
        "name": "Kuningan",
        "lat": -7.0138053,
        "lng": 108.5700636
      },
      "province": {
        "id": 9,
        "name": "Jawa Barat",
        "lat": -7.090911,
        "lng": 107.668887
      },
      "country": {
        "id": 228,
        "name": "INDONESIA",
        "code": "ID"
      },
      "id": 8025,
      "name": "Keramatmulya",
      "postcode": "45591",
      "lat": -6.9996478,
      "lng": 108.6027185
    },
    {
      "suburb": {
        "id": 818,
        "name": "Ciawigebang",
        "lat": -6.9415169,
        "lng": 108.5819378
      },
      "city": {
        "id": 65,
        "name": "Kuningan",
        "lat": -7.0138053,
        "lng": 108.5700636
      },
      "province": {
        "id": 9,
        "name": "Jawa Barat",
        "lat": -7.090911,
        "lng": 107.668887
      },
      "country": {
        "id": 228,
        "name": "INDONESIA",
        "code": "ID"
      },
      "id": 8026,
      "name": "Karangkamulyan",
      "postcode": "45591",
      "lat": -6.9581185,
      "lng": 108.5834221
    },
    {
      "suburb": {
        "id": 818,
        "name": "Ciawigebang",
        "lat": -6.9415169,
        "lng": 108.5819378
      },
      "city": {
        "id": 65,
        "name": "Kuningan",
        "lat": -7.0138053,
        "lng": 108.5700636
      },
      "province": {
        "id": 9,
        "name": "Jawa Barat",
        "lat": -7.090911,
        "lng": 107.668887
      },
      "country": {
        "id": 228,
        "name": "INDONESIA",
        "code": "ID"
      },
      "id": 8027,
      "name": "Kapandayan",
      "postcode": "45591",
      "lat": -6.9764276,
      "lng": 108.5745164
    },
    {
      "suburb": {
        "id": 818,
        "name": "Ciawigebang",
        "lat": -6.9415169,
        "lng": 108.5819378
      },
      "city": {
        "id": 65,
        "name": "Kuningan",
        "lat": -7.0138053,
        "lng": 108.5700636
      },
      "province": {
        "id": 9,
        "name": "Jawa Barat",
        "lat": -7.090911,
        "lng": 107.668887
      },
      "country": {
        "id": 228,
        "name": "INDONESIA",
        "code": "ID"
      },
      "id": 8028,
      "name": "Kadurama",
      "postcode": "45591",
      "lat": -6.9761359,
      "lng": 108.5975232
    },
    {
      "suburb": {
        "id": 818,
        "name": "Ciawigebang",
        "lat": -6.9415169,
        "lng": 108.5819378
      },
      "city": {
        "id": 65,
        "name": "Kuningan",
        "lat": -7.0138053,
        "lng": 108.5700636
      },
      "province": {
        "id": 9,
        "name": "Jawa Barat",
        "lat": -7.090911,
        "lng": 107.668887
      },
      "country": {
        "id": 228,
        "name": "INDONESIA",
        "code": "ID"
      },
      "id": 8029,
      "name": "Geresik",
      "postcode": "45591",
      "lat": -6.9891469,
      "lng": 108.6086561
    },
    {
      "suburb": {
        "id": 818,
        "name": "Ciawigebang",
        "lat": -6.9415169,
        "lng": 108.5819378
      },
      "city": {
        "id": 65,
        "name": "Kuningan",
        "lat": -7.0138053,
        "lng": 108.5700636
      },
      "province": {
        "id": 9,
        "name": "Jawa Barat",
        "lat": -7.090911,
        "lng": 107.668887
      },
      "country": {
        "id": 228,
        "name": "INDONESIA",
        "code": "ID"
      },
      "id": 8030,
      "name": "Dukuhdalem",
      "postcode": "45591",
      "lat": -6.969886,
      "lng": 108.5619004
    },
    {
      "suburb": {
        "id": 818,
        "name": "Ciawigebang",
        "lat": -6.9415169,
        "lng": 108.5819378
      },
      "city": {
        "id": 65,
        "name": "Kuningan",
        "lat": -7.0138053,
        "lng": 108.5700636
      },
      "province": {
        "id": 9,
        "name": "Jawa Barat",
        "lat": -7.090911,
        "lng": 107.668887
      },
      "country": {
        "id": 228,
        "name": "INDONESIA",
        "code": "ID"
      },
      "id": 8031,
      "name": "Ciputat",
      "postcode": "45591",
      "lat": -6.9786311,
      "lng": 108.5834221
    },
    {
      "suburb": {
        "id": 818,
        "name": "Ciawigebang",
        "lat": -6.9415169,
        "lng": 108.5819378
      },
      "city": {
        "id": 65,
        "name": "Kuningan",
        "lat": -7.0138053,
        "lng": 108.5700636
      },
      "province": {
        "id": 9,
        "name": "Jawa Barat",
        "lat": -7.090911,
        "lng": 107.668887
      },
      "country": {
        "id": 228,
        "name": "INDONESIA",
        "code": "ID"
      },
      "id": 8032,
      "name": "Cikubangmulya",
      "postcode": "45591",
      "lat": -6.9360553,
      "lng": 108.622016
    },
    {
      "suburb": {
        "id": 818,
        "name": "Ciawigebang",
        "lat": -6.9415169,
        "lng": 108.5819378
      },
      "city": {
        "id": 65,
        "name": "Kuningan",
        "lat": -7.0138053,
        "lng": 108.5700636
      },
      "province": {
        "id": 9,
        "name": "Jawa Barat",
        "lat": -7.090911,
        "lng": 107.668887
      },
      "country": {
        "id": 228,
        "name": "INDONESIA",
        "code": "ID"
      },
      "id": 8033,
      "name": "Ciomas",
      "postcode": "45591",
      "lat": -6.9770286,
      "lng": 108.5596741
    },
    {
      "suburb": {
        "id": 818,
        "name": "Ciawigebang",
        "lat": -6.9415169,
        "lng": 108.5819378
      },
      "city": {
        "id": 65,
        "name": "Kuningan",
        "lat": -7.0138053,
        "lng": 108.5700636
      },
      "province": {
        "id": 9,
        "name": "Jawa Barat",
        "lat": -7.090911,
        "lng": 107.668887
      },
      "country": {
        "id": 228,
        "name": "INDONESIA",
        "code": "ID"
      },
      "id": 8034,
      "name": "Cihaur",
      "postcode": "45591",
      "lat": -6.9495658,
      "lng": 108.5730321
    },
    {
      "suburb": {
        "id": 818,
        "name": "Ciawigebang",
        "lat": -6.9415169,
        "lng": 108.5819378
      },
      "city": {
        "id": 65,
        "name": "Kuningan",
        "lat": -7.0138053,
        "lng": 108.5700636
      },
      "province": {
        "id": 9,
        "name": "Jawa Barat",
        "lat": -7.090911,
        "lng": 107.668887
      },
      "country": {
        "id": 228,
        "name": "INDONESIA",
        "code": "ID"
      },
      "id": 8035,
      "name": "Cijagamulya",
      "postcode": "45591",
      "lat": -6.9747042,
      "lng": 108.5537373
    },
    {
      "suburb": {
        "id": 818,
        "name": "Ciawigebang",
        "lat": -6.9415169,
        "lng": 108.5819378
      },
      "city": {
        "id": 65,
        "name": "Kuningan",
        "lat": -7.0138053,
        "lng": 108.5700636
      },
      "province": {
        "id": 9,
        "name": "Jawa Barat",
        "lat": -7.090911,
        "lng": 107.668887
      },
      "country": {
        "id": 228,
        "name": "INDONESIA",
        "code": "ID"
      },
      "id": 8036,
      "name": "Ciawilor",
      "postcode": "45591",
      "lat": -6.9610424,
      "lng": 108.5745164
    },
    {
      "suburb": {
        "id": 818,
        "name": "Ciawigebang",
        "lat": -6.9415169,
        "lng": 108.5819378
      },
      "city": {
        "id": 65,
        "name": "Kuningan",
        "lat": -7.0138053,
        "lng": 108.5700636
      },
      "province": {
        "id": 9,
        "name": "Jawa Barat",
        "lat": -7.090911,
        "lng": 107.668887
      },
      "country": {
        "id": 228,
        "name": "INDONESIA",
        "code": "ID"
      },
      "id": 8037,
      "name": "Cigarukgak",
      "postcode": "45591",
      "lat": -6.9432411,
      "lng": 108.6027185
    },
    {
      "suburb": {
        "id": 818,
        "name": "Ciawigebang",
        "lat": -6.9415169,
        "lng": 108.5819378
      },
      "city": {
        "id": 65,
        "name": "Kuningan",
        "lat": -7.0138053,
        "lng": 108.5700636
      },
      "province": {
        "id": 9,
        "name": "Jawa Barat",
        "lat": -7.090911,
        "lng": 107.668887
      },
      "country": {
        "id": 228,
        "name": "INDONESIA",
        "code": "ID"
      },
      "id": 8038,
      "name": "Ciawigebang",
      "postcode": "45591",
      "lat": -6.973382,
      "lng": 108.5863907
    },
    {
      "suburb": {
        "id": 819,
        "name": "Cibeureum",
        "lat": -7.0587913,
        "lng": 108.7244578
      },
      "city": {
        "id": 65,
        "name": "Kuningan",
        "lat": -7.0138053,
        "lng": 108.5700636
      },
      "province": {
        "id": 9,
        "name": "Jawa Barat",
        "lat": -7.090911,
        "lng": 107.668887
      },
      "country": {
        "id": 228,
        "name": "INDONESIA",
        "code": "ID"
      },
      "id": 8039,
      "name": "Sukarapih",
      "postcode": "45588",
      "lat": -7.083357,
      "lng": 108.7200033
    },
    {
      "suburb": {
        "id": 819,
        "name": "Cibeureum",
        "lat": -7.0587913,
        "lng": 108.7244578
      },
      "city": {
        "id": 65,
        "name": "Kuningan",
        "lat": -7.0138053,
        "lng": 108.5700636
      },
      "province": {
        "id": 9,
        "name": "Jawa Barat",
        "lat": -7.090911,
        "lng": 107.668887
      },
      "country": {
        "id": 228,
        "name": "INDONESIA",
        "code": "ID"
      },
      "id": 8040,
      "name": "Sumurwiru",
      "postcode": "45588",
      "lat": -7.0755335,
      "lng": 108.722973
    },
    {
      "suburb": {
        "id": 819,
        "name": "Cibeureum",
        "lat": -7.0587913,
        "lng": 108.7244578
      },
      "city": {
        "id": 65,
        "name": "Kuningan",
        "lat": -7.0138053,
        "lng": 108.5700636
      },
      "province": {
        "id": 9,
        "name": "Jawa Barat",
        "lat": -7.090911,
        "lng": 107.668887
      },
      "country": {
        "id": 228,
        "name": "INDONESIA",
        "code": "ID"
      },
      "id": 8041,
      "name": "Tarikolot",
      "postcode": "45588",
      "lat": -7.0404649,
      "lng": 108.7333671
    },
    {
      "suburb": {
        "id": 819,
        "name": "Cibeureum",
        "lat": -7.0587913,
        "lng": 108.7244578
      },
      "city": {
        "id": 65,
        "name": "Kuningan",
        "lat": -7.0138053,
        "lng": 108.5700636
      },
      "province": {
        "id": 9,
        "name": "Jawa Barat",
        "lat": -7.090911,
        "lng": 107.668887
      },
      "country": {
        "id": 228,
        "name": "INDONESIA",
        "code": "ID"
      },
      "id": 8042,
      "name": "Sukadana",
      "postcode": "45588",
      "lat": -7.0358246,
      "lng": 108.7214881
    },
    {
      "suburb": {
        "id": 819,
        "name": "Cibeureum",
        "lat": -7.0587913,
        "lng": 108.7244578
      },
      "city": {
        "id": 65,
        "name": "Kuningan",
        "lat": -7.0138053,
        "lng": 108.5700636
      },
      "province": {
        "id": 9,
        "name": "Jawa Barat",
        "lat": -7.090911,
        "lng": 107.668887
      },
      "country": {
        "id": 228,
        "name": "INDONESIA",
        "code": "ID"
      },
      "id": 8043,
      "name": "Kawungsari",
      "postcode": "45588",
      "lat": -7.0713834,
      "lng": 108.6992159
    },
    {
      "suburb": {
        "id": 819,
        "name": "Cibeureum",
        "lat": -7.0587913,
        "lng": 108.7244578
      },
      "city": {
        "id": 65,
        "name": "Kuningan",
        "lat": -7.0138053,
        "lng": 108.5700636
      },
      "province": {
        "id": 9,
        "name": "Jawa Barat",
        "lat": -7.090911,
        "lng": 107.668887
      },
      "country": {
        "id": 228,
        "name": "INDONESIA",
        "code": "ID"
      },
      "id": 8044,
      "name": "Randusari",
      "postcode": "45588",
      "lat": -7.0671037,
      "lng": 108.7096095
    },
    {
      "suburb": {
        "id": 819,
        "name": "Cibeureum",
        "lat": -7.0587913,
        "lng": 108.7244578
      },
      "city": {
        "id": 65,
        "name": "Kuningan",
        "lat": -7.0138053,
        "lng": 108.5700636
      },
      "province": {
        "id": 9,
        "name": "Jawa Barat",
        "lat": -7.090911,
        "lng": 107.668887
      },
      "country": {
        "id": 228,
        "name": "INDONESIA",
        "code": "ID"
      },
      "id": 8045,
      "name": "Cimara",
      "postcode": "45588",
      "lat": -7.1057357,
      "lng": 108.7066398
    },
    {
      "suburb": {
        "id": 819,
        "name": "Cibeureum",
        "lat": -7.0587913,
        "lng": 108.7244578
      },
      "city": {
        "id": 65,
        "name": "Kuningan",
        "lat": -7.0138053,
        "lng": 108.5700636
      },
      "province": {
        "id": 9,
        "name": "Jawa Barat",
        "lat": -7.090911,
        "lng": 107.668887
      },
      "country": {
        "id": 228,
        "name": "INDONESIA",
        "code": "ID"
      },
      "id": 8046,
      "name": "Cibeureum",
      "postcode": "45588",
      "lat": -7.0636776,
      "lng": 108.7303974
    },
    {
      "suburb": {
        "id": 820,
        "name": "Cibingbin",
        "lat": -7.098871,
        "lng": 108.7482165
      },
      "city": {
        "id": 65,
        "name": "Kuningan",
        "lat": -7.0138053,
        "lng": 108.5700636
      },
      "province": {
        "id": 9,
        "name": "Jawa Barat",
        "lat": -7.090911,
        "lng": 107.668887
      },
      "country": {
        "id": 228,
        "name": "INDONESIA",
        "code": "ID"
      },
      "id": 8047,
      "name": "Sukamaju",
      "postcode": "45587",
      "lat": -7.0602512,
      "lng": 108.7511864
    },
    {
      "suburb": {
        "id": 820,
        "name": "Cibingbin",
        "lat": -7.098871,
        "lng": 108.7482165
      },
      "city": {
        "id": 65,
        "name": "Kuningan",
        "lat": -7.0138053,
        "lng": 108.5700636
      },
      "province": {
        "id": 9,
        "name": "Jawa Barat",
        "lat": -7.090911,
        "lng": 107.668887
      },
      "country": {
        "id": 228,
        "name": "INDONESIA",
        "code": "ID"
      },
      "id": 8048,
      "name": "Sukaharja",
      "postcode": "45587",
      "lat": -7.0735624,
      "lng": 108.7704915
    },
    {
      "suburb": {
        "id": 820,
        "name": "Cibingbin",
        "lat": -7.098871,
        "lng": 108.7482165
      },
      "city": {
        "id": 65,
        "name": "Kuningan",
        "lat": -7.0138053,
        "lng": 108.5700636
      },
      "province": {
        "id": 9,
        "name": "Jawa Barat",
        "lat": -7.090911,
        "lng": 107.668887
      },
      "country": {
        "id": 228,
        "name": "INDONESIA",
        "code": "ID"
      },
      "id": 8049,
      "name": "Dukuhbadag",
      "postcode": "45587",
      "lat": -7.0240978,
      "lng": 108.7571263
    },
    {
      "suburb": {
        "id": 820,
        "name": "Cibingbin",
        "lat": -7.098871,
        "lng": 108.7482165
      },
      "city": {
        "id": 65,
        "name": "Kuningan",
        "lat": -7.0138053,
        "lng": 108.5700636
      },
      "province": {
        "id": 9,
        "name": "Jawa Barat",
        "lat": -7.090911,
        "lng": 107.668887
      },
      "country": {
        "id": 228,
        "name": "INDONESIA",
        "code": "ID"
      },
      "id": 8050,
      "name": "Sindangjawa",
      "postcode": "45587",
      "lat": -7.0667271,
      "lng": 108.7497014
    },
    {
      "suburb": {
        "id": 820,
        "name": "Cibingbin",
        "lat": -7.098871,
        "lng": 108.7482165
      },
      "city": {
        "id": 65,
        "name": "Kuningan",
        "lat": -7.0138053,
        "lng": 108.5700636
      },
      "province": {
        "id": 9,
        "name": "Jawa Barat",
        "lat": -7.090911,
        "lng": 107.668887
      },
      "country": {
        "id": 228,
        "name": "INDONESIA",
        "code": "ID"
      },
      "id": 8051,
      "name": "Citenjo",
      "postcode": "45587",
      "lat": -7.0392388,
      "lng": 108.7630664
    },
    {
      "suburb": {
        "id": 820,
        "name": "Cibingbin",
        "lat": -7.098871,
        "lng": 108.7482165
      },
      "city": {
        "id": 65,
        "name": "Kuningan",
        "lat": -7.0138053,
        "lng": 108.5700636
      },
      "province": {
        "id": 9,
        "name": "Jawa Barat",
        "lat": -7.090911,
        "lng": 107.668887
      },
      "country": {
        "id": 228,
        "name": "INDONESIA",
        "code": "ID"
      },
      "id": 8052,
      "name": "Cisaat",
      "postcode": "45587",
      "lat": -7.0387536,
      "lng": 108.7437616
    },
    {
      "suburb": {
        "id": 820,
        "name": "Cibingbin",
        "lat": -7.098871,
        "lng": 108.7482165
      },
      "city": {
        "id": 65,
        "name": "Kuningan",
        "lat": -7.0138053,
        "lng": 108.5700636
      },
      "province": {
        "id": 9,
        "name": "Jawa Barat",
        "lat": -7.090911,
        "lng": 107.668887
      },
      "country": {
        "id": 228,
        "name": "INDONESIA",
        "code": "ID"
      },
      "id": 8053,
      "name": "Cipondok",
      "postcode": "45587",
      "lat": -7.0929952,
      "lng": 108.7660364
    },
    {
      "suburb": {
        "id": 820,
        "name": "Cibingbin",
        "lat": -7.098871,
        "lng": 108.7482165
      },
      "city": {
        "id": 65,
        "name": "Kuningan",
        "lat": -7.0138053,
        "lng": 108.5700636
      },
      "province": {
        "id": 9,
        "name": "Jawa Barat",
        "lat": -7.090911,
        "lng": 107.668887
      },
      "country": {
        "id": 228,
        "name": "INDONESIA",
        "code": "ID"
      },
      "id": 8054,
      "name": "Cibingbin",
      "postcode": "45587",
      "lat": -7.0543824,
      "lng": 108.7690065
    },
    {
      "suburb": {
        "id": 820,
        "name": "Cibingbin",
        "lat": -7.098871,
        "lng": 108.7482165
      },
      "city": {
        "id": 65,
        "name": "Kuningan",
        "lat": -7.0138053,
        "lng": 108.5700636
      },
      "province": {
        "id": 9,
        "name": "Jawa Barat",
        "lat": -7.090911,
        "lng": 107.668887
      },
      "country": {
        "id": 228,
        "name": "INDONESIA",
        "code": "ID"
      },
      "id": 8055,
      "name": "Ciangir",
      "postcode": "45587",
      "lat": -7.1047476,
      "lng": 108.7303974
    },
    {
      "suburb": {
        "id": 820,
        "name": "Cibingbin",
        "lat": -7.098871,
        "lng": 108.7482165
      },
      "city": {
        "id": 65,
        "name": "Kuningan",
        "lat": -7.0138053,
        "lng": 108.5700636
      },
      "province": {
        "id": 9,
        "name": "Jawa Barat",
        "lat": -7.090911,
        "lng": 107.668887
      },
      "country": {
        "id": 228,
        "name": "INDONESIA",
        "code": "ID"
      },
      "id": 8056,
      "name": "Bantarpanjang",
      "postcode": "45587",
      "lat": -7.0006591,
      "lng": 108.7660364
    },
    {
      "suburb": {
        "id": 821,
        "name": "Subang",
        "lat": -7.1282864,
        "lng": 108.5344435
      },
      "city": {
        "id": 65,
        "name": "Kuningan",
        "lat": -7.0138053,
        "lng": 108.5700636
      },
      "province": {
        "id": 9,
        "name": "Jawa Barat",
        "lat": -7.090911,
        "lng": 107.668887
      },
      "country": {
        "id": 228,
        "name": "INDONESIA",
        "code": "ID"
      },
      "id": 8057,
      "name": "Tangkolo",
      "postcode": "45586",
      "lat": -7.1520459,
      "lng": 108.5196028
    },
    {
      "suburb": {
        "id": 821,
        "name": "Subang",
        "lat": -7.1282864,
        "lng": 108.5344435
      },
      "city": {
        "id": 65,
        "name": "Kuningan",
        "lat": -7.0138053,
        "lng": 108.5700636
      },
      "province": {
        "id": 9,
        "name": "Jawa Barat",
        "lat": -7.090911,
        "lng": 107.668887
      },
      "country": {
        "id": 228,
        "name": "INDONESIA",
        "code": "ID"
      },
      "id": 8058,
      "name": "Subang",
      "postcode": "45586",
      "lat": -7.1228993,
      "lng": 108.5403799
    },
    {
      "suburb": {
        "id": 821,
        "name": "Subang",
        "lat": -7.1282864,
        "lng": 108.5344435
      },
      "city": {
        "id": 65,
        "name": "Kuningan",
        "lat": -7.0138053,
        "lng": 108.5700636
      },
      "province": {
        "id": 9,
        "name": "Jawa Barat",
        "lat": -7.090911,
        "lng": 107.668887
      },
      "country": {
        "id": 228,
        "name": "INDONESIA",
        "code": "ID"
      },
      "id": 8059,
      "name": "Situgede",
      "postcode": "45586",
      "lat": -7.1116374,
      "lng": 108.5641267
    },
    {
      "suburb": {
        "id": 821,
        "name": "Subang",
        "lat": -7.1282864,
        "lng": 108.5344435
      },
      "city": {
        "id": 65,
        "name": "Kuningan",
        "lat": -7.0138053,
        "lng": 108.5700636
      },
      "province": {
        "id": 9,
        "name": "Jawa Barat",
        "lat": -7.090911,
        "lng": 107.668887
      },
      "country": {
        "id": 228,
        "name": "INDONESIA",
        "code": "ID"
      },
      "id": 8060,
      "name": "Pamulihan",
      "postcode": "45586",
      "lat": -7.1459188,
      "lng": 108.5433482
    },
    {
      "suburb": {
        "id": 821,
        "name": "Subang",
        "lat": -7.1282864,
        "lng": 108.5344435
      },
      "city": {
        "id": 65,
        "name": "Kuningan",
        "lat": -7.0138053,
        "lng": 108.5700636
      },
      "province": {
        "id": 9,
        "name": "Jawa Barat",
        "lat": -7.090911,
        "lng": 107.668887
      },
      "country": {
        "id": 228,
        "name": "INDONESIA",
        "code": "ID"
      },
      "id": 8061,
      "name": "Jatisari",
      "postcode": "45586",
      "lat": -7.1611052,
      "lng": 108.5492848
    },
    {
      "suburb": {
        "id": 821,
        "name": "Subang",
        "lat": -7.1282864,
        "lng": 108.5344435
      },
      "city": {
        "id": 65,
        "name": "Kuningan",
        "lat": -7.0138053,
        "lng": 108.5700636
      },
      "province": {
        "id": 9,
        "name": "Jawa Barat",
        "lat": -7.090911,
        "lng": 107.668887
      },
      "country": {
        "id": 228,
        "name": "INDONESIA",
        "code": "ID"
      },
      "id": 8062,
      "name": "Gunungaci",
      "postcode": "45586",
      "lat": -7.1028238,
      "lng": 108.5285072
    },
    {
      "suburb": {
        "id": 821,
        "name": "Subang",
        "lat": -7.1282864,
        "lng": 108.5344435
      },
      "city": {
        "id": 65,
        "name": "Kuningan",
        "lat": -7.0138053,
        "lng": 108.5700636
      },
      "province": {
        "id": 9,
        "name": "Jawa Barat",
        "lat": -7.090911,
        "lng": 107.668887
      },
      "country": {
        "id": 228,
        "name": "INDONESIA",
        "code": "ID"
      },
      "id": 8063,
      "name": "Bangunjaya",
      "postcode": "45586",
      "lat": -7.1366136,
      "lng": 108.5196028
    },
    {
      "suburb": {
        "id": 822,
        "name": "Cilebak",
        "lat": -7.1419945,
        "lng": 108.5760007
      },
      "city": {
        "id": 65,
        "name": "Kuningan",
        "lat": -7.0138053,
        "lng": 108.5700636
      },
      "province": {
        "id": 9,
        "name": "Jawa Barat",
        "lat": -7.090911,
        "lng": 107.668887
      },
      "country": {
        "id": 228,
        "name": "INDONESIA",
        "code": "ID"
      },
      "id": 8064,
      "name": "Patala",
      "postcode": "45585",
      "lat": -7.1131041,
      "lng": 108.5908437
    },
    {
      "suburb": {
        "id": 822,
        "name": "Cilebak",
        "lat": -7.1419945,
        "lng": 108.5760007
      },
      "city": {
        "id": 65,
        "name": "Kuningan",
        "lat": -7.0138053,
        "lng": 108.5700636
      },
      "province": {
        "id": 9,
        "name": "Jawa Barat",
        "lat": -7.090911,
        "lng": 107.668887
      },
      "country": {
        "id": 228,
        "name": "INDONESIA",
        "code": "ID"
      },
      "id": 8065,
      "name": "Mandapajaya",
      "postcode": "45585",
      "lat": -7.1743383,
      "lng": 108.5403799
    },
    {
      "suburb": {
        "id": 822,
        "name": "Cilebak",
        "lat": -7.1419945,
        "lng": 108.5760007
      },
      "city": {
        "id": 65,
        "name": "Kuningan",
        "lat": -7.0138053,
        "lng": 108.5700636
      },
      "province": {
        "id": 9,
        "name": "Jawa Barat",
        "lat": -7.090911,
        "lng": 107.668887
      },
      "country": {
        "id": 228,
        "name": "INDONESIA",
        "code": "ID"
      },
      "id": 8066,
      "name": "Legokherang",
      "postcode": "45585",
      "lat": -7.1522802,
      "lng": 108.5760007
    },
    {
      "suburb": {
        "id": 822,
        "name": "Cilebak",
        "lat": -7.1419945,
        "lng": 108.5760007
      },
      "city": {
        "id": 65,
        "name": "Kuningan",
        "lat": -7.0138053,
        "lng": 108.5700636
      },
      "province": {
        "id": 9,
        "name": "Jawa Barat",
        "lat": -7.090911,
        "lng": 107.668887
      },
      "country": {
        "id": 228,
        "name": "INDONESIA",
        "code": "ID"
      },
      "id": 8067,
      "name": "Jalatrang",
      "postcode": "45585",
      "lat": -7.1322019,
      "lng": 108.5641267
    },
    {
      "suburb": {
        "id": 822,
        "name": "Cilebak",
        "lat": -7.1419945,
        "lng": 108.5760007
      },
      "city": {
        "id": 65,
        "name": "Kuningan",
        "lat": -7.0138053,
        "lng": 108.5700636
      },
      "province": {
        "id": 9,
        "name": "Jawa Barat",
        "lat": -7.090911,
        "lng": 107.668887
      },
      "country": {
        "id": 228,
        "name": "INDONESIA",
        "code": "ID"
      },
      "id": 8068,
      "name": "Cilimusari",
      "postcode": "45585",
      "lat": -7.1025804,
      "lng": 108.5967811
    },
    {
      "suburb": {
        "id": 822,
        "name": "Cilebak",
        "lat": -7.1419945,
        "lng": 108.5760007
      },
      "city": {
        "id": 65,
        "name": "Kuningan",
        "lat": -7.0138053,
        "lng": 108.5700636
      },
      "province": {
        "id": 9,
        "name": "Jawa Barat",
        "lat": -7.090911,
        "lng": 107.668887
      },
      "country": {
        "id": 228,
        "name": "INDONESIA",
        "code": "ID"
      },
      "id": 8069,
      "name": "Cilebak",
      "postcode": "45585",
      "lat": -7.1339124,
      "lng": 108.5849064
    },
    {
      "suburb": {
        "id": 822,
        "name": "Cilebak",
        "lat": -7.1419945,
        "lng": 108.5760007
      },
      "city": {
        "id": 65,
        "name": "Kuningan",
        "lat": -7.0138053,
        "lng": 108.5700636
      },
      "province": {
        "id": 9,
        "name": "Jawa Barat",
        "lat": -7.090911,
        "lng": 107.668887
      },
      "country": {
        "id": 228,
        "name": "INDONESIA",
        "code": "ID"
      },
      "id": 8070,
      "name": "Bungurberes",
      "postcode": "45585",
      "lat": -7.1410093,
      "lng": 108.5997498
    },
    {
      "suburb": {
        "id": 823,
        "name": "Karangkancana",
        "lat": -7.1018322,
        "lng": 108.6769451
      },
      "city": {
        "id": 65,
        "name": "Kuningan",
        "lat": -7.0138053,
        "lng": 108.5700636
      },
      "province": {
        "id": 9,
        "name": "Jawa Barat",
        "lat": -7.090911,
        "lng": 107.668887
      },
      "country": {
        "id": 228,
        "name": "INDONESIA",
        "code": "ID"
      },
      "id": 8071,
      "name": "Tanjungkerta",
      "postcode": "45584",
      "lat": -7.0788446,
      "lng": 108.6739757
    },
    {
      "suburb": {
        "id": 823,
        "name": "Karangkancana",
        "lat": -7.1018322,
        "lng": 108.6769451
      },
      "city": {
        "id": 65,
        "name": "Kuningan",
        "lat": -7.0138053,
        "lng": 108.5700636
      },
      "province": {
        "id": 9,
        "name": "Jawa Barat",
        "lat": -7.090911,
        "lng": 107.668887
      },
      "country": {
        "id": 228,
        "name": "INDONESIA",
        "code": "ID"
      },
      "id": 8072,
      "name": "Sukasari",
      "postcode": "45584",
      "lat": -7.0634421,
      "lng": 108.6739757
    },
    {
      "suburb": {
        "id": 823,
        "name": "Karangkancana",
        "lat": -7.1018322,
        "lng": 108.6769451
      },
      "city": {
        "id": 65,
        "name": "Kuningan",
        "lat": -7.0138053,
        "lng": 108.5700636
      },
      "province": {
        "id": 9,
        "name": "Jawa Barat",
        "lat": -7.090911,
        "lng": 107.668887
      },
      "country": {
        "id": 228,
        "name": "INDONESIA",
        "code": "ID"
      },
      "id": 8073,
      "name": "Simpayjaya",
      "postcode": "45584",
      "lat": -7.0573291,
      "lng": 108.6977312
    },
    {
      "suburb": {
        "id": 823,
        "name": "Karangkancana",
        "lat": -7.1018322,
        "lng": 108.6769451
      },
      "city": {
        "id": 65,
        "name": "Kuningan",
        "lat": -7.0138053,
        "lng": 108.5700636
      },
      "province": {
        "id": 9,
        "name": "Jawa Barat",
        "lat": -7.090911,
        "lng": 107.668887
      },
      "country": {
        "id": 228,
        "name": "INDONESIA",
        "code": "ID"
      },
      "id": 8074,
      "name": "Segong",
      "postcode": "45584",
      "lat": -7.0773806,
      "lng": 108.6472527
    },
    {
      "suburb": {
        "id": 823,
        "name": "Karangkancana",
        "lat": -7.1018322,
        "lng": 108.6769451
      },
      "city": {
        "id": 65,
        "name": "Kuningan",
        "lat": -7.0138053,
        "lng": 108.5700636
      },
      "province": {
        "id": 9,
        "name": "Jawa Barat",
        "lat": -7.090911,
        "lng": 107.668887
      },
      "country": {
        "id": 228,
        "name": "INDONESIA",
        "code": "ID"
      },
      "id": 8075,
      "name": "Margacina",
      "postcode": "45584",
      "lat": -7.1282614,
      "lng": 108.6591293
    },
    {
      "suburb": {
        "id": 823,
        "name": "Karangkancana",
        "lat": -7.1018322,
        "lng": 108.6769451
      },
      "city": {
        "id": 65,
        "name": "Kuningan",
        "lat": -7.0138053,
        "lng": 108.5700636
      },
      "province": {
        "id": 9,
        "name": "Jawa Barat",
        "lat": -7.090911,
        "lng": 107.668887
      },
      "country": {
        "id": 228,
        "name": "INDONESIA",
        "code": "ID"
      },
      "id": 8076,
      "name": "Karangkancana",
      "postcode": "45584",
      "lat": -7.0964497,
      "lng": 108.6828838
    },
    {
      "suburb": {
        "id": 823,
        "name": "Karangkancana",
        "lat": -7.1018322,
        "lng": 108.6769451
      },
      "city": {
        "id": 65,
        "name": "Kuningan",
        "lat": -7.0138053,
        "lng": 108.5700636
      },
      "province": {
        "id": 9,
        "name": "Jawa Barat",
        "lat": -7.090911,
        "lng": 107.668887
      },
      "country": {
        "id": 228,
        "name": "INDONESIA",
        "code": "ID"
      },
      "id": 8077,
      "name": "Kaduagung",
      "postcode": "45584",
      "lat": -7.1052624,
      "lng": 108.6561601
    },
    {
      "suburb": {
        "id": 823,
        "name": "Karangkancana",
        "lat": -7.1018322,
        "lng": 108.6769451
      },
      "city": {
        "id": 65,
        "name": "Kuningan",
        "lat": -7.0138053,
        "lng": 108.5700636
      },
      "province": {
        "id": 9,
        "name": "Jawa Barat",
        "lat": -7.090911,
        "lng": 107.668887
      },
      "country": {
        "id": 228,
        "name": "INDONESIA",
        "code": "ID"
      },
      "id": 8078,
      "name": "Jabranti",
      "postcode": "45584",
      "lat": -7.1272731,
      "lng": 108.6828838
    },
    {
      "suburb": {
        "id": 823,
        "name": "Karangkancana",
        "lat": -7.1018322,
        "lng": 108.6769451
      },
      "city": {
        "id": 65,
        "name": "Kuningan",
        "lat": -7.0138053,
        "lng": 108.5700636
      },
      "province": {
        "id": 9,
        "name": "Jawa Barat",
        "lat": -7.090911,
        "lng": 107.668887
      },
      "country": {
        "id": 228,
        "name": "INDONESIA",
        "code": "ID"
      },
      "id": 8079,
      "name": "Cihanjaro",
      "postcode": "45584",
      "lat": -7.0477989,
      "lng": 108.6799144
    },
    {
      "suburb": {
        "id": 824,
        "name": "Ciwaru",
        "lat": -7.1038,
        "lng": 108.6294384
      },
      "city": {
        "id": 65,
        "name": "Kuningan",
        "lat": -7.0138053,
        "lng": 108.5700636
      },
      "province": {
        "id": 9,
        "name": "Jawa Barat",
        "lat": -7.090911,
        "lng": 107.668887
      },
      "country": {
        "id": 228,
        "name": "INDONESIA",
        "code": "ID"
      },
      "id": 8080,
      "name": "Sumberjaya",
      "postcode": "45583",
      "lat": -7.1199539,
      "lng": 108.6116249
    },
    {
      "suburb": {
        "id": 824,
        "name": "Ciwaru",
        "lat": -7.1038,
        "lng": 108.6294384
      },
      "city": {
        "id": 65,
        "name": "Kuningan",
        "lat": -7.0138053,
        "lng": 108.5700636
      },
      "province": {
        "id": 9,
        "name": "Jawa Barat",
        "lat": -7.090911,
        "lng": 107.668887
      },
      "country": {
        "id": 228,
        "name": "INDONESIA",
        "code": "ID"
      },
      "id": 8081,
      "name": "Sagaranten",
      "postcode": "45583",
      "lat": -7.1111384,
      "lng": 108.6383454
    },
    {
      "suburb": {
        "id": 824,
        "name": "Ciwaru",
        "lat": -7.1038,
        "lng": 108.6294384
      },
      "city": {
        "id": 65,
        "name": "Kuningan",
        "lat": -7.0138053,
        "lng": 108.5700636
      },
      "province": {
        "id": 9,
        "name": "Jawa Barat",
        "lat": -7.090911,
        "lng": 107.668887
      },
      "country": {
        "id": 228,
        "name": "INDONESIA",
        "code": "ID"
      },
      "id": 8082,
      "name": "Linggajaya",
      "postcode": "45583",
      "lat": -7.0916886,
      "lng": 108.642799
    },
    {
      "suburb": {
        "id": 824,
        "name": "Ciwaru",
        "lat": -7.1038,
        "lng": 108.6294384
      },
      "city": {
        "id": 65,
        "name": "Kuningan",
        "lat": -7.0138053,
        "lng": 108.5700636
      },
      "province": {
        "id": 9,
        "name": "Jawa Barat",
        "lat": -7.090911,
        "lng": 107.668887
      },
      "country": {
        "id": 228,
        "name": "INDONESIA",
        "code": "ID"
      },
      "id": 8083,
      "name": "Lebakherang",
      "postcode": "45583",
      "lat": -7.0871661,
      "lng": 108.5967811
    },
    {
      "suburb": {
        "id": 824,
        "name": "Ciwaru",
        "lat": -7.1038,
        "lng": 108.6294384
      },
      "city": {
        "id": 65,
        "name": "Kuningan",
        "lat": -7.0138053,
        "lng": 108.5700636
      },
      "province": {
        "id": 9,
        "name": "Jawa Barat",
        "lat": -7.090911,
        "lng": 107.668887
      },
      "country": {
        "id": 228,
        "name": "INDONESIA",
        "code": "ID"
      },
      "id": 8084,
      "name": "Karangbaru",
      "postcode": "45583",
      "lat": -7.0606318,
      "lng": 108.6487372
    },
    {
      "suburb": {
        "id": 824,
        "name": "Ciwaru",
        "lat": -7.1038,
        "lng": 108.6294384
      },
      "city": {
        "id": 65,
        "name": "Kuningan",
        "lat": -7.0138053,
        "lng": 108.5700636
      },
      "province": {
        "id": 9,
        "name": "Jawa Barat",
        "lat": -7.090911,
        "lng": 107.668887
      },
      "country": {
        "id": 228,
        "name": "INDONESIA",
        "code": "ID"
      },
      "id": 8085,
      "name": "Garajati",
      "postcode": "45583",
      "lat": -7.0587981,
      "lng": 108.6620986
    },
    {
      "suburb": {
        "id": 824,
        "name": "Ciwaru",
        "lat": -7.1038,
        "lng": 108.6294384
      },
      "city": {
        "id": 65,
        "name": "Kuningan",
        "lat": -7.0138053,
        "lng": 108.5700636
      },
      "province": {
        "id": 9,
        "name": "Jawa Barat",
        "lat": -7.090911,
        "lng": 107.668887
      },
      "country": {
        "id": 228,
        "name": "INDONESIA",
        "code": "ID"
      },
      "id": 8086,
      "name": "Ciwaru",
      "postcode": "45583",
      "lat": -7.0808057,
      "lng": 108.6264694
    },
    {
      "suburb": {
        "id": 824,
        "name": "Ciwaru",
        "lat": -7.1038,
        "lng": 108.6294384
      },
      "city": {
        "id": 65,
        "name": "Kuningan",
        "lat": -7.0138053,
        "lng": 108.5700636
      },
      "province": {
        "id": 9,
        "name": "Jawa Barat",
        "lat": -7.090911,
        "lng": 107.668887
      },
      "country": {
        "id": 228,
        "name": "INDONESIA",
        "code": "ID"
      },
      "id": 8087,
      "name": "Citundun",
      "postcode": "45583",
      "lat": -7.1265553,
      "lng": 108.6383454
    },
    {
      "suburb": {
        "id": 824,
        "name": "Ciwaru",
        "lat": -7.1038,
        "lng": 108.6294384
      },
      "city": {
        "id": 65,
        "name": "Kuningan",
        "lat": -7.0138053,
        "lng": 108.5700636
      },
      "province": {
        "id": 9,
        "name": "Jawa Barat",
        "lat": -7.090911,
        "lng": 107.668887
      },
      "country": {
        "id": 228,
        "name": "INDONESIA",
        "code": "ID"
      },
      "id": 8088,
      "name": "Cilayung",
      "postcode": "45583",
      "lat": -7.0812952,
      "lng": 108.6145938
    },
    {
      "suburb": {
        "id": 824,
        "name": "Ciwaru",
        "lat": -7.1038,
        "lng": 108.6294384
      },
      "city": {
        "id": 65,
        "name": "Kuningan",
        "lat": -7.0138053,
        "lng": 108.5700636
      },
      "province": {
        "id": 9,
        "name": "Jawa Barat",
        "lat": -7.090911,
        "lng": 107.668887
      },
      "country": {
        "id": 228,
        "name": "INDONESIA",
        "code": "ID"
      },
      "id": 8089,
      "name": "Andamui",
      "postcode": "45583",
      "lat": -7.0385115,
      "lng": 108.6561601
    },
    {
      "suburb": {
        "id": 824,
        "name": "Ciwaru",
        "lat": -7.1038,
        "lng": 108.6294384
      },
      "city": {
        "id": 65,
        "name": "Kuningan",
        "lat": -7.0138053,
        "lng": 108.5700636
      },
      "province": {
        "id": 9,
        "name": "Jawa Barat",
        "lat": -7.090911,
        "lng": 107.668887
      },
      "country": {
        "id": 228,
        "name": "INDONESIA",
        "code": "ID"
      },
      "id": 8090,
      "name": "Baok",
      "postcode": "45583",
      "lat": -7.048532,
      "lng": 108.6620986
    },
    {
      "suburb": {
        "id": 825,
        "name": "Cimahi",
        "lat": -6.9982123,
        "lng": 108.7007007
      },
      "city": {
        "id": 65,
        "name": "Kuningan",
        "lat": -7.0138053,
        "lng": 108.5700636
      },
      "province": {
        "id": 9,
        "name": "Jawa Barat",
        "lat": -7.090911,
        "lng": 107.668887
      },
      "country": {
        "id": 228,
        "name": "INDONESIA",
        "code": "ID"
      },
      "id": 8091,
      "name": "Mulyajaya",
      "postcode": "45582",
      "lat": -6.9735583,
      "lng": 108.7081246
    },
    {
      "suburb": {
        "id": 825,
        "name": "Cimahi",
        "lat": -6.9982123,
        "lng": 108.7007007
      },
      "city": {
        "id": 65,
        "name": "Kuningan",
        "lat": -7.0138053,
        "lng": 108.5700636
      },
      "province": {
        "id": 9,
        "name": "Jawa Barat",
        "lat": -7.090911,
        "lng": 107.668887
      },
      "country": {
        "id": 228,
        "name": "INDONESIA",
        "code": "ID"
      },
      "id": 8092,
      "name": "Sukajaya",
      "postcode": "45582",
      "lat": -6.9645291,
      "lng": 108.7096095
    },
    {
      "suburb": {
        "id": 825,
        "name": "Cimahi",
        "lat": -6.9982123,
        "lng": 108.7007007
      },
      "city": {
        "id": 65,
        "name": "Kuningan",
        "lat": -7.0138053,
        "lng": 108.5700636
      },
      "province": {
        "id": 9,
        "name": "Jawa Barat",
        "lat": -7.090911,
        "lng": 107.668887
      },
      "country": {
        "id": 228,
        "name": "INDONESIA",
        "code": "ID"
      },
      "id": 8093,
      "name": "Margamukti",
      "postcode": "45582",
      "lat": -7.0138404,
      "lng": 108.6947617
    },
    {
      "suburb": {
        "id": 825,
        "name": "Cimahi",
        "lat": -6.9982123,
        "lng": 108.7007007
      },
      "city": {
        "id": 65,
        "name": "Kuningan",
        "lat": -7.0138053,
        "lng": 108.5700636
      },
      "province": {
        "id": 9,
        "name": "Jawa Barat",
        "lat": -7.090911,
        "lng": 107.668887
      },
      "country": {
        "id": 228,
        "name": "INDONESIA",
        "code": "ID"
      },
      "id": 8094,
      "name": "Mekarjaya",
      "postcode": "45582",
      "lat": -6.9491574,
      "lng": 108.7096095
    },
    {
      "suburb": {
        "id": 825,
        "name": "Cimahi",
        "lat": -6.9982123,
        "lng": 108.7007007
      },
      "city": {
        "id": 65,
        "name": "Kuningan",
        "lat": -7.0138053,
        "lng": 108.5700636
      },
      "province": {
        "id": 9,
        "name": "Jawa Barat",
        "lat": -7.090911,
        "lng": 107.668887
      },
      "country": {
        "id": 228,
        "name": "INDONESIA",
        "code": "ID"
      },
      "id": 8095,
      "name": "Cimulya",
      "postcode": "45582",
      "lat": -7.0226343,
      "lng": 108.7303974
    },
    {
      "suburb": {
        "id": 825,
        "name": "Cimahi",
        "lat": -6.9982123,
        "lng": 108.7007007
      },
      "city": {
        "id": 65,
        "name": "Kuningan",
        "lat": -7.0138053,
        "lng": 108.5700636
      },
      "province": {
        "id": 9,
        "name": "Jawa Barat",
        "lat": -7.090911,
        "lng": 107.668887
      },
      "country": {
        "id": 228,
        "name": "INDONESIA",
        "code": "ID"
      },
      "id": 8096,
      "name": "Gunungsari",
      "postcode": "45582",
      "lat": -7.0055389,
      "lng": 108.7096095
    },
    {
      "suburb": {
        "id": 825,
        "name": "Cimahi",
        "lat": -6.9982123,
        "lng": 108.7007007
      },
      "city": {
        "id": 65,
        "name": "Kuningan",
        "lat": -7.0138053,
        "lng": 108.5700636
      },
      "province": {
        "id": 9,
        "name": "Jawa Barat",
        "lat": -7.090911,
        "lng": 107.668887
      },
      "country": {
        "id": 228,
        "name": "INDONESIA",
        "code": "ID"
      },
      "id": 8097,
      "name": "Kananga",
      "postcode": "45582",
      "lat": -6.9964987,
      "lng": 108.6799144
    },
    {
      "suburb": {
        "id": 825,
        "name": "Cimahi",
        "lat": -6.9982123,
        "lng": 108.7007007
      },
      "city": {
        "id": 65,
        "name": "Kuningan",
        "lat": -7.0138053,
        "lng": 108.5700636
      },
      "province": {
        "id": 9,
        "name": "Jawa Barat",
        "lat": -7.090911,
        "lng": 107.668887
      },
      "country": {
        "id": 228,
        "name": "INDONESIA",
        "code": "ID"
      },
      "id": 8098,
      "name": "Cikeusal",
      "postcode": "45582",
      "lat": -6.9706224,
      "lng": 108.6858533
    },
    {
      "suburb": {
        "id": 825,
        "name": "Cimahi",
        "lat": -6.9982123,
        "lng": 108.7007007
      },
      "city": {
        "id": 65,
        "name": "Kuningan",
        "lat": -7.0138053,
        "lng": 108.5700636
      },
      "province": {
        "id": 9,
        "name": "Jawa Barat",
        "lat": -7.090911,
        "lng": 107.668887
      },
      "country": {
        "id": 228,
        "name": "INDONESIA",
        "code": "ID"
      },
      "id": 8099,
      "name": "Cileuya",
      "postcode": "45582",
      "lat": -7.0321604,
      "lng": 108.6858533
    },
    {
      "suburb": {
        "id": 825,
        "name": "Cimahi",
        "lat": -6.9982123,
        "lng": 108.7007007
      },
      "city": {
        "id": 65,
        "name": "Kuningan",
        "lat": -7.0138053,
        "lng": 108.5700636
      },
      "province": {
        "id": 9,
        "name": "Jawa Barat",
        "lat": -7.090911,
        "lng": 107.668887
      },
      "country": {
        "id": 228,
        "name": "INDONESIA",
        "code": "ID"
      },
      "id": 8100,
      "name": "Cimahi",
      "postcode": "45582",
      "lat": -6.9830741,
      "lng": 108.6947617
    },
    {
      "suburb": {
        "id": 825,
        "name": "Cimahi",
        "lat": -6.9982123,
        "lng": 108.7007007
      },
      "city": {
        "id": 65,
        "name": "Kuningan",
        "lat": -7.0138053,
        "lng": 108.5700636
      },
      "province": {
        "id": 9,
        "name": "Jawa Barat",
        "lat": -7.090911,
        "lng": 107.668887
      },
      "country": {
        "id": 228,
        "name": "INDONESIA",
        "code": "ID"
      },
      "id": 8101,
      "name": "Benda",
      "postcode": "45582",
      "lat": -7.0021125,
      "lng": 108.6680371
    },
    {
      "suburb": {
        "id": 825,
        "name": "Cimahi",
        "lat": -6.9982123,
        "lng": 108.7007007
      },
      "city": {
        "id": 65,
        "name": "Kuningan",
        "lat": -7.0138053,
        "lng": 108.5700636
      },
      "province": {
        "id": 9,
        "name": "Jawa Barat",
        "lat": -7.090911,
        "lng": 107.668887
      },
      "country": {
        "id": 228,
        "name": "INDONESIA",
        "code": "ID"
      },
      "id": 8102,
      "name": "Cikaduwetan",
      "postcode": "45582",
      "lat": -7.0228741,
      "lng": 108.6620986
    },
    {
      "suburb": {
        "id": 826,
        "name": "Luragung",
        "lat": -7.0177568,
        "lng": 108.638412
      },
      "city": {
        "id": 65,
        "name": "Kuningan",
        "lat": -7.0138053,
        "lng": 108.5700636
      },
      "province": {
        "id": 9,
        "name": "Jawa Barat",
        "lat": -7.090911,
        "lng": 107.668887
      },
      "country": {
        "id": 228,
        "name": "INDONESIA",
        "code": "ID"
      },
      "id": 8103,
      "name": "Walaharcageur",
      "postcode": "45581",
      "lat": -7.0391155,
      "lng": 108.6101405
    },
    {
      "suburb": {
        "id": 826,
        "name": "Luragung",
        "lat": -7.0177568,
        "lng": 108.638412
      },
      "city": {
        "id": 65,
        "name": "Kuningan",
        "lat": -7.0138053,
        "lng": 108.5700636
      },
      "province": {
        "id": 9,
        "name": "Jawa Barat",
        "lat": -7.090911,
        "lng": 107.668887
      },
      "country": {
        "id": 228,
        "name": "INDONESIA",
        "code": "ID"
      },
      "id": 8104,
      "name": "Wilanagara",
      "postcode": "45581",
      "lat": -7.0397296,
      "lng": 108.6264694
    },
    {
      "suburb": {
        "id": 826,
        "name": "Luragung",
        "lat": -7.0177568,
        "lng": 108.638412
      },
      "city": {
        "id": 65,
        "name": "Kuningan",
        "lat": -7.0138053,
        "lng": 108.5700636
      },
      "province": {
        "id": 9,
        "name": "Jawa Barat",
        "lat": -7.090911,
        "lng": 107.668887
      },
      "country": {
        "id": 228,
        "name": "INDONESIA",
        "code": "ID"
      },
      "id": 8105,
      "name": "Sindangsari",
      "postcode": "45581",
      "lat": -7.0294648,
      "lng": 108.6264694
    },
    {
      "suburb": {
        "id": 826,
        "name": "Luragung",
        "lat": -7.0177568,
        "lng": 108.638412
      },
      "city": {
        "id": 65,
        "name": "Kuningan",
        "lat": -7.0138053,
        "lng": 108.5700636
      },
      "province": {
        "id": 9,
        "name": "Jawa Barat",
        "lat": -7.090911,
        "lng": 107.668887
      },
      "country": {
        "id": 228,
        "name": "INDONESIA",
        "code": "ID"
      },
      "id": 8106,
      "name": "Sindangsuka",
      "postcode": "45581",
      "lat": -7.0126061,
      "lng": 108.6309228
    },
    {
      "suburb": {
        "id": 826,
        "name": "Luragung",
        "lat": -7.0177568,
        "lng": 108.638412
      },
      "city": {
        "id": 65,
        "name": "Kuningan",
        "lat": -7.0138053,
        "lng": 108.5700636
      },
      "province": {
        "id": 9,
        "name": "Jawa Barat",
        "lat": -7.090911,
        "lng": 107.668887
      },
      "country": {
        "id": 228,
        "name": "INDONESIA",
        "code": "ID"
      },
      "id": 8107,
      "name": "Margasari",
      "postcode": "45581",
      "lat": -7.0203023,
      "lng": 108.6309228
    },
    {
      "suburb": {
        "id": 826,
        "name": "Luragung",
        "lat": -7.0177568,
        "lng": 108.638412
      },
      "city": {
        "id": 65,
        "name": "Kuningan",
        "lat": -7.0138053,
        "lng": 108.5700636
      },
      "province": {
        "id": 9,
        "name": "Jawa Barat",
        "lat": -7.090911,
        "lng": 107.668887
      },
      "country": {
        "id": 228,
        "name": "INDONESIA",
        "code": "ID"
      },
      "id": 8108,
      "name": "Panyosogan",
      "postcode": "45581",
      "lat": -6.9873212,
      "lng": 108.622016
    },
    {
      "suburb": {
        "id": 826,
        "name": "Luragung",
        "lat": -7.0177568,
        "lng": 108.638412
      },
      "city": {
        "id": 65,
        "name": "Kuningan",
        "lat": -7.0138053,
        "lng": 108.5700636
      },
      "province": {
        "id": 9,
        "name": "Jawa Barat",
        "lat": -7.090911,
        "lng": 107.668887
      },
      "country": {
        "id": 228,
        "name": "INDONESIA",
        "code": "ID"
      },
      "id": 8109,
      "name": "Luragungtonggoh",
      "postcode": "45581",
      "lat": -7.0249475,
      "lng": 108.642799
    },
    {
      "suburb": {
        "id": 826,
        "name": "Luragung",
        "lat": -7.0177568,
        "lng": 108.638412
      },
      "city": {
        "id": 65,
        "name": "Kuningan",
        "lat": -7.0138053,
        "lng": 108.5700636
      },
      "province": {
        "id": 9,
        "name": "Jawa Barat",
        "lat": -7.090911,
        "lng": 107.668887
      },
      "country": {
        "id": 228,
        "name": "INDONESIA",
        "code": "ID"
      },
      "id": 8110,
      "name": "Dukuhpicung",
      "postcode": "45581",
      "lat": -7.05513,
      "lng": 108.6264694
    },
    {
      "suburb": {
        "id": 826,
        "name": "Luragung",
        "lat": -7.0177568,
        "lng": 108.638412
      },
      "city": {
        "id": 65,
        "name": "Kuningan",
        "lat": -7.0138053,
        "lng": 108.5700636
      },
      "province": {
        "id": 9,
        "name": "Jawa Barat",
        "lat": -7.090911,
        "lng": 107.668887
      },
      "country": {
        "id": 228,
        "name": "INDONESIA",
        "code": "ID"
      },
      "id": 8111,
      "name": "Gunungkarung",
      "postcode": "45581",
      "lat": -6.9979538,
      "lng": 108.6442835
    },
    {
      "suburb": {
        "id": 826,
        "name": "Luragung",
        "lat": -7.0177568,
        "lng": 108.638412
      },
      "city": {
        "id": 65,
        "name": "Kuningan",
        "lat": -7.0138053,
        "lng": 108.5700636
      },
      "province": {
        "id": 9,
        "name": "Jawa Barat",
        "lat": -7.090911,
        "lng": 107.668887
      },
      "country": {
        "id": 228,
        "name": "INDONESIA",
        "code": "ID"
      },
      "id": 8112,
      "name": "Luragunglandeuh",
      "postcode": "45581",
      "lat": -7.01823,
      "lng": 108.6502218
    },
    {
      "suburb": {
        "id": 826,
        "name": "Luragung",
        "lat": -7.0177568,
        "lng": 108.638412
      },
      "city": {
        "id": 65,
        "name": "Kuningan",
        "lat": -7.0138053,
        "lng": 108.5700636
      },
      "province": {
        "id": 9,
        "name": "Jawa Barat",
        "lat": -7.090911,
        "lng": 107.668887
      },
      "country": {
        "id": 228,
        "name": "INDONESIA",
        "code": "ID"
      },
      "id": 8113,
      "name": "Cirahayu",
      "postcode": "45581",
      "lat": -7.0091825,
      "lng": 108.6205315
    },
    {
      "suburb": {
        "id": 826,
        "name": "Luragung",
        "lat": -7.0177568,
        "lng": 108.638412
      },
      "city": {
        "id": 65,
        "name": "Kuningan",
        "lat": -7.0138053,
        "lng": 108.5700636
      },
      "province": {
        "id": 9,
        "name": "Jawa Barat",
        "lat": -7.090911,
        "lng": 107.668887
      },
      "country": {
        "id": 228,
        "name": "INDONESIA",
        "code": "ID"
      },
      "id": 8114,
      "name": "Dukuhmaja",
      "postcode": "45581",
      "lat": -7.0079699,
      "lng": 108.6502218
    },
    {
      "suburb": {
        "id": 826,
        "name": "Luragung",
        "lat": -7.0177568,
        "lng": 108.638412
      },
      "city": {
        "id": 65,
        "name": "Kuningan",
        "lat": -7.0138053,
        "lng": 108.5700636
      },
      "province": {
        "id": 9,
        "name": "Jawa Barat",
        "lat": -7.090911,
        "lng": 107.668887
      },
      "country": {
        "id": 228,
        "name": "INDONESIA",
        "code": "ID"
      },
      "id": 8115,
      "name": "Cigedang",
      "postcode": "45581",
      "lat": -7.0303222,
      "lng": 108.6368609
    },
    {
      "suburb": {
        "id": 826,
        "name": "Luragung",
        "lat": -7.0177568,
        "lng": 108.638412
      },
      "city": {
        "id": 65,
        "name": "Kuningan",
        "lat": -7.0138053,
        "lng": 108.5700636
      },
      "province": {
        "id": 9,
        "name": "Jawa Barat",
        "lat": -7.090911,
        "lng": 107.668887
      },
      "country": {
        "id": 228,
        "name": "INDONESIA",
        "code": "ID"
      },
      "id": 8116,
      "name": "Cikandang",
      "postcode": "45581",
      "lat": -6.9986803,
      "lng": 108.6264694
    },
    {
      "suburb": {
        "id": 817,
        "name": "Cipicung",
        "lat": -6.9375866,
        "lng": 108.5522531
      },
      "city": {
        "id": 65,
        "name": "Kuningan",
        "lat": -7.0138053,
        "lng": 108.5700636
      },
      "province": {
        "id": 9,
        "name": "Jawa Barat",
        "lat": -7.090911,
        "lng": 107.668887
      },
      "country": {
        "id": 228,
        "name": "INDONESIA",
        "code": "ID"
      },
      "id": 8117,
      "name": "Mekarsari",
      "postcode": "45576",
      "lat": -6.9394056,
      "lng": 108.5388958
    },
    {
      "suburb": {
        "id": 827,
        "name": "Maleber",
        "lat": -7.0646611,
        "lng": 108.5819378
      },
      "city": {
        "id": 65,
        "name": "Kuningan",
        "lat": -7.0138053,
        "lng": 108.5700636
      },
      "province": {
        "id": 9,
        "name": "Jawa Barat",
        "lat": -7.090911,
        "lng": 107.668887
      },
      "country": {
        "id": 228,
        "name": "INDONESIA",
        "code": "ID"
      },
      "id": 8118,
      "name": "Padamulya",
      "postcode": "45575",
      "lat": -7.0529159,
      "lng": 108.5552215
    },
    {
      "suburb": {
        "id": 827,
        "name": "Maleber",
        "lat": -7.0646611,
        "lng": 108.5819378
      },
      "city": {
        "id": 65,
        "name": "Kuningan",
        "lat": -7.0138053,
        "lng": 108.5700636
      },
      "province": {
        "id": 9,
        "name": "Jawa Barat",
        "lat": -7.090911,
        "lng": 107.668887
      },
      "country": {
        "id": 228,
        "name": "INDONESIA",
        "code": "ID"
      },
      "id": 8119,
      "name": "Parakan",
      "postcode": "45575",
      "lat": -7.0274842,
      "lng": 108.5492848
    },
    {
      "suburb": {
        "id": 827,
        "name": "Maleber",
        "lat": -7.0646611,
        "lng": 108.5819378
      },
      "city": {
        "id": 65,
        "name": "Kuningan",
        "lat": -7.0138053,
        "lng": 108.5700636
      },
      "province": {
        "id": 9,
        "name": "Jawa Barat",
        "lat": -7.090911,
        "lng": 107.668887
      },
      "country": {
        "id": 228,
        "name": "INDONESIA",
        "code": "ID"
      },
      "id": 8120,
      "name": "Maleber",
      "postcode": "45575",
      "lat": -7.0254143,
      "lng": 108.5685794
    },
    {
      "suburb": {
        "id": 827,
        "name": "Maleber",
        "lat": -7.0646611,
        "lng": 108.5819378
      },
      "city": {
        "id": 65,
        "name": "Kuningan",
        "lat": -7.0138053,
        "lng": 108.5700636
      },
      "province": {
        "id": 9,
        "name": "Jawa Barat",
        "lat": -7.090911,
        "lng": 107.668887
      },
      "country": {
        "id": 228,
        "name": "INDONESIA",
        "code": "ID"
      },
      "id": 8121,
      "name": "Mekarsari",
      "postcode": "45575",
      "lat": -7.046809,
      "lng": 108.5789692
    },
    {
      "suburb": {
        "id": 827,
        "name": "Maleber",
        "lat": -7.0646611,
        "lng": 108.5819378
      },
      "city": {
        "id": 65,
        "name": "Kuningan",
        "lat": -7.0138053,
        "lng": 108.5700636
      },
      "province": {
        "id": 9,
        "name": "Jawa Barat",
        "lat": -7.090911,
        "lng": 107.668887
      },
      "country": {
        "id": 228,
        "name": "INDONESIA",
        "code": "ID"
      },
      "id": 8122,
      "name": "Giriwaringin",
      "postcode": "45575",
      "lat": -7.0825176,
      "lng": 108.5849064
    },
    {
      "suburb": {
        "id": 827,
        "name": "Maleber",
        "lat": -7.0646611,
        "lng": 108.5819378
      },
      "city": {
        "id": 65,
        "name": "Kuningan",
        "lat": -7.0138053,
        "lng": 108.5700636
      },
      "province": {
        "id": 9,
        "name": "Jawa Barat",
        "lat": -7.090911,
        "lng": 107.668887
      },
      "country": {
        "id": 228,
        "name": "INDONESIA",
        "code": "ID"
      },
      "id": 8123,
      "name": "Karangtengah",
      "postcode": "45575",
      "lat": -7.0329934,
      "lng": 108.5715479
    },
    {
      "suburb": {
        "id": 827,
        "name": "Maleber",
        "lat": -7.0646611,
        "lng": 108.5819378
      },
      "city": {
        "id": 65,
        "name": "Kuningan",
        "lat": -7.0138053,
        "lng": 108.5700636
      },
      "province": {
        "id": 9,
        "name": "Jawa Barat",
        "lat": -7.090911,
        "lng": 107.668887
      },
      "country": {
        "id": 228,
        "name": "INDONESIA",
        "code": "ID"
      },
      "id": 8124,
      "name": "Kutamandarakan",
      "postcode": "45575",
      "lat": -7.0258984,
      "lng": 108.5567057
    },
    {
      "suburb": {
        "id": 827,
        "name": "Maleber",
        "lat": -7.0646611,
        "lng": 108.5819378
      },
      "city": {
        "id": 65,
        "name": "Kuningan",
        "lat": -7.0138053,
        "lng": 108.5700636
      },
      "province": {
        "id": 9,
        "name": "Jawa Barat",
        "lat": -7.090911,
        "lng": 107.668887
      },
      "country": {
        "id": 228,
        "name": "INDONESIA",
        "code": "ID"
      },
      "id": 8125,
      "name": "Galaherang",
      "postcode": "45575",
      "lat": -7.0485252,
      "lng": 108.5997498
    },
    {
      "suburb": {
        "id": 827,
        "name": "Maleber",
        "lat": -7.0646611,
        "lng": 108.5819378
      },
      "city": {
        "id": 65,
        "name": "Kuningan",
        "lat": -7.0138053,
        "lng": 108.5700636
      },
      "province": {
        "id": 9,
        "name": "Jawa Barat",
        "lat": -7.090911,
        "lng": 107.668887
      },
      "country": {
        "id": 228,
        "name": "INDONESIA",
        "code": "ID"
      },
      "id": 8126,
      "name": "Garahaji",
      "postcode": "45575",
      "lat": -7.0543951,
      "lng": 108.6131093
    },
    {
      "suburb": {
        "id": 827,
        "name": "Maleber",
        "lat": -7.0646611,
        "lng": 108.5819378
      },
      "city": {
        "id": 65,
        "name": "Kuningan",
        "lat": -7.0138053,
        "lng": 108.5700636
      },
      "province": {
        "id": 9,
        "name": "Jawa Barat",
        "lat": -7.090911,
        "lng": 107.668887
      },
      "country": {
        "id": 228,
        "name": "INDONESIA",
        "code": "ID"
      },
      "id": 8127,
      "name": "Dukuhtengah",
      "postcode": "45575",
      "lat": -7.0276176,
      "lng": 108.5774849
    },
    {
      "suburb": {
        "id": 827,
        "name": "Maleber",
        "lat": -7.0646611,
        "lng": 108.5819378
      },
      "city": {
        "id": 65,
        "name": "Kuningan",
        "lat": -7.0138053,
        "lng": 108.5700636
      },
      "province": {
        "id": 9,
        "name": "Jawa Barat",
        "lat": -7.090911,
        "lng": 107.668887
      },
      "country": {
        "id": 228,
        "name": "INDONESIA",
        "code": "ID"
      },
      "id": 8128,
      "name": "Cikahuripan",
      "postcode": "45575",
      "lat": -7.0379949,
      "lng": 108.5433482
    },
    {
      "suburb": {
        "id": 827,
        "name": "Maleber",
        "lat": -7.0646611,
        "lng": 108.5819378
      },
      "city": {
        "id": 65,
        "name": "Kuningan",
        "lat": -7.0138053,
        "lng": 108.5700636
      },
      "province": {
        "id": 9,
        "name": "Jawa Barat",
        "lat": -7.090911,
        "lng": 107.668887
      },
      "country": {
        "id": 228,
        "name": "INDONESIA",
        "code": "ID"
      },
      "id": 8129,
      "name": "Cipakem",
      "postcode": "45575",
      "lat": -7.0808031,
      "lng": 108.5641267
    },
    {
      "suburb": {
        "id": 827,
        "name": "Maleber",
        "lat": -7.0646611,
        "lng": 108.5819378
      },
      "city": {
        "id": 65,
        "name": "Kuningan",
        "lat": -7.0138053,
        "lng": 108.5700636
      },
      "province": {
        "id": 9,
        "name": "Jawa Barat",
        "lat": -7.090911,
        "lng": 107.668887
      },
      "country": {
        "id": 228,
        "name": "INDONESIA",
        "code": "ID"
      },
      "id": 8130,
      "name": "Buniasih",
      "postcode": "45575",
      "lat": -7.0326297,
      "lng": 108.5804535
    },
    {
      "suburb": {
        "id": 828,
        "name": "Lebakwangi",
        "lat": -7.0079483,
        "lng": 108.587875
      },
      "city": {
        "id": 65,
        "name": "Kuningan",
        "lat": -7.0138053,
        "lng": 108.5700636
      },
      "province": {
        "id": 9,
        "name": "Jawa Barat",
        "lat": -7.090911,
        "lng": 107.668887
      },
      "country": {
        "id": 228,
        "name": "INDONESIA",
        "code": "ID"
      },
      "id": 8131,
      "name": "Sindang",
      "postcode": "45574",
      "lat": -6.9991504,
      "lng": 108.5834221
    },
    {
      "suburb": {
        "id": 828,
        "name": "Lebakwangi",
        "lat": -7.0079483,
        "lng": 108.587875
      },
      "city": {
        "id": 65,
        "name": "Kuningan",
        "lat": -7.0138053,
        "lng": 108.5700636
      },
      "province": {
        "id": 9,
        "name": "Jawa Barat",
        "lat": -7.090911,
        "lng": 107.668887
      },
      "country": {
        "id": 228,
        "name": "INDONESIA",
        "code": "ID"
      },
      "id": 8132,
      "name": "Pajawankidul",
      "postcode": "45574",
      "lat": -7.0024399,
      "lng": 108.5656109
    },
    {
      "suburb": {
        "id": 828,
        "name": "Lebakwangi",
        "lat": -7.0079483,
        "lng": 108.587875
      },
      "city": {
        "id": 65,
        "name": "Kuningan",
        "lat": -7.0138053,
        "lng": 108.5700636
      },
      "province": {
        "id": 9,
        "name": "Jawa Barat",
        "lat": -7.090911,
        "lng": 107.668887
      },
      "country": {
        "id": 228,
        "name": "INDONESIA",
        "code": "ID"
      },
      "id": 8133,
      "name": "Pasayangan",
      "postcode": "45574",
      "lat": -6.9995124,
      "lng": 108.5745164
    },
    {
      "suburb": {
        "id": 828,
        "name": "Lebakwangi",
        "lat": -7.0079483,
        "lng": 108.587875
      },
      "city": {
        "id": 65,
        "name": "Kuningan",
        "lat": -7.0138053,
        "lng": 108.5700636
      },
      "province": {
        "id": 9,
        "name": "Jawa Barat",
        "lat": -7.090911,
        "lng": 107.668887
      },
      "country": {
        "id": 228,
        "name": "INDONESIA",
        "code": "ID"
      },
      "id": 8134,
      "name": "Mekarwangi",
      "postcode": "45574",
      "lat": -7.0112523,
      "lng": 108.6012342
    },
    {
      "suburb": {
        "id": 828,
        "name": "Lebakwangi",
        "lat": -7.0079483,
        "lng": 108.587875
      },
      "city": {
        "id": 65,
        "name": "Kuningan",
        "lat": -7.0138053,
        "lng": 108.5700636
      },
      "province": {
        "id": 9,
        "name": "Jawa Barat",
        "lat": -7.090911,
        "lng": 107.668887
      },
      "country": {
        "id": 228,
        "name": "INDONESIA",
        "code": "ID"
      },
      "id": 8135,
      "name": "Pagundan",
      "postcode": "45574",
      "lat": -6.9861863,
      "lng": 108.5552215
    },
    {
      "suburb": {
        "id": 827,
        "name": "Maleber",
        "lat": -7.0646611,
        "lng": 108.5819378
      },
      "city": {
        "id": 65,
        "name": "Kuningan",
        "lat": -7.0138053,
        "lng": 108.5700636
      },
      "province": {
        "id": 9,
        "name": "Jawa Barat",
        "lat": -7.090911,
        "lng": 107.668887
      },
      "country": {
        "id": 228,
        "name": "INDONESIA",
        "code": "ID"
      },
      "id": 8136,
      "name": "Mandalajaya",
      "postcode": "45574",
      "lat": -7.0129451,
      "lng": 108.5596741
    },
    {
      "suburb": {
        "id": 828,
        "name": "Lebakwangi",
        "lat": -7.0079483,
        "lng": 108.587875
      },
      "city": {
        "id": 65,
        "name": "Kuningan",
        "lat": -7.0138053,
        "lng": 108.5700636
      },
      "province": {
        "id": 9,
        "name": "Jawa Barat",
        "lat": -7.090911,
        "lng": 107.668887
      },
      "country": {
        "id": 228,
        "name": "INDONESIA",
        "code": "ID"
      },
      "id": 8137,
      "name": "Manggari",
      "postcode": "45574",
      "lat": -6.9947433,
      "lng": 108.5656109
    },
    {
      "suburb": {
        "id": 828,
        "name": "Lebakwangi",
        "lat": -7.0079483,
        "lng": 108.587875
      },
      "city": {
        "id": 65,
        "name": "Kuningan",
        "lat": -7.0138053,
        "lng": 108.5700636
      },
      "province": {
        "id": 9,
        "name": "Jawa Barat",
        "lat": -7.090911,
        "lng": 107.668887
      },
      "country": {
        "id": 228,
        "name": "INDONESIA",
        "code": "ID"
      },
      "id": 8138,
      "name": "Lebakwangi",
      "postcode": "45574",
      "lat": -7.0213943,
      "lng": 108.6042029
    },
    {
      "suburb": {
        "id": 828,
        "name": "Lebakwangi",
        "lat": -7.0079483,
        "lng": 108.587875
      },
      "city": {
        "id": 65,
        "name": "Kuningan",
        "lat": -7.0138053,
        "lng": 108.5700636
      },
      "province": {
        "id": 9,
        "name": "Jawa Barat",
        "lat": -7.090911,
        "lng": 107.668887
      },
      "country": {
        "id": 228,
        "name": "INDONESIA",
        "code": "ID"
      },
      "id": 8139,
      "name": "Mancagar",
      "postcode": "45574",
      "lat": -7.0149739,
      "lng": 108.5886172
    },
    {
      "suburb": {
        "id": 828,
        "name": "Lebakwangi",
        "lat": -7.0079483,
        "lng": 108.587875
      },
      "city": {
        "id": 65,
        "name": "Kuningan",
        "lat": -7.0138053,
        "lng": 108.5700636
      },
      "province": {
        "id": 9,
        "name": "Jawa Barat",
        "lat": -7.090911,
        "lng": 107.668887
      },
      "country": {
        "id": 228,
        "name": "INDONESIA",
        "code": "ID"
      },
      "id": 8140,
      "name": "Langseb",
      "postcode": "45574",
      "lat": -7.0120992,
      "lng": 108.5804535
    },
    {
      "suburb": {
        "id": 827,
        "name": "Maleber",
        "lat": -7.0646611,
        "lng": 108.5819378
      },
      "city": {
        "id": 65,
        "name": "Kuningan",
        "lat": -7.0138053,
        "lng": 108.5700636
      },
      "province": {
        "id": 9,
        "name": "Jawa Barat",
        "lat": -7.090911,
        "lng": 107.668887
      },
      "country": {
        "id": 228,
        "name": "INDONESIA",
        "code": "ID"
      },
      "id": 8141,
      "name": "Kutaraja",
      "postcode": "45574",
      "lat": -7.0179568,
      "lng": 108.5626425
    },
    {
      "suburb": {
        "id": 828,
        "name": "Lebakwangi",
        "lat": -7.0079483,
        "lng": 108.587875
      },
      "city": {
        "id": 65,
        "name": "Kuningan",
        "lat": -7.0138053,
        "lng": 108.5700636
      },
      "province": {
        "id": 9,
        "name": "Jawa Barat",
        "lat": -7.090911,
        "lng": 107.668887
      },
      "country": {
        "id": 228,
        "name": "INDONESIA",
        "code": "ID"
      },
      "id": 8142,
      "name": "Cipeutir/Cipetir",
      "postcode": "45574",
      "lat": -7.0266478,
      "lng": 108.6012342
    },
    {
      "suburb": {
        "id": 827,
        "name": "Maleber",
        "lat": -7.0646611,
        "lng": 108.5819378
      },
      "city": {
        "id": 65,
        "name": "Kuningan",
        "lat": -7.0138053,
        "lng": 108.5700636
      },
      "province": {
        "id": 9,
        "name": "Jawa Barat",
        "lat": -7.090911,
        "lng": 107.668887
      },
      "country": {
        "id": 228,
        "name": "INDONESIA",
        "code": "ID"
      },
      "id": 8143,
      "name": "Ciporang",
      "postcode": "45574",
      "lat": -7.0124619,
      "lng": 108.5715479
    },
    {
      "suburb": {
        "id": 828,
        "name": "Lebakwangi",
        "lat": -7.0079483,
        "lng": 108.587875
      },
      "city": {
        "id": 65,
        "name": "Kuningan",
        "lat": -7.0138053,
        "lng": 108.5700636
      },
      "province": {
        "id": 9,
        "name": "Jawa Barat",
        "lat": -7.090911,
        "lng": 107.668887
      },
      "country": {
        "id": 228,
        "name": "INDONESIA",
        "code": "ID"
      },
      "id": 8144,
      "name": "Cinagara",
      "postcode": "45574",
      "lat": -7.0272541,
      "lng": 108.5863907
    },
    {
      "suburb": {
        "id": 828,
        "name": "Lebakwangi",
        "lat": -7.0079483,
        "lng": 108.587875
      },
      "city": {
        "id": 65,
        "name": "Kuningan",
        "lat": -7.0138053,
        "lng": 108.5700636
      },
      "province": {
        "id": 9,
        "name": "Jawa Barat",
        "lat": -7.090911,
        "lng": 107.668887
      },
      "country": {
        "id": 228,
        "name": "INDONESIA",
        "code": "ID"
      },
      "id": 8145,
      "name": "Cineubeuy/Cineumbeuy",
      "postcode": "45574",
      "lat": -7.029578,
      "lng": 108.592328
    },
    {
      "suburb": {
        "id": 829,
        "name": "Sindangagung",
        "lat": -6.9693118,
        "lng": 108.5285072
      },
      "city": {
        "id": 65,
        "name": "Kuningan",
        "lat": -7.0138053,
        "lng": 108.5700636
      },
      "province": {
        "id": 9,
        "name": "Jawa Barat",
        "lat": -7.090911,
        "lng": 107.668887
      },
      "country": {
        "id": 228,
        "name": "INDONESIA",
        "code": "ID"
      },
      "id": 8146,
      "name": "Tirtawangunan",
      "postcode": "45573",
      "lat": -6.9658364,
      "lng": 108.5351855
    },
    {
      "suburb": {
        "id": 828,
        "name": "Lebakwangi",
        "lat": -7.0079483,
        "lng": 108.587875
      },
      "city": {
        "id": 65,
        "name": "Kuningan",
        "lat": -7.0138053,
        "lng": 108.5700636
      },
      "province": {
        "id": 9,
        "name": "Jawa Barat",
        "lat": -7.090911,
        "lng": 107.668887
      },
      "country": {
        "id": 228,
        "name": "INDONESIA",
        "code": "ID"
      },
      "id": 8147,
      "name": "Bendungan",
      "postcode": "45574",
      "lat": -7.0013534,
      "lng": 108.592328
    },
    {
      "suburb": {
        "id": 829,
        "name": "Sindangagung",
        "lat": -6.9693118,
        "lng": 108.5285072
      },
      "city": {
        "id": 65,
        "name": "Kuningan",
        "lat": -7.0138053,
        "lng": 108.5700636
      },
      "province": {
        "id": 9,
        "name": "Jawa Barat",
        "lat": -7.090911,
        "lng": 107.668887
      },
      "country": {
        "id": 228,
        "name": "INDONESIA",
        "code": "ID"
      },
      "id": 8148,
      "name": "Sindangsari",
      "postcode": "45573",
      "lat": -6.978829,
      "lng": 108.5151507
    },
    {
      "suburb": {
        "id": 829,
        "name": "Sindangagung",
        "lat": -6.9693118,
        "lng": 108.5285072
      },
      "city": {
        "id": 65,
        "name": "Kuningan",
        "lat": -7.0138053,
        "lng": 108.5700636
      },
      "province": {
        "id": 9,
        "name": "Jawa Barat",
        "lat": -7.090911,
        "lng": 107.668887
      },
      "country": {
        "id": 228,
        "name": "INDONESIA",
        "code": "ID"
      },
      "id": 8149,
      "name": "Taraju",
      "postcode": "45573",
      "lat": -6.9500189,
      "lng": 108.5299912
    },
    {
      "suburb": {
        "id": 829,
        "name": "Sindangagung",
        "lat": -6.9693118,
        "lng": 108.5285072
      },
      "city": {
        "id": 65,
        "name": "Kuningan",
        "lat": -7.0138053,
        "lng": 108.5700636
      },
      "province": {
        "id": 9,
        "name": "Jawa Barat",
        "lat": -7.090911,
        "lng": 107.668887
      },
      "country": {
        "id": 228,
        "name": "INDONESIA",
        "code": "ID"
      },
      "id": 8150,
      "name": "Mekarmukti",
      "postcode": "45573",
      "lat": -6.9743931,
      "lng": 108.5455744
    },
    {
      "suburb": {
        "id": 829,
        "name": "Sindangagung",
        "lat": -6.9693118,
        "lng": 108.5285072
      },
      "city": {
        "id": 65,
        "name": "Kuningan",
        "lat": -7.0138053,
        "lng": 108.5700636
      },
      "province": {
        "id": 9,
        "name": "Jawa Barat",
        "lat": -7.090911,
        "lng": 107.668887
      },
      "country": {
        "id": 228,
        "name": "INDONESIA",
        "code": "ID"
      },
      "id": 8151,
      "name": "Sindangagung",
      "postcode": "45573",
      "lat": -6.9829996,
      "lng": 108.5388958
    },
    {
      "suburb": {
        "id": 829,
        "name": "Sindangagung",
        "lat": -6.9693118,
        "lng": 108.5285072
      },
      "city": {
        "id": 65,
        "name": "Kuningan",
        "lat": -7.0138053,
        "lng": 108.5700636
      },
      "province": {
        "id": 9,
        "name": "Jawa Barat",
        "lat": -7.090911,
        "lng": 107.668887
      },
      "country": {
        "id": 228,
        "name": "INDONESIA",
        "code": "ID"
      },
      "id": 8152,
      "name": "Kertawangunan",
      "postcode": "45573",
      "lat": -6.9706542,
      "lng": 108.5270231
    },
    {
      "suburb": {
        "id": 829,
        "name": "Sindangagung",
        "lat": -6.9693118,
        "lng": 108.5285072
      },
      "city": {
        "id": 65,
        "name": "Kuningan",
        "lat": -7.0138053,
        "lng": 108.5700636
      },
      "province": {
        "id": 9,
        "name": "Jawa Barat",
        "lat": -7.090911,
        "lng": 107.668887
      },
      "country": {
        "id": 228,
        "name": "INDONESIA",
        "code": "ID"
      },
      "id": 8153,
      "name": "Kertayasa",
      "postcode": "45573",
      "lat": -6.9701747,
      "lng": 108.5388958
    },
    {
      "suburb": {
        "id": 829,
        "name": "Sindangagung",
        "lat": -6.9693118,
        "lng": 108.5285072
      },
      "city": {
        "id": 65,
        "name": "Kuningan",
        "lat": -7.0138053,
        "lng": 108.5700636
      },
      "province": {
        "id": 9,
        "name": "Jawa Barat",
        "lat": -7.090911,
        "lng": 107.668887
      },
      "country": {
        "id": 228,
        "name": "INDONESIA",
        "code": "ID"
      },
      "id": 8154,
      "name": "Kertaungaran",
      "postcode": "45573",
      "lat": -6.9820172,
      "lng": 108.5314753
    },
    {
      "suburb": {
        "id": 829,
        "name": "Sindangagung",
        "lat": -6.9693118,
        "lng": 108.5285072
      },
      "city": {
        "id": 65,
        "name": "Kuningan",
        "lat": -7.0138053,
        "lng": 108.5700636
      },
      "province": {
        "id": 9,
        "name": "Jawa Barat",
        "lat": -7.090911,
        "lng": 107.668887
      },
      "country": {
        "id": 228,
        "name": "INDONESIA",
        "code": "ID"
      },
      "id": 8155,
      "name": "Dukuhlor",
      "postcode": "45573",
      "lat": -6.9575918,
      "lng": 108.5329594
    },
    {
      "suburb": {
        "id": 829,
        "name": "Sindangagung",
        "lat": -6.9693118,
        "lng": 108.5285072
      },
      "city": {
        "id": 65,
        "name": "Kuningan",
        "lat": -7.0138053,
        "lng": 108.5700636
      },
      "province": {
        "id": 9,
        "name": "Jawa Barat",
        "lat": -7.090911,
        "lng": 107.668887
      },
      "country": {
        "id": 228,
        "name": "INDONESIA",
        "code": "ID"
      },
      "id": 8156,
      "name": "Kaduagung",
      "postcode": "45573",
      "lat": -6.9811522,
      "lng": 108.5226271
    },
    {
      "suburb": {
        "id": 829,
        "name": "Sindangagung",
        "lat": -6.9693118,
        "lng": 108.5285072
      },
      "city": {
        "id": 65,
        "name": "Kuningan",
        "lat": -7.0138053,
        "lng": 108.5700636
      },
      "province": {
        "id": 9,
        "name": "Jawa Barat",
        "lat": -7.090911,
        "lng": 107.668887
      },
      "country": {
        "id": 228,
        "name": "INDONESIA",
        "code": "ID"
      },
      "id": 8157,
      "name": "Babakanreuma",
      "postcode": "45573",
      "lat": -6.96296,
      "lng": 108.5270231
    },
    {
      "suburb": {
        "id": 829,
        "name": "Sindangagung",
        "lat": -6.9693118,
        "lng": 108.5285072
      },
      "city": {
        "id": 65,
        "name": "Kuningan",
        "lat": -7.0138053,
        "lng": 108.5700636
      },
      "province": {
        "id": 9,
        "name": "Jawa Barat",
        "lat": -7.090911,
        "lng": 107.668887
      },
      "country": {
        "id": 228,
        "name": "INDONESIA",
        "code": "ID"
      },
      "id": 8158,
      "name": "Balong",
      "postcode": "45573",
      "lat": -6.9827593,
      "lng": 108.5448323
    },
    {
      "suburb": {
        "id": 830,
        "name": "Garawangi",
        "lat": -7.0049887,
        "lng": 108.5344435
      },
      "city": {
        "id": 65,
        "name": "Kuningan",
        "lat": -7.0138053,
        "lng": 108.5700636
      },
      "province": {
        "id": 9,
        "name": "Jawa Barat",
        "lat": -7.090911,
        "lng": 107.668887
      },
      "country": {
        "id": 228,
        "name": "INDONESIA",
        "code": "ID"
      },
      "id": 8159,
      "name": "Tembong",
      "postcode": "45571",
      "lat": -7.0020419,
      "lng": 108.5121827
    },
    {
      "suburb": {
        "id": 830,
        "name": "Garawangi",
        "lat": -7.0049887,
        "lng": 108.5344435
      },
      "city": {
        "id": 65,
        "name": "Kuningan",
        "lat": -7.0138053,
        "lng": 108.5700636
      },
      "province": {
        "id": 9,
        "name": "Jawa Barat",
        "lat": -7.090911,
        "lng": 107.668887
      },
      "country": {
        "id": 228,
        "name": "INDONESIA",
        "code": "ID"
      },
      "id": 8160,
      "name": "Pakembangan",
      "postcode": "45572",
      "lat": -7.0130494,
      "lng": 108.525539
    },
    {
      "suburb": {
        "id": 830,
        "name": "Garawangi",
        "lat": -7.0049887,
        "lng": 108.5344435
      },
      "city": {
        "id": 65,
        "name": "Kuningan",
        "lat": -7.0138053,
        "lng": 108.5700636
      },
      "province": {
        "id": 9,
        "name": "Jawa Barat",
        "lat": -7.090911,
        "lng": 107.668887
      },
      "country": {
        "id": 228,
        "name": "INDONESIA",
        "code": "ID"
      },
      "id": 8161,
      "name": "Sukamulya",
      "postcode": "45571",
      "lat": -6.9947343,
      "lng": 108.5500269
    },
    {
      "suburb": {
        "id": 830,
        "name": "Garawangi",
        "lat": -7.0049887,
        "lng": 108.5344435
      },
      "city": {
        "id": 65,
        "name": "Kuningan",
        "lat": -7.0138053,
        "lng": 108.5700636
      },
      "province": {
        "id": 9,
        "name": "Jawa Barat",
        "lat": -7.090911,
        "lng": 107.668887
      },
      "country": {
        "id": 228,
        "name": "INDONESIA",
        "code": "ID"
      },
      "id": 8162,
      "name": "Tambakbaya",
      "postcode": "45571",
      "lat": -7.0072619,
      "lng": 108.5574478
    },
    {
      "suburb": {
        "id": 830,
        "name": "Garawangi",
        "lat": -7.0049887,
        "lng": 108.5344435
      },
      "city": {
        "id": 65,
        "name": "Kuningan",
        "lat": -7.0138053,
        "lng": 108.5700636
      },
      "province": {
        "id": 9,
        "name": "Jawa Barat",
        "lat": -7.090911,
        "lng": 107.668887
      },