{
  "metadata": {
    "path": "/v3/location/areas?limit=1000&page=24",
    "http_status_code": 200,
    "http_status": "OK",
    "timestamp": 1647335357
  },
  "data": [
    {
      "suburb": {
        "id": 2036,
        "name": "Tegalampel",
        "lat": -7.8815476,
        "lng": 113.8227792
      },
      "city": {
        "id": 118,
        "name": "Bondowoso",
        "lat": -7.9673906,
        "lng": 113.9060624
      },
      "province": {
        "id": 11,
        "name": "Jawa Timur",
        "lat": -7.5360639,
        "lng": 112.2384017
      },
      "country": {
        "id": 228,
        "name": "INDONESIA",
        "code": "ID"
      },
      "id": 23012,
      "name": "Tanggulangin",
      "postcode": "68291",
      "lat": -7.8795593,
      "lng": 113.8138552
    },
    {
      "suburb": {
        "id": 2036,
        "name": "Tegalampel",
        "lat": -7.8815476,
        "lng": 113.8227792
      },
      "city": {
        "id": 118,
        "name": "Bondowoso",
        "lat": -7.9673906,
        "lng": 113.9060624
      },
      "province": {
        "id": 11,
        "name": "Jawa Timur",
        "lat": -7.5360639,
        "lng": 112.2384017
      },
      "country": {
        "id": 228,
        "name": "INDONESIA",
        "code": "ID"
      },
      "id": 23013,
      "name": "Tegalampel",
      "postcode": "68291",
      "lat": -7.8839935,
      "lng": 113.8450885
    },
    {
      "suburb": {
        "id": 2035,
        "name": "Taman Krocok",
        "lat": -7.8585143,
        "lng": 113.8703713
      },
      "city": {
        "id": 118,
        "name": "Bondowoso",
        "lat": -7.9673906,
        "lng": 113.9060624
      },
      "province": {
        "id": 11,
        "name": "Jawa Timur",
        "lat": -7.5360639,
        "lng": 112.2384017
      },
      "country": {
        "id": 228,
        "name": "INDONESIA",
        "code": "ID"
      },
      "id": 23014,
      "name": "Sumberkokap",
      "postcode": "68291",
      "lat": -7.8713023,
      "lng": 113.8673969
    },
    {
      "suburb": {
        "id": 2036,
        "name": "Tegalampel",
        "lat": -7.8815476,
        "lng": 113.8227792
      },
      "city": {
        "id": 118,
        "name": "Bondowoso",
        "lat": -7.9673906,
        "lng": 113.9060624
      },
      "province": {
        "id": 11,
        "name": "Jawa Timur",
        "lat": -7.5360639,
        "lng": 112.2384017
      },
      "country": {
        "id": 228,
        "name": "INDONESIA",
        "code": "ID"
      },
      "id": 23015,
      "name": "Sekarputih",
      "postcode": "68291",
      "lat": -7.898319,
      "lng": 113.8376522
    },
    {
      "suburb": {
        "id": 2035,
        "name": "Taman Krocok",
        "lat": -7.8585143,
        "lng": 113.8703713
      },
      "city": {
        "id": 118,
        "name": "Bondowoso",
        "lat": -7.9673906,
        "lng": 113.9060624
      },
      "province": {
        "id": 11,
        "name": "Jawa Timur",
        "lat": -7.5360639,
        "lng": 112.2384017
      },
      "country": {
        "id": 228,
        "name": "INDONESIA",
        "code": "ID"
      },
      "id": 23016,
      "name": "Paguan",
      "postcode": "68291",
      "lat": -7.891483,
      "lng": 113.8673969
    },
    {
      "suburb": {
        "id": 2036,
        "name": "Tegalampel",
        "lat": -7.8815476,
        "lng": 113.8227792
      },
      "city": {
        "id": 118,
        "name": "Bondowoso",
        "lat": -7.9673906,
        "lng": 113.9060624
      },
      "province": {
        "id": 11,
        "name": "Jawa Timur",
        "lat": -7.5360639,
        "lng": 112.2384017
      },
      "country": {
        "id": 228,
        "name": "INDONESIA",
        "code": "ID"
      },
      "id": 23017,
      "name": "Purnama",
      "postcode": "68291",
      "lat": -7.8755813,
      "lng": 113.7960067
    },
    {
      "suburb": {
        "id": 2036,
        "name": "Tegalampel",
        "lat": -7.8815476,
        "lng": 113.8227792
      },
      "city": {
        "id": 118,
        "name": "Bondowoso",
        "lat": -7.9673906,
        "lng": 113.9060624
      },
      "province": {
        "id": 11,
        "name": "Jawa Timur",
        "lat": -7.5360639,
        "lng": 112.2384017
      },
      "country": {
        "id": 228,
        "name": "INDONESIA",
        "code": "ID"
      },
      "id": 23018,
      "name": "Mandiro",
      "postcode": "68291",
      "lat": -7.8734433,
      "lng": 113.831703
    },
    {
      "suburb": {
        "id": 2035,
        "name": "Taman Krocok",
        "lat": -7.8585143,
        "lng": 113.8703713
      },
      "city": {
        "id": 118,
        "name": "Bondowoso",
        "lat": -7.9673906,
        "lng": 113.9060624
      },
      "province": {
        "id": 11,
        "name": "Jawa Timur",
        "lat": -7.5360639,
        "lng": 112.2384017
      },
      "country": {
        "id": 228,
        "name": "INDONESIA",
        "code": "ID"
      },
      "id": 23019,
      "name": "Kretek",
      "postcode": "68291",
      "lat": -7.8350788,
      "lng": 113.8406268
    },
    {
      "suburb": {
        "id": 2036,
        "name": "Tegalampel",
        "lat": -7.8815476,
        "lng": 113.8227792
      },
      "city": {
        "id": 118,
        "name": "Bondowoso",
        "lat": -7.9673906,
        "lng": 113.9060624
      },
      "province": {
        "id": 11,
        "name": "Jawa Timur",
        "lat": -7.5360639,
        "lng": 112.2384017
      },
      "country": {
        "id": 228,
        "name": "INDONESIA",
        "code": "ID"
      },
      "id": 23020,
      "name": "Klabang Agung",
      "postcode": "68291",
      "lat": -7.8644207,
      "lng": 113.8138552
    },
    {
      "suburb": {
        "id": 2036,
        "name": "Tegalampel",
        "lat": -7.8815476,
        "lng": 113.8227792
      },
      "city": {
        "id": 118,
        "name": "Bondowoso",
        "lat": -7.9673906,
        "lng": 113.9060624
      },
      "province": {
        "id": 11,
        "name": "Jawa Timur",
        "lat": -7.5360639,
        "lng": 112.2384017
      },
      "country": {
        "id": 228,
        "name": "INDONESIA",
        "code": "ID"
      },
      "id": 23021,
      "name": "Klabang",
      "postcode": "68291",
      "lat": -7.8465858,
      "lng": 113.8168299
    },
    {
      "suburb": {
        "id": 2035,
        "name": "Taman Krocok",
        "lat": -7.8585143,
        "lng": 113.8703713
      },
      "city": {
        "id": 118,
        "name": "Bondowoso",
        "lat": -7.9673906,
        "lng": 113.9060624
      },
      "province": {
        "id": 11,
        "name": "Jawa Timur",
        "lat": -7.5360639,
        "lng": 112.2384017
      },
      "country": {
        "id": 228,
        "name": "INDONESIA",
        "code": "ID"
      },
      "id": 23022,
      "name": "Kemuningan",
      "postcode": "68291",
      "lat": -7.8383442,
      "lng": 113.8703713
    },
    {
      "suburb": {
        "id": 2036,
        "name": "Tegalampel",
        "lat": -7.8815476,
        "lng": 113.8227792
      },
      "city": {
        "id": 118,
        "name": "Bondowoso",
        "lat": -7.9673906,
        "lng": 113.9060624
      },
      "province": {
        "id": 11,
        "name": "Jawa Timur",
        "lat": -7.5360639,
        "lng": 112.2384017
      },
      "country": {
        "id": 228,
        "name": "INDONESIA",
        "code": "ID"
      },
      "id": 23023,
      "name": "Karanganyar",
      "postcode": "68291",
      "lat": -7.8970467,
      "lng": 113.8168299
    },
    {
      "suburb": {
        "id": 2035,
        "name": "Taman Krocok",
        "lat": -7.8585143,
        "lng": 113.8703713
      },
      "city": {
        "id": 118,
        "name": "Bondowoso",
        "lat": -7.9673906,
        "lng": 113.9060624
      },
      "province": {
        "id": 11,
        "name": "Jawa Timur",
        "lat": -7.5360639,
        "lng": 112.2384017
      },
      "country": {
        "id": 228,
        "name": "INDONESIA",
        "code": "ID"
      },
      "id": 23024,
      "name": "Gentong",
      "postcode": "68291",
      "lat": -7.8516886,
      "lng": 113.9001141
    },
    {
      "suburb": {
        "id": 2037,
        "name": "Sempol",
        "lat": -8.0522759,
        "lng": 114.1677159
      },
      "city": {
        "id": 118,
        "name": "Bondowoso",
        "lat": -7.9673906,
        "lng": 113.9060624
      },
      "province": {
        "id": 11,
        "name": "Jawa Timur",
        "lat": -7.5360639,
        "lng": 112.2384017
      },
      "country": {
        "id": 228,
        "name": "INDONESIA",
        "code": "ID"
      },
      "id": 23025,
      "name": "Sempol",
      "postcode": "68288",
      "lat": -8.0094307,
      "lng": 114.1260991
    },
    {
      "suburb": {
        "id": 2037,
        "name": "Sempol",
        "lat": -8.0522759,
        "lng": 114.1677159
      },
      "city": {
        "id": 118,
        "name": "Bondowoso",
        "lat": -7.9673906,
        "lng": 113.9060624
      },
      "province": {
        "id": 11,
        "name": "Jawa Timur",
        "lat": -7.5360639,
        "lng": 112.2384017
      },
      "country": {
        "id": 228,
        "name": "INDONESIA",
        "code": "ID"
      },
      "id": 23026,
      "name": "Sumber Rejo",
      "postcode": "68288",
      "lat": -8.0197797,
      "lng": 114.2033843
    },
    {
      "suburb": {
        "id": 2037,
        "name": "Sempol",
        "lat": -8.0522759,
        "lng": 114.1677159
      },
      "city": {
        "id": 118,
        "name": "Bondowoso",
        "lat": -7.9673906,
        "lng": 113.9060624
      },
      "province": {
        "id": 11,
        "name": "Jawa Timur",
        "lat": -7.5360639,
        "lng": 112.2384017
      },
      "country": {
        "id": 228,
        "name": "INDONESIA",
        "code": "ID"
      },
      "id": 23027,
      "name": "Kalisat",
      "postcode": "68288",
      "lat": -7.9877815,
      "lng": 114.1498806
    },
    {
      "suburb": {
        "id": 2037,
        "name": "Sempol",
        "lat": -8.0522759,
        "lng": 114.1677159
      },
      "city": {
        "id": 118,
        "name": "Bondowoso",
        "lat": -7.9673906,
        "lng": 113.9060624
      },
      "province": {
        "id": 11,
        "name": "Jawa Timur",
        "lat": -7.5360639,
        "lng": 112.2384017
      },
      "country": {
        "id": 228,
        "name": "INDONESIA",
        "code": "ID"
      },
      "id": 23028,
      "name": "Kaligedang",
      "postcode": "68288",
      "lat": -7.9949293,
      "lng": 114.1974398
    },
    {
      "suburb": {
        "id": 2037,
        "name": "Sempol",
        "lat": -8.0522759,
        "lng": 114.1677159
      },
      "city": {
        "id": 118,
        "name": "Bondowoso",
        "lat": -7.9673906,
        "lng": 113.9060624
      },
      "province": {
        "id": 11,
        "name": "Jawa Timur",
        "lat": -7.5360639,
        "lng": 112.2384017
      },
      "country": {
        "id": 228,
        "name": "INDONESIA",
        "code": "ID"
      },
      "id": 23029,
      "name": "Kalianyar",
      "postcode": "68288",
      "lat": -8.0616321,
      "lng": 114.1796057
    },
    {
      "suburb": {
        "id": 2037,
        "name": "Sempol",
        "lat": -8.0522759,
        "lng": 114.1677159
      },
      "city": {
        "id": 118,
        "name": "Bondowoso",
        "lat": -7.9673906,
        "lng": 113.9060624
      },
      "province": {
        "id": 11,
        "name": "Jawa Timur",
        "lat": -7.5360639,
        "lng": 112.2384017
      },
      "country": {
        "id": 228,
        "name": "INDONESIA",
        "code": "ID"
      },
      "id": 23030,
      "name": "Jampit",
      "postcode": "68288",
      "lat": -8.086282,
      "lng": 114.1082622
    },
    {
      "suburb": {
        "id": 2038,
        "name": "Sumber Wringin",
        "lat": -8.0098831,
        "lng": 114.0369075
      },
      "city": {
        "id": 118,
        "name": "Bondowoso",
        "lat": -7.9673906,
        "lng": 113.9060624
      },
      "province": {
        "id": 11,
        "name": "Jawa Timur",
        "lat": -7.5360639,
        "lng": 112.2384017
      },
      "country": {
        "id": 228,
        "name": "INDONESIA",
        "code": "ID"
      },
      "id": 23031,
      "name": "Tegaljati",
      "postcode": "68287",
      "lat": -8.0456058,
      "lng": 114.0309608
    },
    {
      "suburb": {
        "id": 2038,
        "name": "Sumber Wringin",
        "lat": -8.0098831,
        "lng": 114.0369075
      },
      "city": {
        "id": 118,
        "name": "Bondowoso",
        "lat": -7.9673906,
        "lng": 113.9060624
      },
      "province": {
        "id": 11,
        "name": "Jawa Timur",
        "lat": -7.5360639,
        "lng": 112.2384017
      },
      "country": {
        "id": 228,
        "name": "INDONESIA",
        "code": "ID"
      },
      "id": 23032,
      "name": "Sumber Wringin",
      "postcode": "68287",
      "lat": -8.0894359,
      "lng": 113.7900311
    },
    {
      "suburb": {
        "id": 2038,
        "name": "Sumber Wringin",
        "lat": -8.0098831,
        "lng": 114.0369075
      },
      "city": {
        "id": 118,
        "name": "Bondowoso",
        "lat": -7.9673906,
        "lng": 113.9060624
      },
      "province": {
        "id": 11,
        "name": "Jawa Timur",
        "lat": -7.5360639,
        "lng": 112.2384017
      },
      "country": {
        "id": 228,
        "name": "INDONESIA",
        "code": "ID"
      },
      "id": 23033,
      "name": "Sumber Gading",
      "postcode": "68287",
      "lat": -7.9506044,
      "lng": 113.9744632
    },
    {
      "suburb": {
        "id": 2039,
        "name": "Sukosari",
        "lat": -7.9419581,
        "lng": 113.9506727
      },
      "city": {
        "id": 118,
        "name": "Bondowoso",
        "lat": -7.9673906,
        "lng": 113.9060624
      },
      "province": {
        "id": 11,
        "name": "Jawa Timur",
        "lat": -7.5360639,
        "lng": 112.2384017
      },
      "country": {
        "id": 228,
        "name": "INDONESIA",
        "code": "ID"
      },
      "id": 23034,
      "name": "Sukosari Lor",
      "postcode": "68287",
      "lat": -7.9419581,
      "lng": 113.9506727
    },
    {
      "suburb": {
        "id": 2038,
        "name": "Sumber Wringin",
        "lat": -8.0098831,
        "lng": 114.0369075
      },
      "city": {
        "id": 118,
        "name": "Bondowoso",
        "lat": -7.9673906,
        "lng": 113.9060624
      },
      "province": {
        "id": 11,
        "name": "Jawa Timur",
        "lat": -7.5360639,
        "lng": 112.2384017
      },
      "country": {
        "id": 228,
        "name": "INDONESIA",
        "code": "ID"
      },
      "id": 23035,
      "name": "Sukosari Kidul",
      "postcode": "68287",
      "lat": -7.9657469,
      "lng": 113.9744632
    },
    {
      "suburb": {
        "id": 2038,
        "name": "Sumber Wringin",
        "lat": -8.0098831,
        "lng": 114.0369075
      },
      "city": {
        "id": 118,
        "name": "Bondowoso",
        "lat": -7.9673906,
        "lng": 113.9060624
      },
      "province": {
        "id": 11,
        "name": "Jawa Timur",
        "lat": -7.5360639,
        "lng": 112.2384017
      },
      "country": {
        "id": 228,
        "name": "INDONESIA",
        "code": "ID"
      },
      "id": 23036,
      "name": "Sukorejo",
      "postcode": "68287",
      "lat": -7.964818,
      "lng": 114.0309608
    },
    {
      "suburb": {
        "id": 2038,
        "name": "Sumber Wringin",
        "lat": -8.0098831,
        "lng": 114.0369075
      },
      "city": {
        "id": 118,
        "name": "Bondowoso",
        "lat": -7.9673906,
        "lng": 113.9060624
      },
      "province": {
        "id": 11,
        "name": "Jawa Timur",
        "lat": -7.5360639,
        "lng": 112.2384017
      },
      "country": {
        "id": 228,
        "name": "INDONESIA",
        "code": "ID"
      },
      "id": 23037,
      "name": "Rejoagung",
      "postcode": "68287",
      "lat": -8.0286156,
      "lng": 114.0606936
    },
    {
      "suburb": {
        "id": 2039,
        "name": "Sukosari",
        "lat": -7.9419581,
        "lng": 113.9506727
      },
      "city": {
        "id": 118,
        "name": "Bondowoso",
        "lat": -7.9673906,
        "lng": 113.9060624
      },
      "province": {
        "id": 11,
        "name": "Jawa Timur",
        "lat": -7.5360639,
        "lng": 112.2384017
      },
      "country": {
        "id": 228,
        "name": "INDONESIA",
        "code": "ID"
      },
      "id": 23038,
      "name": "Nogosari",
      "postcode": "68287",
      "lat": -7.9304197,
      "lng": 113.9744632
    },
    {
      "suburb": {
        "id": 2039,
        "name": "Sukosari",
        "lat": -7.9419581,
        "lng": 113.9506727
      },
      "city": {
        "id": 118,
        "name": "Bondowoso",
        "lat": -7.9673906,
        "lng": 113.9060624
      },
      "province": {
        "id": 11,
        "name": "Jawa Timur",
        "lat": -7.5360639,
        "lng": 112.2384017
      },
      "country": {
        "id": 228,
        "name": "INDONESIA",
        "code": "ID"
      },
      "id": 23039,
      "name": "Pecalongan",
      "postcode": "68287",
      "lat": -7.9628741,
      "lng": 113.938777
    },
    {
      "suburb": {
        "id": 2039,
        "name": "Sukosari",
        "lat": -7.9419581,
        "lng": 113.9506727
      },
      "city": {
        "id": 118,
        "name": "Bondowoso",
        "lat": -7.9673906,
        "lng": 113.9060624
      },
      "province": {
        "id": 11,
        "name": "Jawa Timur",
        "lat": -7.5360639,
        "lng": 112.2384017
      },
      "country": {
        "id": 228,
        "name": "INDONESIA",
        "code": "ID"
      },
      "id": 23040,
      "name": "Kerang",
      "postcode": "68287",
      "lat": -7.9379948,
      "lng": 113.9328291
    },
    {
      "suburb": {
        "id": 2040,
        "name": "Cermee",
        "lat": -7.8269225,
        "lng": 114.0606936
      },
      "city": {
        "id": 118,
        "name": "Bondowoso",
        "lat": -7.9673906,
        "lng": 113.9060624
      },
      "province": {
        "id": 11,
        "name": "Jawa Timur",
        "lat": -7.5360639,
        "lng": 112.2384017
      },
      "country": {
        "id": 228,
        "name": "INDONESIA",
        "code": "ID"
      },
      "id": 23041,
      "name": "Suling Wetan",
      "postcode": "68286",
      "lat": -7.8098399,
      "lng": 114.051774
    },
    {
      "suburb": {
        "id": 2040,
        "name": "Cermee",
        "lat": -7.8269225,
        "lng": 114.0606936
      },
      "city": {
        "id": 118,
        "name": "Bondowoso",
        "lat": -7.9673906,
        "lng": 113.9060624
      },
      "province": {
        "id": 11,
        "name": "Jawa Timur",
        "lat": -7.5360639,
        "lng": 112.2384017
      },
      "country": {
        "id": 228,
        "name": "INDONESIA",
        "code": "ID"
      },
      "id": 23042,
      "name": "Suling Kulon",
      "postcode": "68286",
      "lat": -7.7907776,
      "lng": 114.0339342
    },
    {
      "suburb": {
        "id": 2040,
        "name": "Cermee",
        "lat": -7.8269225,
        "lng": 114.0606936
      },
      "city": {
        "id": 118,
        "name": "Bondowoso",
        "lat": -7.9673906,
        "lng": 113.9060624
      },
      "province": {
        "id": 11,
        "name": "Jawa Timur",
        "lat": -7.5360639,
        "lng": 112.2384017
      },
      "country": {
        "id": 228,
        "name": "INDONESIA",
        "code": "ID"
      },
      "id": 23043,
      "name": "Solor",
      "postcode": "68286",
      "lat": -7.9201104,
      "lng": 114.1023164
    },
    {
      "suburb": {
        "id": 2040,
        "name": "Cermee",
        "lat": -7.8269225,
        "lng": 114.0606936
      },
      "city": {
        "id": 118,
        "name": "Bondowoso",
        "lat": -7.9673906,
        "lng": 113.9060624
      },
      "province": {
        "id": 11,
        "name": "Jawa Timur",
        "lat": -7.5360639,
        "lng": 112.2384017
      },
      "country": {
        "id": 228,
        "name": "INDONESIA",
        "code": "ID"
      },
      "id": 23044,
      "name": "Ramban Wetan",
      "postcode": "68286",
      "lat": -7.7810686,
      "lng": 114.0279874
    },
    {
      "suburb": {
        "id": 2040,
        "name": "Cermee",
        "lat": -7.8269225,
        "lng": 114.0606936
      },
      "city": {
        "id": 118,
        "name": "Bondowoso",
        "lat": -7.9673906,
        "lng": 113.9060624
      },
      "province": {
        "id": 11,
        "name": "Jawa Timur",
        "lat": -7.5360639,
        "lng": 112.2384017
      },
      "country": {
        "id": 228,
        "name": "INDONESIA",
        "code": "ID"
      },
      "id": 23045,
      "name": "Ramban Kulon",
      "postcode": "68286",
      "lat": -7.7767474,
      "lng": 114.0160937
    },
    {
      "suburb": {
        "id": 2040,
        "name": "Cermee",
        "lat": -7.8269225,
        "lng": 114.0606936
      },
      "city": {
        "id": 118,
        "name": "Bondowoso",
        "lat": -7.9673906,
        "lng": 113.9060624
      },
      "province": {
        "id": 11,
        "name": "Jawa Timur",
        "lat": -7.5360639,
        "lng": 112.2384017
      },
      "country": {
        "id": 228,
        "name": "INDONESIA",
        "code": "ID"
      },
      "id": 23046,
      "name": "Pelalangan",
      "postcode": "68286",
      "lat": -7.8092467,
      "lng": 114.0302174
    },
    {
      "suburb": {
        "id": 2040,
        "name": "Cermee",
        "lat": -7.8269225,
        "lng": 114.0606936
      },
      "city": {
        "id": 118,
        "name": "Bondowoso",
        "lat": -7.9673906,
        "lng": 113.9060624
      },
      "province": {
        "id": 11,
        "name": "Jawa Timur",
        "lat": -7.5360639,
        "lng": 112.2384017
      },
      "country": {
        "id": 228,
        "name": "INDONESIA",
        "code": "ID"
      },
      "id": 23047,
      "name": "Kladi",
      "postcode": "68286",
      "lat": -7.8281853,
      "lng": 114.0815055
    },
    {
      "suburb": {
        "id": 2040,
        "name": "Cermee",
        "lat": -7.8269225,
        "lng": 114.0606936
      },
      "city": {
        "id": 118,
        "name": "Bondowoso",
        "lat": -7.9673906,
        "lng": 113.9060624
      },
      "province": {
        "id": 11,
        "name": "Jawa Timur",
        "lat": -7.5360639,
        "lng": 112.2384017
      },
      "country": {
        "id": 228,
        "name": "INDONESIA",
        "code": "ID"
      },
      "id": 23048,
      "name": "Jirek Mas",
      "postcode": "68286",
      "lat": -7.9013999,
      "lng": 114.0785324
    },
    {
      "suburb": {
        "id": 2040,
        "name": "Cermee",
        "lat": -7.8269225,
        "lng": 114.0606936
      },
      "city": {
        "id": 118,
        "name": "Bondowoso",
        "lat": -7.9673906,
        "lng": 113.9060624
      },
      "province": {
        "id": 11,
        "name": "Jawa Timur",
        "lat": -7.5360639,
        "lng": 112.2384017
      },
      "country": {
        "id": 228,
        "name": "INDONESIA",
        "code": "ID"
      },
      "id": 23049,
      "name": "Bercak Asri",
      "postcode": "68286",
      "lat": -7.7772306,
      "lng": 114.0710997
    },
    {
      "suburb": {
        "id": 2040,
        "name": "Cermee",
        "lat": -7.8269225,
        "lng": 114.0606936
      },
      "city": {
        "id": 118,
        "name": "Bondowoso",
        "lat": -7.9673906,
        "lng": 113.9060624
      },
      "province": {
        "id": 11,
        "name": "Jawa Timur",
        "lat": -7.5360639,
        "lng": 112.2384017
      },
      "country": {
        "id": 228,
        "name": "INDONESIA",
        "code": "ID"
      },
      "id": 23050,
      "name": "Cermee",
      "postcode": "68286",
      "lat": -7.7726324,
      "lng": 114.0428542
    },
    {
      "suburb": {
        "id": 2040,
        "name": "Cermee",
        "lat": -7.8269225,
        "lng": 114.0606936
      },
      "city": {
        "id": 118,
        "name": "Bondowoso",
        "lat": -7.9673906,
        "lng": 113.9060624
      },
      "province": {
        "id": 11,
        "name": "Jawa Timur",
        "lat": -7.5360639,
        "lng": 112.2384017
      },
      "country": {
        "id": 228,
        "name": "INDONESIA",
        "code": "ID"
      },
      "id": 23051,
      "name": "Bercak",
      "postcode": "68286",
      "lat": -7.7789334,
      "lng": 114.0636668
    },
    {
      "suburb": {
        "id": 2040,
        "name": "Cermee",
        "lat": -7.8269225,
        "lng": 114.0606936
      },
      "city": {
        "id": 118,
        "name": "Bondowoso",
        "lat": -7.9673906,
        "lng": 113.9060624
      },
      "province": {
        "id": 11,
        "name": "Jawa Timur",
        "lat": -7.5360639,
        "lng": 112.2384017
      },
      "country": {
        "id": 228,
        "name": "INDONESIA",
        "code": "ID"
      },
      "id": 23052,
      "name": "Batu Salang",
      "postcode": "68286",
      "lat": -7.8033776,
      "lng": 114.0755593
    },
    {
      "suburb": {
        "id": 2040,
        "name": "Cermee",
        "lat": -7.8269225,
        "lng": 114.0606936
      },
      "city": {
        "id": 118,
        "name": "Bondowoso",
        "lat": -7.9673906,
        "lng": 113.9060624
      },
      "province": {
        "id": 11,
        "name": "Jawa Timur",
        "lat": -7.5360639,
        "lng": 112.2384017
      },
      "country": {
        "id": 228,
        "name": "INDONESIA",
        "code": "ID"
      },
      "id": 23053,
      "name": "Bajuran",
      "postcode": "68286",
      "lat": -7.8547983,
      "lng": 114.0577204
    },
    {
      "suburb": {
        "id": 2040,
        "name": "Cermee",
        "lat": -7.8269225,
        "lng": 114.0606936
      },
      "city": {
        "id": 118,
        "name": "Bondowoso",
        "lat": -7.9673906,
        "lng": 113.9060624
      },
      "province": {
        "id": 11,
        "name": "Jawa Timur",
        "lat": -7.5360639,
        "lng": 112.2384017
      },
      "country": {
        "id": 228,
        "name": "INDONESIA",
        "code": "ID"
      },
      "id": 23054,
      "name": "Batu Ampar",
      "postcode": "68286",
      "lat": -7.8040922,
      "lng": 114.0636668
    },
    {
      "suburb": {
        "id": 2041,
        "name": "Prajekan",
        "lat": -7.7923506,
        "lng": 113.9655419
      },
      "city": {
        "id": 118,
        "name": "Bondowoso",
        "lat": -7.9673906,
        "lng": 113.9060624
      },
      "province": {
        "id": 11,
        "name": "Jawa Timur",
        "lat": -7.5360639,
        "lng": 112.2384017
      },
      "country": {
        "id": 228,
        "name": "INDONESIA",
        "code": "ID"
      },
      "id": 23055,
      "name": "Tarum",
      "postcode": "68285",
      "lat": -7.7967777,
      "lng": 113.9967657
    },
    {
      "suburb": {
        "id": 2041,
        "name": "Prajekan",
        "lat": -7.7923506,
        "lng": 113.9655419
      },
      "city": {
        "id": 118,
        "name": "Bondowoso",
        "lat": -7.9673906,
        "lng": 113.9060624
      },
      "province": {
        "id": 11,
        "name": "Jawa Timur",
        "lat": -7.5360639,
        "lng": 112.2384017
      },
      "country": {
        "id": 228,
        "name": "INDONESIA",
        "code": "ID"
      },
      "id": 23056,
      "name": "Walidono",
      "postcode": "68285",
      "lat": -7.7869608,
      "lng": 113.9714894
    },
    {
      "suburb": {
        "id": 2041,
        "name": "Prajekan",
        "lat": -7.7923506,
        "lng": 113.9655419
      },
      "city": {
        "id": 118,
        "name": "Bondowoso",
        "lat": -7.9673906,
        "lng": 113.9060624
      },
      "province": {
        "id": 11,
        "name": "Jawa Timur",
        "lat": -7.5360639,
        "lng": 112.2384017
      },
      "country": {
        "id": 228,
        "name": "INDONESIA",
        "code": "ID"
      },
      "id": 23057,
      "name": "Prajekan Lor",
      "postcode": "68285",
      "lat": -7.7845482,
      "lng": 113.9908184
    },
    {
      "suburb": {
        "id": 2041,
        "name": "Prajekan",
        "lat": -7.7923506,
        "lng": 113.9655419
      },
      "city": {
        "id": 118,
        "name": "Bondowoso",
        "lat": -7.9673906,
        "lng": 113.9060624
      },
      "province": {
        "id": 11,
        "name": "Jawa Timur",
        "lat": -7.5360639,
        "lng": 112.2384017
      },
      "country": {
        "id": 228,
        "name": "INDONESIA",
        "code": "ID"
      },
      "id": 23058,
      "name": "Sempol",
      "postcode": "68285",
      "lat": -7.812339,
      "lng": 114.0101467
    },
    {
      "suburb": {
        "id": 2042,
        "name": "Botolinggo",
        "lat": -7.9089721,
        "lng": 114.0369075
      },
      "city": {
        "id": 118,
        "name": "Bondowoso",
        "lat": -7.9673906,
        "lng": 113.9060624
      },
      "province": {
        "id": 11,
        "name": "Jawa Timur",
        "lat": -7.5360639,
        "lng": 112.2384017
      },
      "country": {
        "id": 228,
        "name": "INDONESIA",
        "code": "ID"
      },
      "id": 23059,
      "name": "Penang",
      "postcode": "68285",
      "lat": -7.9222872,
      "lng": 114.06664
    },
    {
      "suburb": {
        "id": 2041,
        "name": "Prajekan",
        "lat": -7.7923506,
        "lng": 113.9655419
      },
      "city": {
        "id": 118,
        "name": "Bondowoso",
        "lat": -7.9673906,
        "lng": 113.9060624
      },
      "province": {
        "id": 11,
        "name": "Jawa Timur",
        "lat": -7.5360639,
        "lng": 112.2384017
      },
      "country": {
        "id": 228,
        "name": "INDONESIA",
        "code": "ID"
      },
      "id": 23060,
      "name": "Prajekan Kidul",
      "postcode": "68285",
      "lat": -7.7990147,
      "lng": 113.9804106
    },
    {
      "suburb": {
        "id": 2042,
        "name": "Botolinggo",
        "lat": -7.9089721,
        "lng": 114.0369075
      },
      "city": {
        "id": 118,
        "name": "Bondowoso",
        "lat": -7.9673906,
        "lng": 113.9060624
      },
      "province": {
        "id": 11,
        "name": "Jawa Timur",
        "lat": -7.5360639,
        "lng": 112.2384017
      },
      "country": {
        "id": 228,
        "name": "INDONESIA",
        "code": "ID"
      },
      "id": 23061,
      "name": "Klekehan (Klekean)",
      "postcode": "68285",
      "lat": -7.8472361,
      "lng": 114.0160937
    },
    {
      "suburb": {
        "id": 2042,
        "name": "Botolinggo",
        "lat": -7.9089721,
        "lng": 114.0369075
      },
      "city": {
        "id": 118,
        "name": "Bondowoso",
        "lat": -7.9673906,
        "lng": 113.9060624
      },
      "province": {
        "id": 11,
        "name": "Jawa Timur",
        "lat": -7.5360639,
        "lng": 112.2384017
      },
      "country": {
        "id": 228,
        "name": "INDONESIA",
        "code": "ID"
      },
      "id": 23062,
      "name": "Gayam",
      "postcode": "68285",
      "lat": -7.8432728,
      "lng": 113.9982525
    },
    {
      "suburb": {
        "id": 2042,
        "name": "Botolinggo",
        "lat": -7.9089721,
        "lng": 114.0369075
      },
      "city": {
        "id": 118,
        "name": "Bondowoso",
        "lat": -7.9673906,
        "lng": 113.9060624
      },
      "province": {
        "id": 11,
        "name": "Jawa Timur",
        "lat": -7.5360639,
        "lng": 112.2384017
      },
      "country": {
        "id": 228,
        "name": "INDONESIA",
        "code": "ID"
      },
      "id": 23063,
      "name": "Gayam Lor",
      "postcode": "68285",
      "lat": -7.8083732,
      "lng": 113.9923053
    },
    {
      "suburb": {
        "id": 2041,
        "name": "Prajekan",
        "lat": -7.7923506,
        "lng": 113.9655419
      },
      "city": {
        "id": 118,
        "name": "Bondowoso",
        "lat": -7.9673906,
        "lng": 113.9060624
      },
      "province": {
        "id": 11,
        "name": "Jawa Timur",
        "lat": -7.5360639,
        "lng": 112.2384017
      },
      "country": {
        "id": 228,
        "name": "INDONESIA",
        "code": "ID"
      },
      "id": 23064,
      "name": "Bandilan",
      "postcode": "68285",
      "lat": -7.8337484,
      "lng": 114.0309608
    },
    {
      "suburb": {
        "id": 2041,
        "name": "Prajekan",
        "lat": -7.7923506,
        "lng": 113.9655419
      },
      "city": {
        "id": 118,
        "name": "Bondowoso",
        "lat": -7.9673906,
        "lng": 113.9060624
      },
      "province": {
        "id": 11,
        "name": "Jawa Timur",
        "lat": -7.5360639,
        "lng": 112.2384017
      },
      "country": {
        "id": 228,
        "name": "INDONESIA",
        "code": "ID"
      },
      "id": 23065,
      "name": "Cangkring",
      "postcode": "68285",
      "lat": -7.8004367,
      "lng": 113.9566204
    },
    {
      "suburb": {
        "id": 2043,
        "name": "Klabang",
        "lat": -7.8153397,
        "lng": 113.9179589
      },
      "city": {
        "id": 118,
        "name": "Bondowoso",
        "lat": -7.9673906,
        "lng": 113.9060624
      },
      "province": {
        "id": 11,
        "name": "Jawa Timur",
        "lat": -7.5360639,
        "lng": 112.2384017
      },
      "country": {
        "id": 228,
        "name": "INDONESIA",
        "code": "ID"
      },
      "id": 23066,
      "name": "Wonokerto",
      "postcode": "68284",
      "lat": -7.8500029,
      "lng": 113.9491858
    },
    {
      "suburb": {
        "id": 2043,
        "name": "Klabang",
        "lat": -7.8153397,
        "lng": 113.9179589
      },
      "city": {
        "id": 118,
        "name": "Bondowoso",
        "lat": -7.9673906,
        "lng": 113.9060624
      },
      "province": {
        "id": 11,
        "name": "Jawa Timur",
        "lat": -7.5360639,
        "lng": 112.2384017
      },
      "country": {
        "id": 228,
        "name": "INDONESIA",
        "code": "ID"
      },
      "id": 23067,
      "name": "Sumbersuko",
      "postcode": "68284",
      "lat": -7.8302023,
      "lng": 113.9432379
    },
    {
      "suburb": {
        "id": 2043,
        "name": "Klabang",
        "lat": -7.8153397,
        "lng": 113.9179589
      },
      "city": {
        "id": 118,
        "name": "Bondowoso",
        "lat": -7.9673906,
        "lng": 113.9060624
      },
      "province": {
        "id": 11,
        "name": "Jawa Timur",
        "lat": -7.5360639,
        "lng": 112.2384017
      },
      "country": {
        "id": 228,
        "name": "INDONESIA",
        "code": "ID"
      },
      "id": 23068,
      "name": "Wonoboyo",
      "postcode": "68284",
      "lat": -7.8127857,
      "lng": 113.87632
    },
    {
      "suburb": {
        "id": 2042,
        "name": "Botolinggo",
        "lat": -7.9089721,
        "lng": 114.0369075
      },
      "city": {
        "id": 118,
        "name": "Bondowoso",
        "lat": -7.9673906,
        "lng": 113.9060624
      },
      "province": {
        "id": 11,
        "name": "Jawa Timur",
        "lat": -7.5360639,
        "lng": 112.2384017
      },
      "country": {
        "id": 228,
        "name": "INDONESIA",
        "code": "ID"
      },
      "id": 23069,
      "name": "Sumbercanting",
      "postcode": "68284",
      "lat": -7.9532721,
      "lng": 114.0547472
    },
    {
      "suburb": {
        "id": 2043,
        "name": "Klabang",
        "lat": -7.8153397,
        "lng": 113.9179589
      },
      "city": {
        "id": 118,
        "name": "Bondowoso",
        "lat": -7.9673906,
        "lng": 113.9060624
      },
      "province": {
        "id": 11,
        "name": "Jawa Timur",
        "lat": -7.5360639,
        "lng": 112.2384017
      },
      "country": {
        "id": 228,
        "name": "INDONESIA",
        "code": "ID"
      },
      "id": 23070,
      "name": "Pandak",
      "postcode": "68284",
      "lat": -7.8166142,
      "lng": 113.938777
    },
    {
      "suburb": {
        "id": 2042,
        "name": "Botolinggo",
        "lat": -7.9089721,
        "lng": 114.0369075
      },
      "city": {
        "id": 118,
        "name": "Bondowoso",
        "lat": -7.9673906,
        "lng": 113.9060624
      },
      "province": {
        "id": 11,
        "name": "Jawa Timur",
        "lat": -7.5360639,
        "lng": 112.2384017
      },
      "country": {
        "id": 228,
        "name": "INDONESIA",
        "code": "ID"
      },
      "id": 23071,
      "name": "Lumutan",
      "postcode": "68284",
      "lat": -7.8288752,
      "lng": 113.986358
    },
    {
      "suburb": {
        "id": 2043,
        "name": "Klabang",
        "lat": -7.8153397,
        "lng": 113.9179589
      },
      "city": {
        "id": 118,
        "name": "Bondowoso",
        "lat": -7.9673906,
        "lng": 113.9060624
      },
      "province": {
        "id": 11,
        "name": "Jawa Timur",
        "lat": -7.5360639,
        "lng": 112.2384017
      },
      "country": {
        "id": 228,
        "name": "INDONESIA",
        "code": "ID"
      },
      "id": 23072,
      "name": "Leprak",
      "postcode": "68284",
      "lat": -7.8106566,
      "lng": 113.9120107
    },
    {
      "suburb": {
        "id": 2043,
        "name": "Klabang",
        "lat": -7.8153397,
        "lng": 113.9179589
      },
      "city": {
        "id": 118,
        "name": "Bondowoso",
        "lat": -7.9673906,
        "lng": 113.9060624
      },
      "province": {
        "id": 11,
        "name": "Jawa Timur",
        "lat": -7.5360639,
        "lng": 112.2384017
      },
      "country": {
        "id": 228,
        "name": "INDONESIA",
        "code": "ID"
      },
      "id": 23073,
      "name": "Klampokan",
      "postcode": "68284",
      "lat": -7.8296675,
      "lng": 113.9521596
    },
    {
      "suburb": {
        "id": 2042,
        "name": "Botolinggo",
        "lat": -7.9089721,
        "lng": 114.0369075
      },
      "city": {
        "id": 118,
        "name": "Bondowoso",
        "lat": -7.9673906,
        "lng": 113.9060624
      },
      "province": {
        "id": 11,
        "name": "Jawa Timur",
        "lat": -7.5360639,
        "lng": 112.2384017
      },
      "country": {
        "id": 228,
        "name": "INDONESIA",
        "code": "ID"
      },
      "id": 23074,
      "name": "Lanas",
      "postcode": "68284",
      "lat": -7.8848492,
      "lng": 114.0190671
    },
    {
      "suburb": {
        "id": 2043,
        "name": "Klabang",
        "lat": -7.8153397,
        "lng": 113.9179589
      },
      "city": {
        "id": 118,
        "name": "Bondowoso",
        "lat": -7.9673906,
        "lng": 113.9060624
      },
      "province": {
        "id": 11,
        "name": "Jawa Timur",
        "lat": -7.5360639,
        "lng": 112.2384017
      },
      "country": {
        "id": 228,
        "name": "INDONESIA",
        "code": "ID"
      },
      "id": 23075,
      "name": "Klabang",
      "postcode": "68284",
      "lat": -7.8410942,
      "lng": 113.9506727
    },
    {
      "suburb": {
        "id": 2043,
        "name": "Klabang",
        "lat": -7.8153397,
        "lng": 113.9179589
      },
      "city": {
        "id": 118,
        "name": "Bondowoso",
        "lat": -7.9673906,
        "lng": 113.9060624
      },
      "province": {
        "id": 11,
        "name": "Jawa Timur",
        "lat": -7.5360639,
        "lng": 112.2384017
      },
      "country": {
        "id": 228,
        "name": "INDONESIA",
        "code": "ID"
      },
      "id": 23076,
      "name": "Karanganyar",
      "postcode": "68284",
      "lat": -7.85145,
      "lng": 113.9670288
    },
    {
      "suburb": {
        "id": 2043,
        "name": "Klabang",
        "lat": -7.8153397,
        "lng": 113.9179589
      },
      "city": {
        "id": 118,
        "name": "Bondowoso",
        "lat": -7.9673906,
        "lng": 113.9060624
      },
      "province": {
        "id": 11,
        "name": "Jawa Timur",
        "lat": -7.5360639,
        "lng": 112.2384017
      },
      "country": {
        "id": 228,
        "name": "INDONESIA",
        "code": "ID"
      },
      "id": 23077,
      "name": "Karang Sengon",
      "postcode": "68284",
      "lat": -7.8753026,
      "lng": 113.9685157
    },
    {
      "suburb": {
        "id": 2042,
        "name": "Botolinggo",
        "lat": -7.9089721,
        "lng": 114.0369075
      },
      "city": {
        "id": 118,
        "name": "Bondowoso",
        "lat": -7.9673906,
        "lng": 113.9060624
      },
      "province": {
        "id": 11,
        "name": "Jawa Timur",
        "lat": -7.5360639,
        "lng": 112.2384017
      },
      "country": {
        "id": 228,
        "name": "INDONESIA",
        "code": "ID"
      },
      "id": 23078,
      "name": "Botolinggo",
      "postcode": "68284",
      "lat": -7.8567648,
      "lng": 113.9833843
    },
    {
      "suburb": {
        "id": 2043,
        "name": "Klabang",
        "lat": -7.8153397,
        "lng": 113.9179589
      },
      "city": {
        "id": 118,
        "name": "Bondowoso",
        "lat": -7.9673906,
        "lng": 113.9060624
      },
      "province": {
        "id": 11,
        "name": "Jawa Timur",
        "lat": -7.5360639,
        "lng": 112.2384017
      },
      "country": {
        "id": 228,
        "name": "INDONESIA",
        "code": "ID"
      },
      "id": 23079,
      "name": "Blimbing",
      "postcode": "68284",
      "lat": -7.866212,
      "lng": 113.9729763
    },
    {
      "suburb": {
        "id": 2043,
        "name": "Klabang",
        "lat": -7.8153397,
        "lng": 113.9179589
      },
      "city": {
        "id": 118,
        "name": "Bondowoso",
        "lat": -7.9673906,
        "lng": 113.9060624
      },
      "province": {
        "id": 11,
        "name": "Jawa Timur",
        "lat": -7.5360639,
        "lng": 112.2384017
      },
      "country": {
        "id": 228,
        "name": "INDONESIA",
        "code": "ID"
      },
      "id": 23080,
      "name": "Besuk",
      "postcode": "68284",
      "lat": -7.8202275,
      "lng": 113.9625681
    },
    {
      "suburb": {
        "id": 2044,
        "name": "Tapen",
        "lat": -7.8945674,
        "lng": 113.941751
      },
      "city": {
        "id": 118,
        "name": "Bondowoso",
        "lat": -7.9673906,
        "lng": 113.9060624
      },
      "province": {
        "id": 11,
        "name": "Jawa Timur",
        "lat": -7.5360639,
        "lng": 112.2384017
      },
      "country": {
        "id": 228,
        "name": "INDONESIA",
        "code": "ID"
      },
      "id": 23081,
      "name": "Wonokusumo",
      "postcode": "68283",
      "lat": -7.9194304,
      "lng": 113.9476988
    },
    {
      "suburb": {
        "id": 2044,
        "name": "Tapen",
        "lat": -7.8945674,
        "lng": 113.941751
      },
      "city": {
        "id": 118,
        "name": "Bondowoso",
        "lat": -7.9673906,
        "lng": 113.9060624
      },
      "province": {
        "id": 11,
        "name": "Jawa Timur",
        "lat": -7.5360639,
        "lng": 112.2384017
      },
      "country": {
        "id": 228,
        "name": "INDONESIA",
        "code": "ID"
      },
      "id": 23082,
      "name": "Tapen",
      "postcode": "68283",
      "lat": -7.842165,
      "lng": 113.9328291
    },
    {
      "suburb": {
        "id": 2044,
        "name": "Tapen",
        "lat": -7.8945674,
        "lng": 113.941751
      },
      "city": {
        "id": 118,
        "name": "Bondowoso",
        "lat": -7.9673906,
        "lng": 113.9060624
      },
      "province": {
        "id": 11,
        "name": "Jawa Timur",
        "lat": -7.5360639,
        "lng": 112.2384017
      },
      "country": {
        "id": 228,
        "name": "INDONESIA",
        "code": "ID"
      },
      "id": 23083,
      "name": "Taal",
      "postcode": "68283",
      "lat": -7.8760202,
      "lng": 113.9566204
    },
    {
      "suburb": {
        "id": 2044,
        "name": "Tapen",
        "lat": -7.8945674,
        "lng": 113.941751
      },
      "city": {
        "id": 118,
        "name": "Bondowoso",
        "lat": -7.9673906,
        "lng": 113.9060624
      },
      "province": {
        "id": 11,
        "name": "Jawa Timur",
        "lat": -7.5360639,
        "lng": 112.2384017
      },
      "country": {
        "id": 228,
        "name": "INDONESIA",
        "code": "ID"
      },
      "id": 23084,
      "name": "Mrawan",
      "postcode": "68283",
      "lat": -7.8720537,
      "lng": 113.938777
    },
    {
      "suburb": {
        "id": 2044,
        "name": "Tapen",
        "lat": -7.8945674,
        "lng": 113.941751
      },
      "city": {
        "id": 118,
        "name": "Bondowoso",
        "lat": -7.9673906,
        "lng": 113.9060624
      },
      "province": {
        "id": 11,
        "name": "Jawa Timur",
        "lat": -7.5360639,
        "lng": 112.2384017
      },
      "country": {
        "id": 228,
        "name": "INDONESIA",
        "code": "ID"
      },
      "id": 23085,
      "name": "Mangli Wetan",
      "postcode": "68283",
      "lat": -7.8891648,
      "lng": 113.9476988
    },
    {
      "suburb": {
        "id": 2044,
        "name": "Tapen",
        "lat": -7.8945674,
        "lng": 113.941751
      },
      "city": {
        "id": 118,
        "name": "Bondowoso",
        "lat": -7.9673906,
        "lng": 113.9060624
      },
      "province": {
        "id": 11,
        "name": "Jawa Timur",
        "lat": -7.5360639,
        "lng": 112.2384017
      },
      "country": {
        "id": 228,
        "name": "INDONESIA",
        "code": "ID"
      },
      "id": 23086,
      "name": "Kalitapen",
      "postcode": "68283",
      "lat": -7.8630433,
      "lng": 113.920933
    },
    {
      "suburb": {
        "id": 2044,
        "name": "Tapen",
        "lat": -7.8945674,
        "lng": 113.941751
      },
      "city": {
        "id": 118,
        "name": "Bondowoso",
        "lat": -7.9673906,
        "lng": 113.9060624
      },
      "province": {
        "id": 11,
        "name": "Jawa Timur",
        "lat": -7.5360639,
        "lng": 112.2384017
      },
      "country": {
        "id": 228,
        "name": "INDONESIA",
        "code": "ID"
      },
      "id": 23087,
      "name": "Jurangsapi",
      "postcode": "68283",
      "lat": -7.8889753,
      "lng": 113.9090366
    },
    {
      "suburb": {
        "id": 2044,
        "name": "Tapen",
        "lat": -7.8945674,
        "lng": 113.941751
      },
      "city": {
        "id": 118,
        "name": "Bondowoso",
        "lat": -7.9673906,
        "lng": 113.9060624
      },
      "province": {
        "id": 11,
        "name": "Jawa Timur",
        "lat": -7.5360639,
        "lng": 112.2384017
      },
      "country": {
        "id": 228,
        "name": "INDONESIA",
        "code": "ID"
      },
      "id": 23088,
      "name": "Gununganyar",
      "postcode": "68283",
      "lat": -7.8929433,
      "lng": 113.9268811
    },
    {
      "suburb": {
        "id": 2044,
        "name": "Tapen",
        "lat": -7.8945674,
        "lng": 113.941751
      },
      "city": {
        "id": 118,
        "name": "Bondowoso",
        "lat": -7.9673906,
        "lng": 113.9060624
      },
      "province": {
        "id": 11,
        "name": "Jawa Timur",
        "lat": -7.5360639,
        "lng": 112.2384017
      },
      "country": {
        "id": 228,
        "name": "INDONESIA",
        "code": "ID"
      },
      "id": 23089,
      "name": "Cindogo",
      "postcode": "68283",
      "lat": -7.8691585,
      "lng": 113.9030883
    },
    {
      "suburb": {
        "id": 2045,
        "name": "Wonosari",
        "lat": -7.9176244,
        "lng": 113.8941657
      },
      "city": {
        "id": 118,
        "name": "Bondowoso",
        "lat": -7.9673906,
        "lng": 113.9060624
      },
      "province": {
        "id": 11,
        "name": "Jawa Timur",
        "lat": -7.5360639,
        "lng": 112.2384017
      },
      "country": {
        "id": 228,
        "name": "INDONESIA",
        "code": "ID"
      },
      "id": 23090,
      "name": "Wonosari",
      "postcode": "68282",
      "lat": -7.8799612,
      "lng": 113.8911914
    },
    {
      "suburb": {
        "id": 2045,
        "name": "Wonosari",
        "lat": -7.9176244,
        "lng": 113.8941657
      },
      "city": {
        "id": 118,
        "name": "Bondowoso",
        "lat": -7.9673906,
        "lng": 113.9060624
      },
      "province": {
        "id": 11,
        "name": "Jawa Timur",
        "lat": -7.5360639,
        "lng": 112.2384017
      },
      "country": {
        "id": 228,
        "name": "INDONESIA",
        "code": "ID"
      },
      "id": 23091,
      "name": "Tumpeng",
      "postcode": "68282",
      "lat": -7.929703,
      "lng": 113.9030883
    },
    {
      "suburb": {
        "id": 2045,
        "name": "Wonosari",
        "lat": -7.9176244,
        "lng": 113.8941657
      },
      "city": {
        "id": 118,
        "name": "Bondowoso",
        "lat": -7.9673906,
        "lng": 113.9060624
      },
      "province": {
        "id": 11,
        "name": "Jawa Timur",
        "lat": -7.5360639,
        "lng": 112.2384017
      },
      "country": {
        "id": 228,
        "name": "INDONESIA",
        "code": "ID"
      },
      "id": 23092,
      "name": "Traktakan",
      "postcode": "68282",
      "lat": -7.9012172,
      "lng": 113.8733457
    },
    {
      "suburb": {
        "id": 2045,
        "name": "Wonosari",
        "lat": -7.9176244,
        "lng": 113.8941657
      },
      "city": {
        "id": 118,
        "name": "Bondowoso",
        "lat": -7.9673906,
        "lng": 113.9060624
      },
      "province": {
        "id": 11,
        "name": "Jawa Timur",
        "lat": -7.5360639,
        "lng": 112.2384017
      },
      "country": {
        "id": 228,
        "name": "INDONESIA",
        "code": "ID"
      },
      "id": 23093,
      "name": "Tangsil Wetan",
      "postcode": "68282",
      "lat": -7.9159992,
      "lng": 113.8792943
    },
    {
      "suburb": {
        "id": 2045,
        "name": "Wonosari",
        "lat": -7.9176244,
        "lng": 113.8941657
      },
      "city": {
        "id": 118,
        "name": "Bondowoso",
        "lat": -7.9673906,
        "lng": 113.9060624
      },
      "province": {
        "id": 11,
        "name": "Jawa Timur",
        "lat": -7.5360639,
        "lng": 112.2384017
      },
      "country": {
        "id": 228,
        "name": "INDONESIA",
        "code": "ID"
      },
      "id": 23094,
      "name": "Sumberkalong",
      "postcode": "68282",
      "lat": -7.8950958,
      "lng": 113.8911914
    },
    {
      "suburb": {
        "id": 2045,
        "name": "Wonosari",
        "lat": -7.9176244,
        "lng": 113.8941657
      },
      "city": {
        "id": 118,
        "name": "Bondowoso",
        "lat": -7.9673906,
        "lng": 113.9060624
      },
      "province": {
        "id": 11,
        "name": "Jawa Timur",
        "lat": -7.5360639,
        "lng": 112.2384017
      },
      "country": {
        "id": 228,
        "name": "INDONESIA",
        "code": "ID"
      },
      "id": 23095,
      "name": "Pelalangan",
      "postcode": "68282",
      "lat": -7.9188887,
      "lng": 113.9149848
    },
    {
      "suburb": {
        "id": 2045,
        "name": "Wonosari",
        "lat": -7.9176244,
        "lng": 113.8941657
      },
      "city": {
        "id": 118,
        "name": "Bondowoso",
        "lat": -7.9673906,
        "lng": 113.9060624
      },
      "province": {
        "id": 11,
        "name": "Jawa Timur",
        "lat": -7.5360639,
        "lng": 112.2384017
      },
      "country": {
        "id": 228,
        "name": "INDONESIA",
        "code": "ID"
      },
      "id": 23096,
      "name": "Pasarejo",
      "postcode": "68282",
      "lat": -7.9110464,
      "lng": 113.898627
    },
    {
      "suburb": {
        "id": 2045,
        "name": "Wonosari",
        "lat": -7.9176244,
        "lng": 113.8941657
      },
      "city": {
        "id": 118,
        "name": "Bondowoso",
        "lat": -7.9673906,
        "lng": 113.9060624
      },
      "province": {
        "id": 11,
        "name": "Jawa Timur",
        "lat": -7.5360639,
        "lng": 112.2384017
      },
      "country": {
        "id": 228,
        "name": "INDONESIA",
        "code": "ID"
      },
      "id": 23097,
      "name": "Lombok Wetan",
      "postcode": "68282",
      "lat": -7.9491745,
      "lng": 113.9149848
    },
    {
      "suburb": {
        "id": 2045,
        "name": "Wonosari",
        "lat": -7.9176244,
        "lng": 113.8941657
      },
      "city": {
        "id": 118,
        "name": "Bondowoso",
        "lat": -7.9673906,
        "lng": 113.9060624
      },
      "province": {
        "id": 11,
        "name": "Jawa Timur",
        "lat": -7.5360639,
        "lng": 112.2384017
      },
      "country": {
        "id": 228,
        "name": "INDONESIA",
        "code": "ID"
      },
      "id": 23098,
      "name": "Lombok Kulon",
      "postcode": "68282",
      "lat": -7.9405203,
      "lng": 113.8911914
    },
    {
      "suburb": {
        "id": 2045,
        "name": "Wonosari",
        "lat": -7.9176244,
        "lng": 113.8941657
      },
      "city": {
        "id": 118,
        "name": "Bondowoso",
        "lat": -7.9673906,
        "lng": 113.9060624
      },
      "province": {
        "id": 11,
        "name": "Jawa Timur",
        "lat": -7.5360639,
        "lng": 112.2384017
      },
      "country": {
        "id": 228,
        "name": "INDONESIA",
        "code": "ID"
      },
      "id": 23099,
      "name": "Kapuran",
      "postcode": "68282",
      "lat": -7.8994238,
      "lng": 113.9030883
    },
    {
      "suburb": {
        "id": 2045,
        "name": "Wonosari",
        "lat": -7.9176244,
        "lng": 113.8941657
      },
      "city": {
        "id": 118,
        "name": "Bondowoso",
        "lat": -7.9673906,
        "lng": 113.9060624
      },
      "province": {
        "id": 11,
        "name": "Jawa Timur",
        "lat": -7.5360639,
        "lng": 112.2384017
      },
      "country": {
        "id": 228,
        "name": "INDONESIA",
        "code": "ID"
      },
      "id": 23100,
      "name": "Jumpong",
      "postcode": "68282",
      "lat": -7.9276267,
      "lng": 113.8748328
    },
    {
      "suburb": {
        "id": 2045,
        "name": "Wonosari",
        "lat": -7.9176244,
        "lng": 113.8941657
      },
      "city": {
        "id": 118,
        "name": "Bondowoso",
        "lat": -7.9673906,
        "lng": 113.9060624
      },
      "province": {
        "id": 11,
        "name": "Jawa Timur",
        "lat": -7.5360639,
        "lng": 112.2384017
      },
      "country": {
        "id": 228,
        "name": "INDONESIA",
        "code": "ID"
      },
      "id": 23101,
      "name": "Bendoarum",
      "postcode": "68282",
      "lat": -7.9131228,
      "lng": 113.9268811
    },
    {
      "suburb": {
        "id": 2046,
        "name": "Tenggarang",
        "lat": -7.9406966,
        "lng": 113.8465758
      },
      "city": {
        "id": 118,
        "name": "Bondowoso",
        "lat": -7.9673906,
        "lng": 113.9060624
      },
      "province": {
        "id": 11,
        "name": "Jawa Timur",
        "lat": -7.5360639,
        "lng": 112.2384017
      },
      "country": {
        "id": 228,
        "name": "INDONESIA",
        "code": "ID"
      },
      "id": 23102,
      "name": "Tenggarang",
      "postcode": "68281",
      "lat": -7.9123874,
      "lng": 113.8554992
    },
    {
      "suburb": {
        "id": 2046,
        "name": "Tenggarang",
        "lat": -7.9406966,
        "lng": 113.8465758
      },
      "city": {
        "id": 118,
        "name": "Bondowoso",
        "lat": -7.9673906,
        "lng": 113.9060624
      },
      "province": {
        "id": 11,
        "name": "Jawa Timur",
        "lat": -7.5360639,
        "lng": 112.2384017
      },
      "country": {
        "id": 228,
        "name": "INDONESIA",
        "code": "ID"
      },
      "id": 23103,
      "name": "Tangsil Kulon",
      "postcode": "68281",
      "lat": -7.9155453,
      "lng": 113.8659097
    },
    {
      "suburb": {
        "id": 2046,
        "name": "Tenggarang",
        "lat": -7.9406966,
        "lng": 113.8465758
      },
      "city": {
        "id": 118,
        "name": "Bondowoso",
        "lat": -7.9673906,
        "lng": 113.9060624
      },
      "province": {
        "id": 11,
        "name": "Jawa Timur",
        "lat": -7.5360639,
        "lng": 112.2384017
      },
      "country": {
        "id": 228,
        "name": "INDONESIA",
        "code": "ID"
      },
      "id": 23104,
      "name": "Sumbersalam",
      "postcode": "68281",
      "lat": -7.953504,
      "lng": 113.8436013
    },
    {
      "suburb": {
        "id": 2046,
        "name": "Tenggarang",
        "lat": -7.9406966,
        "lng": 113.8465758
      },
      "city": {
        "id": 118,
        "name": "Bondowoso",
        "lat": -7.9673906,
        "lng": 113.9060624
      },
      "province": {
        "id": 11,
        "name": "Jawa Timur",
        "lat": -7.5360639,
        "lng": 112.2384017
      },
      "country": {
        "id": 228,
        "name": "INDONESIA",
        "code": "ID"
      },
      "id": 23105,
      "name": "Lojajar",
      "postcode": "68281",
      "lat": -7.9376319,
      "lng": 113.8554992
    },
    {
      "suburb": {
        "id": 2046,
        "name": "Tenggarang",
        "lat": -7.9406966,
        "lng": 113.8465758
      },
      "city": {
        "id": 118,
        "name": "Bondowoso",
        "lat": -7.9673906,
        "lng": 113.9060624
      },
      "province": {
        "id": 11,
        "name": "Jawa Timur",
        "lat": -7.5360639,
        "lng": 112.2384017
      },
      "country": {
        "id": 228,
        "name": "INDONESIA",
        "code": "ID"
      },
      "id": 23106,
      "name": "Pekalangan",
      "postcode": "68281",
      "lat": -7.9514304,
      "lng": 113.8569865
    },
    {
      "suburb": {
        "id": 2046,
        "name": "Tenggarang",
        "lat": -7.9406966,
        "lng": 113.8465758
      },
      "city": {
        "id": 118,
        "name": "Bondowoso",
        "lat": -7.9673906,
        "lng": 113.9060624
      },
      "province": {
        "id": 11,
        "name": "Jawa Timur",
        "lat": -7.5360639,
        "lng": 112.2384017
      },
      "country": {
        "id": 228,
        "name": "INDONESIA",
        "code": "ID"
      },
      "id": 23107,
      "name": "Koncer Kidul",
      "postcode": "68281",
      "lat": -7.9394299,
      "lng": 113.8257538
    },
    {
      "suburb": {
        "id": 2046,
        "name": "Tenggarang",
        "lat": -7.9406966,
        "lng": 113.8465758
      },
      "city": {
        "id": 118,
        "name": "Bondowoso",
        "lat": -7.9673906,
        "lng": 113.9060624
      },
      "province": {
        "id": 11,
        "name": "Jawa Timur",
        "lat": -7.5360639,
        "lng": 112.2384017
      },
      "country": {
        "id": 228,
        "name": "INDONESIA",
        "code": "ID"
      },
      "id": 23108,
      "name": "Koncer Darul Alam",
      "postcode": "68281",
      "lat": -7.9299629,
      "lng": 113.8361649
    },
    {
      "suburb": {
        "id": 2046,
        "name": "Tenggarang",
        "lat": -7.9406966,
        "lng": 113.8465758
      },
      "city": {
        "id": 118,
        "name": "Bondowoso",
        "lat": -7.9673906,
        "lng": 113.9060624
      },
      "province": {
        "id": 11,
        "name": "Jawa Timur",
        "lat": -7.5360639,
        "lng": 112.2384017
      },
      "country": {
        "id": 228,
        "name": "INDONESIA",
        "code": "ID"
      },
      "id": 23109,
      "name": "Kesemek (Kasemek)",
      "postcode": "68281",
      "lat": -7.960811,
      "lng": 113.8688841
    },
    {
      "suburb": {
        "id": 2046,
        "name": "Tenggarang",
        "lat": -7.9406966,
        "lng": 113.8465758
      },
      "city": {
        "id": 118,
        "name": "Bondowoso",
        "lat": -7.9673906,
        "lng": 113.9060624
      },
      "province": {
        "id": 11,
        "name": "Jawa Timur",
        "lat": -7.5360639,
        "lng": 112.2384017
      },
      "country": {
        "id": 228,
        "name": "INDONESIA",
        "code": "ID"
      },
      "id": 23110,
      "name": "Kajar",
      "postcode": "68281",
      "lat": -7.939524,
      "lng": 113.8450885
    },
    {
      "suburb": {
        "id": 2046,
        "name": "Tenggarang",
        "lat": -7.9406966,
        "lng": 113.8465758
      },
      "city": {
        "id": 118,
        "name": "Bondowoso",
        "lat": -7.9673906,
        "lng": 113.9060624
      },
      "province": {
        "id": 11,
        "name": "Jawa Timur",
        "lat": -7.5360639,
        "lng": 112.2384017
      },
      "country": {
        "id": 228,
        "name": "INDONESIA",
        "code": "ID"
      },
      "id": 23111,
      "name": "Gebang",
      "postcode": "68281",
      "lat": -7.9265401,
      "lng": 113.8510375
    },
    {
      "suburb": {
        "id": 2046,
        "name": "Tenggarang",
        "lat": -7.9406966,
        "lng": 113.8465758
      },
      "city": {
        "id": 118,
        "name": "Bondowoso",
        "lat": -7.9673906,
        "lng": 113.9060624
      },
      "province": {
        "id": 11,
        "name": "Jawa Timur",
        "lat": -7.5360639,
        "lng": 112.2384017
      },
      "country": {
        "id": 228,
        "name": "INDONESIA",
        "code": "ID"
      },
      "id": 23112,
      "name": "Dawuhan",
      "postcode": "68281",
      "lat": -7.9260012,
      "lng": 113.8599609
    },
    {
      "suburb": {
        "id": 2046,
        "name": "Tenggarang",
        "lat": -7.9406966,
        "lng": 113.8465758
      },
      "city": {
        "id": 118,
        "name": "Bondowoso",
        "lat": -7.9673906,
        "lng": 113.9060624
      },
      "province": {
        "id": 11,
        "name": "Jawa Timur",
        "lat": -7.5360639,
        "lng": 112.2384017
      },
      "country": {
        "id": 228,
        "name": "INDONESIA",
        "code": "ID"
      },
      "id": 23113,
      "name": "Bataan",
      "postcode": "68281",
      "lat": -7.9232021,
      "lng": 113.8436013
    },
    {
      "suburb": {
        "id": 2047,
        "name": "Tlogosari",
        "lat": -8.0344803,
        "lng": 113.9655419
      },
      "city": {
        "id": 118,
        "name": "Bondowoso",
        "lat": -7.9673906,
        "lng": 113.9060624
      },
      "province": {
        "id": 11,
        "name": "Jawa Timur",
        "lat": -7.5360639,
        "lng": 112.2384017
      },
      "country": {
        "id": 228,
        "name": "INDONESIA",
        "code": "ID"
      },
      "id": 23114,
      "name": "Trotosari",
      "postcode": "68272",
      "lat": -7.9819836,
      "lng": 113.9566204
    },
    {
      "suburb": {
        "id": 2047,
        "name": "Tlogosari",
        "lat": -8.0344803,
        "lng": 113.9655419
      },
      "city": {
        "id": 118,
        "name": "Bondowoso",
        "lat": -7.9673906,
        "lng": 113.9060624
      },
      "province": {
        "id": 11,
        "name": "Jawa Timur",
        "lat": -7.5360639,
        "lng": 112.2384017
      },
      "country": {
        "id": 228,
        "name": "INDONESIA",
        "code": "ID"
      },
      "id": 23115,
      "name": "Tlogosari",
      "postcode": "68272",
      "lat": -7.9948928,
      "lng": 113.9313421
    },
    {
      "suburb": {
        "id": 2047,
        "name": "Tlogosari",
        "lat": -8.0344803,
        "lng": 113.9655419
      },
      "city": {
        "id": 118,
        "name": "Bondowoso",
        "lat": -7.9673906,
        "lng": 113.9060624
      },
      "province": {
        "id": 11,
        "name": "Jawa Timur",
        "lat": -7.5360639,
        "lng": 112.2384017
      },
      "country": {
        "id": 228,
        "name": "INDONESIA",
        "code": "ID"
      },
      "id": 23116,
      "name": "Sulek",
      "postcode": "68272",
      "lat": -7.9881242,
      "lng": 113.938777
    },
    {
      "suburb": {
        "id": 2047,
        "name": "Tlogosari",
        "lat": -8.0344803,
        "lng": 113.9655419
      },
      "city": {
        "id": 118,
        "name": "Bondowoso",
        "lat": -7.9673906,
        "lng": 113.9060624
      },
      "province": {
        "id": 11,
        "name": "Jawa Timur",
        "lat": -7.5360639,
        "lng": 112.2384017
      },
      "country": {
        "id": 228,
        "name": "INDONESIA",
        "code": "ID"
      },
      "id": 23117,
      "name": "Patemon",
      "postcode": "68272",
      "lat": -7.9700969,
      "lng": 113.9030883
    },
    {
      "suburb": {
        "id": 2047,
        "name": "Tlogosari",
        "lat": -8.0344803,
        "lng": 113.9655419
      },
      "city": {
        "id": 118,
        "name": "Bondowoso",
        "lat": -7.9673906,
        "lng": 113.9060624
      },
      "province": {
        "id": 11,
        "name": "Jawa Timur",
        "lat": -7.5360639,
        "lng": 112.2384017
      },
      "country": {
        "id": 228,
        "name": "INDONESIA",
        "code": "ID"
      },
      "id": 23118,
      "name": "Pakisan",
      "postcode": "68272",
      "lat": -8.056308,
      "lng": 113.9804106
    },
    {
      "suburb": {
        "id": 2047,
        "name": "Tlogosari",
        "lat": -8.0344803,
        "lng": 113.9655419
      },
      "city": {
        "id": 118,
        "name": "Bondowoso",
        "lat": -7.9673906,
        "lng": 113.9060624
      },
      "province": {
        "id": 11,
        "name": "Jawa Timur",
        "lat": -7.5360639,
        "lng": 112.2384017
      },
      "country": {
        "id": 228,
        "name": "INDONESIA",
        "code": "ID"
      },
      "id": 23119,
      "name": "Kembang",
      "postcode": "68272",
      "lat": -8.0353593,
      "lng": 113.9923053
    },
    {
      "suburb": {
        "id": 2047,
        "name": "Tlogosari",
        "lat": -8.0344803,
        "lng": 113.9655419
      },
      "city": {
        "id": 118,
        "name": "Bondowoso",
        "lat": -7.9673906,
        "lng": 113.9060624
      },
      "province": {
        "id": 11,
        "name": "Jawa Timur",
        "lat": -7.5360639,
        "lng": 112.2384017
      },
      "country": {
        "id": 228,
        "name": "INDONESIA",
        "code": "ID"
      },
      "id": 23120,
      "name": "Jebung Lor",
      "postcode": "68272",
      "lat": -7.9596345,
      "lng": 113.9090366
    },
    {
      "suburb": {
        "id": 2047,
        "name": "Tlogosari",
        "lat": -8.0344803,
        "lng": 113.9655419
      },
      "city": {
        "id": 118,
        "name": "Bondowoso",
        "lat": -7.9673906,
        "lng": 113.9060624
      },
      "province": {
        "id": 11,
        "name": "Jawa Timur",
        "lat": -7.5360639,
        "lng": 112.2384017
      },
      "country": {
        "id": 228,
        "name": "INDONESIA",
        "code": "ID"
      },
      "id": 23121,
      "name": "Jebung Kidul",
      "postcode": "68272",
      "lat": -7.9686482,
      "lng": 113.9268811
    },
    {
      "suburb": {
        "id": 2047,
        "name": "Tlogosari",
        "lat": -8.0344803,
        "lng": 113.9655419
      },
      "city": {
        "id": 118,
        "name": "Bondowoso",
        "lat": -7.9673906,
        "lng": 113.9060624
      },
      "province": {
        "id": 11,
        "name": "Jawa Timur",
        "lat": -7.5360639,
        "lng": 112.2384017
      },
      "country": {
        "id": 228,
        "name": "INDONESIA",
        "code": "ID"
      },
      "id": 23122,
      "name": "Brambang Darussolah",
      "postcode": "68272",
      "lat": -8.0344803,
      "lng": 113.9655419
    },
    {
      "suburb": {
        "id": 2047,
        "name": "Tlogosari",
        "lat": -8.0344803,
        "lng": 113.9655419
      },
      "city": {
        "id": 118,
        "name": "Bondowoso",
        "lat": -7.9673906,
        "lng": 113.9060624
      },
      "province": {
        "id": 11,
        "name": "Jawa Timur",
        "lat": -7.5360639,
        "lng": 112.2384017
      },
      "country": {
        "id": 228,
        "name": "INDONESIA",
        "code": "ID"
      },
      "id": 23123,
      "name": "Gunosari",
      "postcode": "68272",
      "lat": -8.1148927,
      "lng": 114.0547472
    },
    {
      "suburb": {
        "id": 2048,
        "name": "Pujer",
        "lat": -7.9984268,
        "lng": 113.8941657
      },
      "city": {
        "id": 118,
        "name": "Bondowoso",
        "lat": -7.9673906,
        "lng": 113.9060624
      },
      "province": {
        "id": 11,
        "name": "Jawa Timur",
        "lat": -7.5360639,
        "lng": 112.2384017
      },
      "country": {
        "id": 228,
        "name": "INDONESIA",
        "code": "ID"
      },
      "id": 23124,
      "name": "Sukowono",
      "postcode": "68271",
      "lat": -8.0148413,
      "lng": 113.9149848
    },
    {
      "suburb": {
        "id": 2048,
        "name": "Pujer",
        "lat": -7.9984268,
        "lng": 113.8941657
      },
      "city": {
        "id": 118,
        "name": "Bondowoso",
        "lat": -7.9673906,
        "lng": 113.9060624
      },
      "province": {
        "id": 11,
        "name": "Jawa Timur",
        "lat": -7.5360639,
        "lng": 112.2384017
      },
      "country": {
        "id": 228,
        "name": "INDONESIA",
        "code": "ID"
      },
      "id": 23125,
      "name": "Sukokerto",
      "postcode": "68271",
      "lat": -8.0038435,
      "lng": 113.8882172
    },
    {
      "suburb": {
        "id": 2048,
        "name": "Pujer",
        "lat": -7.9984268,
        "lng": 113.8941657
      },
      "city": {
        "id": 118,
        "name": "Bondowoso",
        "lat": -7.9673906,
        "lng": 113.9060624
      },
      "province": {
        "id": 11,
        "name": "Jawa Timur",
        "lat": -7.5360639,
        "lng": 112.2384017
      },
      "country": {
        "id": 228,
        "name": "INDONESIA",
        "code": "ID"
      },
      "id": 23126,
      "name": "Sukodono",
      "postcode": "68271",
      "lat": -8.0155696,
      "lng": 113.9030883
    },
    {
      "suburb": {
        "id": 2048,
        "name": "Pujer",
        "lat": -7.9984268,
        "lng": 113.8941657
      },
      "city": {
        "id": 118,
        "name": "Bondowoso",
        "lat": -7.9673906,
        "lng": 113.9060624
      },
      "province": {
        "id": 11,
        "name": "Jawa Timur",
        "lat": -7.5360639,
        "lng": 112.2384017
      },
      "country": {
        "id": 228,
        "name": "INDONESIA",
        "code": "ID"
      },
      "id": 23127,
      "name": "Randucangkring",
      "postcode": "68271",
      "lat": -7.9509798,
      "lng": 113.8852429
    },
    {
      "suburb": {
        "id": 2049,
        "name": "Jambe Sari Darus Sholah",
        "lat": -7.9811121,
        "lng": 113.8465758
      },
      "city": {
        "id": 118,
        "name": "Bondowoso",
        "lat": -7.9673906,
        "lng": 113.9060624
      },
      "province": {
        "id": 11,
        "name": "Jawa Timur",
        "lat": -7.5360639,
        "lng": 112.2384017
      },
      "country": {
        "id": 228,
        "name": "INDONESIA",
        "code": "ID"
      },
      "id": 23128,
      "name": "Pengarang",
      "postcode": "68271",
      "lat": -7.9729904,
      "lng": 113.8554992
    },
    {
      "suburb": {
        "id": 2048,
        "name": "Pujer",
        "lat": -7.9984268,
        "lng": 113.8941657
      },
      "city": {
        "id": 118,
        "name": "Bondowoso",
        "lat": -7.9673906,
        "lng": 113.9060624
      },
      "province": {
        "id": 11,
        "name": "Jawa Timur",
        "lat": -7.5360639,
        "lng": 112.2384017
      },
      "country": {
        "id": 228,
        "name": "INDONESIA",
        "code": "ID"
      },
      "id": 23129,
      "name": "Padasan",
      "postcode": "68271",
      "lat": -7.9402491,
      "lng": 113.8748328
    },
    {
      "suburb": {
        "id": 2048,
        "name": "Pujer",
        "lat": -7.9984268,
        "lng": 113.8941657
      },
      "city": {
        "id": 118,
        "name": "Bondowoso",
        "lat": -7.9673906,
        "lng": 113.9060624
      },
      "province": {
        "id": 11,
        "name": "Jawa Timur",
        "lat": -7.5360639,
        "lng": 112.2384017
      },
      "country": {
        "id": 228,
        "name": "INDONESIA",
        "code": "ID"
      },
      "id": 23130,
      "name": "Mengok",
      "postcode": "68271",
      "lat": -7.9722675,
      "lng": 113.8673969
    },
    {
      "suburb": {
        "id": 2048,
        "name": "Pujer",
        "lat": -7.9984268,
        "lng": 113.8941657
      },
      "city": {
        "id": 118,
        "name": "Bondowoso",
        "lat": -7.9673906,
        "lng": 113.9060624
      },
      "province": {
        "id": 11,
        "name": "Jawa Timur",
        "lat": -7.5360639,
        "lng": 112.2384017
      },
      "country": {
        "id": 228,
        "name": "INDONESIA",
        "code": "ID"
      },
      "id": 23131,
      "name": "Maskuning Wetan",
      "postcode": "68271",
      "lat": -7.985251,
      "lng": 113.9030883
    },
    {
      "suburb": {
        "id": 2048,
        "name": "Pujer",
        "lat": -7.9984268,
        "lng": 113.8941657
      },
      "city": {
        "id": 118,
        "name": "Bondowoso",
        "lat": -7.9673906,
        "lng": 113.9060624
      },
      "province": {
        "id": 11,
        "name": "Jawa Timur",
        "lat": -7.5360639,
        "lng": 112.2384017
      },
      "country": {
        "id": 228,
        "name": "INDONESIA",
        "code": "ID"
      },
      "id": 23132,
      "name": "Maskuning Kulon",
      "postcode": "68271",
      "lat": -7.9863387,
      "lng": 113.8852429
    },
    {
      "suburb": {
        "id": 2048,
        "name": "Pujer",
        "lat": -7.9984268,
        "lng": 113.8941657
      },
      "city": {
        "id": 118,
        "name": "Bondowoso",
        "lat": -7.9673906,
        "lng": 113.9060624
      },
      "province": {
        "id": 11,
        "name": "Jawa Timur",
        "lat": -7.5360639,
        "lng": 112.2384017
      },
      "country": {
        "id": 228,
        "name": "INDONESIA",
        "code": "ID"
      },
      "id": 23133,
      "name": "Mangli",
      "postcode": "68271",
      "lat": -7.9708208,
      "lng": 113.8911914
    },
    {
      "suburb": {
        "id": 2048,
        "name": "Pujer",
        "lat": -7.9984268,
        "lng": 113.8941657
      },
      "city": {
        "id": 118,
        "name": "Bondowoso",
        "lat": -7.9673906,
        "lng": 113.9060624
      },
      "province": {
        "id": 11,
        "name": "Jawa Timur",
        "lat": -7.5360639,
        "lng": 112.2384017
      },
      "country": {
        "id": 228,
        "name": "INDONESIA",
        "code": "ID"
      },
      "id": 23134,
      "name": "Alassumur",
      "postcode": "68271",
      "lat": -7.9959975,
      "lng": 113.8718585
    },
    {
      "suburb": {
        "id": 2048,
        "name": "Pujer",
        "lat": -7.9984268,
        "lng": 113.8941657
      },
      "city": {
        "id": 118,
        "name": "Bondowoso",
        "lat": -7.9673906,
        "lng": 113.9060624
      },
      "province": {
        "id": 11,
        "name": "Jawa Timur",
        "lat": -7.5360639,
        "lng": 112.2384017
      },
      "country": {
        "id": 228,
        "name": "INDONESIA",
        "code": "ID"
      },
      "id": 23135,
      "name": "Kejayan",
      "postcode": "68271",
      "lat": -7.9517014,
      "lng": 113.8733457
    },
    {
      "suburb": {
        "id": 2049,
        "name": "Jambe Sari Darus Sholah",
        "lat": -7.9811121,
        "lng": 113.8465758
      },
      "city": {
        "id": 118,
        "name": "Bondowoso",
        "lat": -7.9673906,
        "lng": 113.9060624
      },
      "province": {
        "id": 11,
        "name": "Jawa Timur",
        "lat": -7.5360639,
        "lng": 112.2384017
      },
      "country": {
        "id": 228,
        "name": "INDONESIA",
        "code": "ID"
      },
      "id": 23136,
      "name": "Tegalpasir",
      "postcode": "68263",
      "lat": -7.9696525,
      "lng": 113.8480631
    },
    {
      "suburb": {
        "id": 2050,
        "name": "Tamanan",
        "lat": -8.0230051,
        "lng": 113.8227792
      },
      "city": {
        "id": 118,
        "name": "Bondowoso",
        "lat": -7.9673906,
        "lng": 113.9060624
      },
      "province": {
        "id": 11,
        "name": "Jawa Timur",
        "lat": -7.5360639,
        "lng": 112.2384017
      },
      "country": {
        "id": 228,
        "name": "INDONESIA",
        "code": "ID"
      },
      "id": 23137,
      "name": "Wonosuko",
      "postcode": "68263",
      "lat": -8.0007934,
      "lng": 113.8138552
    },
    {
      "suburb": {
        "id": 2050,
        "name": "Tamanan",
        "lat": -8.0230051,
        "lng": 113.8227792
      },
      "city": {
        "id": 118,
        "name": "Bondowoso",
        "lat": -7.9673906,
        "lng": 113.9060624
      },
      "province": {
        "id": 11,
        "name": "Jawa Timur",
        "lat": -7.5360639,
        "lng": 112.2384017
      },
      "country": {
        "id": 228,
        "name": "INDONESIA",
        "code": "ID"
      },
      "id": 23138,
      "name": "Sumberkemuning",
      "postcode": "68263",
      "lat": -8.0090935,
      "lng": 113.8436013
    },
    {
      "suburb": {
        "id": 2050,
        "name": "Tamanan",
        "lat": -8.0230051,
        "lng": 113.8227792
      },
      "city": {
        "id": 118,
        "name": "Bondowoso",
        "lat": -7.9673906,
        "lng": 113.9060624
      },
      "province": {
        "id": 11,
        "name": "Jawa Timur",
        "lat": -7.5360639,
        "lng": 112.2384017
      },
      "country": {
        "id": 228,
        "name": "INDONESIA",
        "code": "ID"
      },
      "id": 23139,
      "name": "Tamanan",
      "postcode": "68263",
      "lat": -8.0206579,
      "lng": 113.8198045
    },
    {
      "suburb": {
        "id": 2049,
        "name": "Jambe Sari Darus Sholah",
        "lat": -7.9811121,
        "lng": 113.8465758
      },
      "city": {
        "id": 118,
        "name": "Bondowoso",
        "lat": -7.9673906,
        "lng": 113.9060624
      },
      "province": {
        "id": 11,
        "name": "Jawa Timur",
        "lat": -7.5360639,
        "lng": 112.2384017
      },
      "country": {
        "id": 228,
        "name": "INDONESIA",
        "code": "ID"
      },
      "id": 23140,
      "name": "Sumber Anyar",
      "postcode": "68263",
      "lat": -8.0224442,
      "lng": 113.8733457
    },
    {
      "suburb": {
        "id": 2049,
        "name": "Jambe Sari Darus Sholah",
        "lat": -7.9811121,
        "lng": 113.8465758
      },
      "city": {
        "id": 118,
        "name": "Bondowoso",
        "lat": -7.9673906,
        "lng": 113.9060624
      },
      "province": {
        "id": 11,
        "name": "Jawa Timur",
        "lat": -7.5360639,
        "lng": 112.2384017
      },
      "country": {
        "id": 228,
        "name": "INDONESIA",
        "code": "ID"
      },
      "id": 23141,
      "name": "Sumber Jeruk",
      "postcode": "68263",
      "lat": -7.9811121,
      "lng": 113.8465758
    },
    {
      "suburb": {
        "id": 2050,
        "name": "Tamanan",
        "lat": -8.0230051,
        "lng": 113.8227792
      },
      "city": {
        "id": 118,
        "name": "Bondowoso",
        "lat": -7.9673906,
        "lng": 113.9060624
      },
      "province": {
        "id": 11,
        "name": "Jawa Timur",
        "lat": -7.5360639,
        "lng": 112.2384017
      },
      "country": {
        "id": 228,
        "name": "INDONESIA",
        "code": "ID"
      },
      "id": 23142,
      "name": "Sumber Anom",
      "postcode": "68263",
      "lat": -8.0134233,
      "lng": 113.8554992
    },
    {
      "suburb": {
        "id": 2049,
        "name": "Jambe Sari Darus Sholah",
        "lat": -7.9811121,
        "lng": 113.8465758
      },
      "city": {
        "id": 118,
        "name": "Bondowoso",
        "lat": -7.9673906,
        "lng": 113.9060624
      },
      "province": {
        "id": 11,
        "name": "Jawa Timur",
        "lat": -7.5360639,
        "lng": 112.2384017
      },
      "country": {
        "id": 228,
        "name": "INDONESIA",
        "code": "ID"
      },
      "id": 23143,
      "name": "Pucang Anom",
      "postcode": "68263",
      "lat": -8.00295,
      "lng": 113.8614481
    },
    {
      "suburb": {
        "id": 2050,
        "name": "Tamanan",
        "lat": -8.0230051,
        "lng": 113.8227792
      },
      "city": {
        "id": 118,
        "name": "Bondowoso",
        "lat": -7.9673906,
        "lng": 113.9060624
      },
      "province": {
        "id": 11,
        "name": "Jawa Timur",
        "lat": -7.5360639,
        "lng": 112.2384017
      },
      "country": {
        "id": 228,
        "name": "INDONESIA",
        "code": "ID"
      },
      "id": 23144,
      "name": "Sukosari",
      "postcode": "68263",
      "lat": -8.0361953,
      "lng": 113.8138552
    },
    {
      "suburb": {
        "id": 2050,
        "name": "Tamanan",
        "lat": -8.0230051,
        "lng": 113.8227792
      },
      "city": {
        "id": 118,
        "name": "Bondowoso",
        "lat": -7.9673906,
        "lng": 113.9060624
      },
      "province": {
        "id": 11,
        "name": "Jawa Timur",
        "lat": -7.5360639,
        "lng": 112.2384017
      },
      "country": {
        "id": 228,
        "name": "INDONESIA",
        "code": "ID"
      },
      "id": 23145,
      "name": "Kemirian",
      "postcode": "68263",
      "lat": -8.0296831,
      "lng": 113.8376522
    },
    {
      "suburb": {
        "id": 2050,
        "name": "Tamanan",
        "lat": -8.0230051,
        "lng": 113.8227792
      },
      "city": {
        "id": 118,
        "name": "Bondowoso",
        "lat": -7.9673906,
        "lng": 113.9060624
      },
      "province": {
        "id": 11,
        "name": "Jawa Timur",
        "lat": -7.5360639,
        "lng": 112.2384017
      },
      "country": {
        "id": 228,
        "name": "INDONESIA",
        "code": "ID"
      },
      "id": 23146,
      "name": "Mengen",
      "postcode": "68263",
      "lat": -8.0394347,
      "lng": 113.8436013
    },
    {
      "suburb": {
        "id": 2050,
        "name": "Tamanan",
        "lat": -8.0230051,
        "lng": 113.8227792
      },
      "city": {
        "id": 118,
        "name": "Bondowoso",
        "lat": -7.9673906,
        "lng": 113.9060624
      },
      "province": {
        "id": 11,
        "name": "Jawa Timur",
        "lat": -7.5360639,
        "lng": 112.2384017
      },
      "country": {
        "id": 228,
        "name": "INDONESIA",
        "code": "ID"
      },
      "id": 23147,
      "name": "Kalianyar",
      "postcode": "68263",
      "lat": -8.0000694,
      "lng": 113.8257538
    },
    {
      "suburb": {
        "id": 2050,
        "name": "Tamanan",
        "lat": -8.0230051,
        "lng": 113.8227792
      },
      "city": {
        "id": 118,
        "name": "Bondowoso",
        "lat": -7.9673906,
        "lng": 113.9060624
      },
      "province": {
        "id": 11,
        "name": "Jawa Timur",
        "lat": -7.5360639,
        "lng": 112.2384017
      },
      "country": {
        "id": 228,
        "name": "INDONESIA",
        "code": "ID"
      },
      "id": 23148,
      "name": "Karangmelok",
      "postcode": "68263",
      "lat": -8.0401628,
      "lng": 113.831703
    },
    {
      "suburb": {
        "id": 2049,
        "name": "Jambe Sari Darus Sholah",
        "lat": -7.9811121,
        "lng": 113.8465758
      },
      "city": {
        "id": 118,
        "name": "Bondowoso",
        "lat": -7.9673906,
        "lng": 113.9060624
      },
      "province": {
        "id": 11,
        "name": "Jawa Timur",
        "lat": -7.5360639,
        "lng": 112.2384017
      },
      "country": {
        "id": 228,
        "name": "INDONESIA",
        "code": "ID"
      },
      "id": 23149,
      "name": "Jambe Sari",
      "postcode": "68263",
      "lat": -7.9811121,
      "lng": 113.8465758
    },
    {
      "suburb": {
        "id": 2049,
        "name": "Jambe Sari Darus Sholah",
        "lat": -7.9811121,
        "lng": 113.8465758
      },
      "city": {
        "id": 118,
        "name": "Bondowoso",
        "lat": -7.9673906,
        "lng": 113.9060624
      },
      "province": {
        "id": 11,
        "name": "Jawa Timur",
        "lat": -7.5360639,
        "lng": 112.2384017
      },
      "country": {
        "id": 228,
        "name": "INDONESIA",
        "code": "ID"
      },
      "id": 23150,
      "name": "Jambe Anom",
      "postcode": "68263",
      "lat": -7.9811121,
      "lng": 113.8465758
    },
    {
      "suburb": {
        "id": 2051,
        "name": "Maesan",
        "lat": -8.0273556,
        "lng": 113.7513827
      },
      "city": {
        "id": 118,
        "name": "Bondowoso",
        "lat": -7.9673906,
        "lng": 113.9060624
      },
      "province": {
        "id": 11,
        "name": "Jawa Timur",
        "lat": -7.5360639,
        "lng": 112.2384017
      },
      "country": {
        "id": 228,
        "name": "INDONESIA",
        "code": "ID"
      },
      "id": 23151,
      "name": "Tanahwulan",
      "postcode": "68262",
      "lat": -8.0038635,
      "lng": 113.7216313
    },
    {
      "suburb": {
        "id": 2051,
        "name": "Maesan",
        "lat": -8.0273556,
        "lng": 113.7513827
      },
      "city": {
        "id": 118,
        "name": "Bondowoso",
        "lat": -7.9673906,
        "lng": 113.9060624
      },
      "province": {
        "id": 11,
        "name": "Jawa Timur",
        "lat": -7.5360639,
        "lng": 112.2384017
      },
      "country": {
        "id": 228,
        "name": "INDONESIA",
        "code": "ID"
      },
      "id": 23152,
      "name": "Sumber Anyar",
      "postcode": "68262",
      "lat": -8.0170507,
      "lng": 113.7960067
    },
    {
      "suburb": {
        "id": 2051,
        "name": "Maesan",
        "lat": -8.0273556,
        "lng": 113.7513827
      },
      "city": {
        "id": 118,
        "name": "Bondowoso",
        "lat": -7.9673906,
        "lng": 113.9060624
      },
      "province": {
        "id": 11,
        "name": "Jawa Timur",
        "lat": -7.5360639,
        "lng": 112.2384017
      },
      "country": {
        "id": 228,
        "name": "INDONESIA",
        "code": "ID"
      },
      "id": 23153,
      "name": "Sumberpakem",
      "postcode": "68262",
      "lat": -8.0470412,
      "lng": 113.8019562
    },
    {
      "suburb": {
        "id": 2051,
        "name": "Maesan",
        "lat": -8.0273556,
        "lng": 113.7513827
      },
      "city": {
        "id": 118,
        "name": "Bondowoso",
        "lat": -7.9673906,
        "lng": 113.9060624
      },
      "province": {
        "id": 11,
        "name": "Jawa Timur",
        "lat": -7.5360639,
        "lng": 112.2384017
      },
      "country": {
        "id": 228,
        "name": "INDONESIA",
        "code": "ID"
      },
      "id": 23154,
      "name": "Sumbersari",
      "postcode": "68262",
      "lat": -8.032589,
      "lng": 113.790057
    },
    {
      "suburb": {
        "id": 2051,
        "name": "Maesan",
        "lat": -8.0273556,
        "lng": 113.7513827
      },
      "city": {
        "id": 118,
        "name": "Bondowoso",
        "lat": -7.9673906,
        "lng": 113.9060624
      },
      "province": {
        "id": 11,
        "name": "Jawa Timur",
        "lat": -7.5360639,
        "lng": 112.2384017
      },
      "country": {
        "id": 228,
        "name": "INDONESIA",
        "code": "ID"
      },
      "id": 23155,
      "name": "Suger Lor",
      "postcode": "68262",
      "lat": -8.0430716,
      "lng": 113.7841073
    },
    {
      "suburb": {
        "id": 2051,
        "name": "Maesan",
        "lat": -8.0273556,
        "lng": 113.7513827
      },
      "city": {
        "id": 118,
        "name": "Bondowoso",
        "lat": -7.9673906,
        "lng": 113.9060624
      },
      "province": {
        "id": 11,
        "name": "Jawa Timur",
        "lat": -7.5360639,
        "lng": 112.2384017
      },
      "country": {
        "id": 228,
        "name": "INDONESIA",
        "code": "ID"
      },
      "id": 23156,
      "name": "Pujerbaru",
      "postcode": "68262",
      "lat": -8.034765,
      "lng": 113.7543578
    },
    {
      "suburb": {
        "id": 2051,
        "name": "Maesan",
        "lat": -8.0273556,
        "lng": 113.7513827
      },
      "city": {
        "id": 118,
        "name": "Bondowoso",
        "lat": -7.9673906,
        "lng": 113.9060624
      },
      "province": {
        "id": 11,
        "name": "Jawa Timur",
        "lat": -7.5360639,
        "lng": 112.2384017
      },
      "country": {
        "id": 228,
        "name": "INDONESIA",
        "code": "ID"
      },
      "id": 23157,
      "name": "Sucolor",
      "postcode": "68262",
      "lat": -8.0287769,
      "lng": 113.759853
    },
    {
      "suburb": {
        "id": 2051,
        "name": "Maesan",
        "lat": -8.0273556,
        "lng": 113.7513827
      },
      "city": {
        "id": 118,
        "name": "Bondowoso",
        "lat": -7.9673906,
        "lng": 113.9060624
      },
      "province": {
        "id": 11,
        "name": "Jawa Timur",
        "lat": -7.5360639,
        "lng": 112.2384017
      },
      "country": {
        "id": 228,
        "name": "INDONESIA",
        "code": "ID"
      },
      "id": 23158,
      "name": "Maesan",
      "postcode": "68262",
      "lat": -8.0247325,
      "lng": 113.7736952
    },
    {
      "suburb": {
        "id": 2051,
        "name": "Maesan",
        "lat": -8.0273556,
        "lng": 113.7513827
      },
      "city": {
        "id": 118,
        "name": "Bondowoso",
        "lat": -7.9673906,
        "lng": 113.9060624
      },
      "province": {
        "id": 11,
        "name": "Jawa Timur",
        "lat": -7.5360639,
        "lng": 112.2384017
      },
      "country": {
        "id": 228,
        "name": "INDONESIA",
        "code": "ID"
      },
      "id": 23159,
      "name": "Pakuniran",
      "postcode": "68262",
      "lat": -8.012717,
      "lng": 113.7841073
    },
    {
      "suburb": {
        "id": 2051,
        "name": "Maesan",
        "lat": -8.0273556,
        "lng": 113.7513827
      },
      "city": {
        "id": 118,
        "name": "Bondowoso",
        "lat": -7.9673906,
        "lng": 113.9060624
      },
      "province": {
        "id": 11,
        "name": "Jawa Timur",
        "lat": -7.5360639,
        "lng": 112.2384017
      },
      "country": {
        "id": 228,
        "name": "INDONESIA",
        "code": "ID"
      },
      "id": 23160,
      "name": "Penanggungan",
      "postcode": "68262",
      "lat": -8.0196735,
      "lng": 113.7736952
    },
    {
      "suburb": {
        "id": 2051,
        "name": "Maesan",
        "lat": -8.0273556,
        "lng": 113.7513827
      },
      "city": {
        "id": 118,
        "name": "Bondowoso",
        "lat": -7.9673906,
        "lng": 113.9060624
      },
      "province": {
        "id": 11,
        "name": "Jawa Timur",
        "lat": -7.5360639,
        "lng": 112.2384017
      },
      "country": {
        "id": 228,
        "name": "INDONESIA",
        "code": "ID"
      },
      "id": 23161,
      "name": "Gambangan",
      "postcode": "68262",
      "lat": -8.0377445,
      "lng": 113.7677453
    },
    {
      "suburb": {
        "id": 2051,
        "name": "Maesan",
        "lat": -8.0273556,
        "lng": 113.7513827
      },
      "city": {
        "id": 118,
        "name": "Bondowoso",
        "lat": -7.9673906,
        "lng": 113.9060624
      },
      "province": {
        "id": 11,
        "name": "Jawa Timur",
        "lat": -7.5360639,
        "lng": 112.2384017
      },
      "country": {
        "id": 228,
        "name": "INDONESIA",
        "code": "ID"
      },
      "id": 23162,
      "name": "Gunung Sari",
      "postcode": "68262",
      "lat": -8.0102798,
      "lng": 113.7617953
    },
    {
      "suburb": {
        "id": 2052,
        "name": "Grujugan",
        "lat": -7.9868869,
        "lng": 113.7513827
      },
      "city": {
        "id": 118,
        "name": "Bondowoso",
        "lat": -7.9673906,
        "lng": 113.9060624
      },
      "province": {
        "id": 11,
        "name": "Jawa Timur",
        "lat": -7.5360639,
        "lng": 112.2384017
      },
      "country": {
        "id": 228,
        "name": "INDONESIA",
        "code": "ID"
      },
      "id": 23163,
      "name": "Wonosari",
      "postcode": "68261",
      "lat": -7.9626837,
      "lng": 113.7335321
    },
    {
      "suburb": {
        "id": 2052,
        "name": "Grujugan",
        "lat": -7.9868869,
        "lng": 113.7513827
      },
      "city": {
        "id": 118,
        "name": "Bondowoso",
        "lat": -7.9673906,
        "lng": 113.9060624
      },
      "province": {
        "id": 11,
        "name": "Jawa Timur",
        "lat": -7.5360639,
        "lng": 112.2384017
      },
      "country": {
        "id": 228,
        "name": "INDONESIA",
        "code": "ID"
      },
      "id": 23164,
      "name": "Tegalmijin",
      "postcode": "68261",
      "lat": -7.984273,
      "lng": 113.8153425
    },
    {
      "suburb": {
        "id": 2052,
        "name": "Grujugan",
        "lat": -7.9868869,
        "lng": 113.7513827
      },
      "city": {
        "id": 118,
        "name": "Bondowoso",
        "lat": -7.9673906,
        "lng": 113.9060624
      },
      "province": {
        "id": 11,
        "name": "Jawa Timur",
        "lat": -7.5360639,
        "lng": 112.2384017
      },
      "country": {
        "id": 228,
        "name": "INDONESIA",
        "code": "ID"
      },
      "id": 23165,
      "name": "Wanisodo",
      "postcode": "68261",
      "lat": -7.9928494,
      "lng": 113.7781575
    },
    {
      "suburb": {
        "id": 2052,
        "name": "Grujugan",
        "lat": -7.9868869,
        "lng": 113.7513827
      },
      "city": {
        "id": 118,
        "name": "Bondowoso",
        "lat": -7.9673906,
        "lng": 113.9060624
      },
      "province": {
        "id": 11,
        "name": "Jawa Timur",
        "lat": -7.5360639,
        "lng": 112.2384017
      },
      "country": {
        "id": 228,
        "name": "INDONESIA",
        "code": "ID"
      },
      "id": 23166,
      "name": "Taman",
      "postcode": "68261",
      "lat": -7.9812941,
      "lng": 113.8019562
    },
    {
      "suburb": {
        "id": 2052,
        "name": "Grujugan",
        "lat": -7.9868869,
        "lng": 113.7513827
      },
      "city": {
        "id": 118,
        "name": "Bondowoso",
        "lat": -7.9673906,
        "lng": 113.9060624
      },
      "province": {
        "id": 11,
        "name": "Jawa Timur",
        "lat": -7.5360639,
        "lng": 112.2384017
      },
      "country": {
        "id": 228,
        "name": "INDONESIA",
        "code": "ID"
      },
      "id": 23167,
      "name": "Pekauman",
      "postcode": "68261",
      "lat": -7.9968222,
      "lng": 113.7960067
    },
    {
      "suburb": {
        "id": 2052,
        "name": "Grujugan",
        "lat": -7.9868869,
        "lng": 113.7513827
      },
      "city": {
        "id": 118,
        "name": "Bondowoso",
        "lat": -7.9673906,
        "lng": 113.9060624
      },
      "province": {
        "id": 11,
        "name": "Jawa Timur",
        "lat": -7.5360639,
        "lng": 112.2384017
      },
      "country": {
        "id": 228,
        "name": "INDONESIA",
        "code": "ID"
      },
      "id": 23168,
      "name": "Sumberpandan",
      "postcode": "68261",
      "lat": -7.9903162,
      "lng": 113.7365072
    },
    {
      "suburb": {
        "id": 2049,
        "name": "Jambe Sari Darus Sholah",
        "lat": -7.9811121,
        "lng": 113.8465758
      },
      "city": {
        "id": 118,
        "name": "Bondowoso",
        "lat": -7.9673906,
        "lng": 113.9060624
      },
      "province": {
        "id": 11,
        "name": "Jawa Timur",
        "lat": -7.5360639,
        "lng": 112.2384017
      },
      "country": {
        "id": 228,
        "name": "INDONESIA",
        "code": "ID"
      },
      "id": 23169,
      "name": "Pejagan",
      "postcode": "68261",
      "lat": -7.989959,
      "lng": 113.8257538
    },
    {
      "suburb": {
        "id": 2052,
        "name": "Grujugan",
        "lat": -7.9868869,
        "lng": 113.7513827
      },
      "city": {
        "id": 118,
        "name": "Bondowoso",
        "lat": -7.9673906,
        "lng": 113.9060624
      },
      "province": {
        "id": 11,
        "name": "Jawa Timur",
        "lat": -7.5360639,
        "lng": 112.2384017
      },
      "country": {
        "id": 228,
        "name": "INDONESIA",
        "code": "ID"
      },
      "id": 23170,
      "name": "Kejawan",
      "postcode": "68261",
      "lat": -7.9586439,
      "lng": 113.8212919
    },
    {
      "suburb": {
        "id": 2052,
        "name": "Grujugan",
        "lat": -7.9868869,
        "lng": 113.7513827
      },
      "city": {
        "id": 118,
        "name": "Bondowoso",
        "lat": -7.9673906,
        "lng": 113.9060624
      },
      "province": {
        "id": 11,
        "name": "Jawa Timur",
        "lat": -7.5360639,
        "lng": 112.2384017
      },
      "country": {
        "id": 228,
        "name": "INDONESIA",
        "code": "ID"
      },
      "id": 23171,
      "name": "Kabuaran",
      "postcode": "68261",
      "lat": -7.9742328,
      "lng": 113.7097303
    },
    {
      "suburb": {
        "id": 2049,
        "name": "Jambe Sari Darus Sholah",
        "lat": -7.9811121,
        "lng": 113.8465758
      },
      "city": {
        "id": 118,
        "name": "Bondowoso",
        "lat": -7.9673906,
        "lng": 113.9060624
      },
      "province": {
        "id": 11,
        "name": "Jawa Timur",
        "lat": -7.5360639,
        "lng": 112.2384017
      },
      "country": {
        "id": 228,
        "name": "INDONESIA",
        "code": "ID"
      },