{
  "metadata": {
    "path": "/v3/location/areas?limit=1000&page=62",
    "http_status_code": 200,
    "http_status": "OK",
    "timestamp": 1647339837
  },
  "data": [
    {
      "suburb": {
        "id": 5179,
        "name": "Bangun Purba",
        "lat": 0.9101582,
        "lng": 100.1927389
      },
      "city": {
        "id": 339,
        "name": "Rokan Hulu",
        "lat": 1.0410934,
        "lng": 100.439656
      },
      "province": {
        "id": 26,
        "name": "Riau",
        "lat": 0.2933469,
        "lng": 101.7068294
      },
      "country": {
        "id": 228,
        "name": "INDONESIA",
        "code": "ID"
      },
      "id": 61016,
      "name": "Pasir Intan",
      "postcode": "28557",
      "lat": 0.9571969,
      "lng": 100.1815316
    },
    {
      "suburb": {
        "id": 5180,
        "name": "Rambah",
        "lat": 0.834828,
        "lng": 100.2824483
      },
      "city": {
        "id": 339,
        "name": "Rokan Hulu",
        "lat": 1.0410934,
        "lng": 100.439656
      },
      "province": {
        "id": 26,
        "name": "Riau",
        "lat": 0.2933469,
        "lng": 101.7068294
      },
      "country": {
        "id": 228,
        "name": "INDONESIA",
        "code": "ID"
      },
      "id": 61017,
      "name": "Pasir Baru",
      "postcode": "28557",
      "lat": 0.8744981,
      "lng": 100.3525964
    },
    {
      "suburb": {
        "id": 5179,
        "name": "Bangun Purba",
        "lat": 0.9101582,
        "lng": 100.1927389
      },
      "city": {
        "id": 339,
        "name": "Rokan Hulu",
        "lat": 1.0410934,
        "lng": 100.439656
      },
      "province": {
        "id": 26,
        "name": "Riau",
        "lat": 0.2933469,
        "lng": 101.7068294
      },
      "country": {
        "id": 228,
        "name": "INDONESIA",
        "code": "ID"
      },
      "id": 61018,
      "name": "Pasir Agung",
      "postcode": "28557",
      "lat": 0.9193926,
      "lng": 100.2487967
    },
    {
      "suburb": {
        "id": 5181,
        "name": "Rambah Hilir",
        "lat": 0.9848328,
        "lng": 100.3722477
      },
      "city": {
        "id": 339,
        "name": "Rokan Hulu",
        "lat": 1.0410934,
        "lng": 100.439656
      },
      "province": {
        "id": 26,
        "name": "Riau",
        "lat": 0.2933469,
        "lng": 101.7068294
      },
      "country": {
        "id": 228,
        "name": "INDONESIA",
        "code": "ID"
      },
      "id": 61019,
      "name": "Muara Musu",
      "postcode": "28557",
      "lat": 0.9706015,
      "lng": 100.4115631
    },
    {
      "suburb": {
        "id": 5180,
        "name": "Rambah",
        "lat": 0.834828,
        "lng": 100.2824483
      },
      "city": {
        "id": 339,
        "name": "Rokan Hulu",
        "lat": 1.0410934,
        "lng": 100.439656
      },
      "province": {
        "id": 26,
        "name": "Riau",
        "lat": 0.2933469,
        "lng": 101.7068294
      },
      "country": {
        "id": 228,
        "name": "INDONESIA",
        "code": "ID"
      },
      "id": 61020,
      "name": "Menaming",
      "postcode": "28557",
      "lat": 0.8257741,
      "lng": 100.1591213
    },
    {
      "suburb": {
        "id": 5181,
        "name": "Rambah Hilir",
        "lat": 0.9848328,
        "lng": 100.3722477
      },
      "city": {
        "id": 339,
        "name": "Rokan Hulu",
        "lat": 1.0410934,
        "lng": 100.439656
      },
      "province": {
        "id": 26,
        "name": "Riau",
        "lat": 0.2933469,
        "lng": 101.7068294
      },
      "country": {
        "id": 228,
        "name": "INDONESIA",
        "code": "ID"
      },
      "id": 61021,
      "name": "Lubuk Krapat/Kerapat",
      "postcode": "28557",
      "lat": 1.008232,
      "lng": 100.4115631
    },
    {
      "suburb": {
        "id": 5180,
        "name": "Rambah",
        "lat": 0.834828,
        "lng": 100.2824483
      },
      "city": {
        "id": 339,
        "name": "Rokan Hulu",
        "lat": 1.0410934,
        "lng": 100.439656
      },
      "province": {
        "id": 26,
        "name": "Riau",
        "lat": 0.2933469,
        "lng": 101.7068294
      },
      "country": {
        "id": 228,
        "name": "INDONESIA",
        "code": "ID"
      },
      "id": 61022,
      "name": "Koto Tinggi",
      "postcode": "28557",
      "lat": 0.8300668,
      "lng": 100.310501
    },
    {
      "suburb": {
        "id": 5179,
        "name": "Bangun Purba",
        "lat": 0.9101582,
        "lng": 100.1927389
      },
      "city": {
        "id": 339,
        "name": "Rokan Hulu",
        "lat": 1.0410934,
        "lng": 100.439656
      },
      "province": {
        "id": 26,
        "name": "Riau",
        "lat": 0.2933469,
        "lng": 101.7068294
      },
      "country": {
        "id": 228,
        "name": "INDONESIA",
        "code": "ID"
      },
      "id": 61023,
      "name": "Bangun Purba Timur Jaya",
      "postcode": "28557",
      "lat": 0.8819504,
      "lng": 100.2039477
    },
    {
      "suburb": {
        "id": 5179,
        "name": "Bangun Purba",
        "lat": 0.9101582,
        "lng": 100.1927389
      },
      "city": {
        "id": 339,
        "name": "Rokan Hulu",
        "lat": 1.0410934,
        "lng": 100.439656
      },
      "province": {
        "id": 26,
        "name": "Riau",
        "lat": 0.2933469,
        "lng": 101.7068294
      },
      "country": {
        "id": 228,
        "name": "INDONESIA",
        "code": "ID"
      },
      "id": 61024,
      "name": "Bangun Purba",
      "postcode": "28557",
      "lat": 0.8867229,
      "lng": 100.1759285
    },
    {
      "suburb": {
        "id": 5179,
        "name": "Bangun Purba",
        "lat": 0.9101582,
        "lng": 100.1927389
      },
      "city": {
        "id": 339,
        "name": "Rokan Hulu",
        "lat": 1.0410934,
        "lng": 100.439656
      },
      "province": {
        "id": 26,
        "name": "Riau",
        "lat": 0.2933469,
        "lng": 101.7068294
      },
      "country": {
        "id": 228,
        "name": "INDONESIA",
        "code": "ID"
      },
      "id": 61025,
      "name": "Bangun Purba Barat",
      "postcode": "28557",
      "lat": 0.8680374,
      "lng": 100.1423172
    },
    {
      "suburb": {
        "id": 5182,
        "name": "Kunto Darussalam",
        "lat": 0.9087122,
        "lng": 100.6872457
      },
      "city": {
        "id": 339,
        "name": "Rokan Hulu",
        "lat": 1.0410934,
        "lng": 100.439656
      },
      "province": {
        "id": 26,
        "name": "Riau",
        "lat": 0.2933469,
        "lng": 101.7068294
      },
      "country": {
        "id": 228,
        "name": "INDONESIA",
        "code": "ID"
      },
      "id": 61026,
      "name": "Tanah Datar",
      "postcode": "28556",
      "lat": 0.8768404,
      "lng": 100.7647532
    },
    {
      "suburb": {
        "id": 5180,
        "name": "Rambah",
        "lat": 0.834828,
        "lng": 100.2824483
      },
      "city": {
        "id": 339,
        "name": "Rokan Hulu",
        "lat": 1.0410934,
        "lng": 100.439656
      },
      "province": {
        "id": 26,
        "name": "Riau",
        "lat": 0.2933469,
        "lng": 101.7068294
      },
      "country": {
        "id": 228,
        "name": "INDONESIA",
        "code": "ID"
      },
      "id": 61027,
      "name": "Babussalam",
      "postcode": "28557",
      "lat": 0.8606719,
      "lng": 100.2628167
    },
    {
      "suburb": {
        "id": 5182,
        "name": "Kunto Darussalam",
        "lat": 0.9087122,
        "lng": 100.6872457
      },
      "city": {
        "id": 339,
        "name": "Rokan Hulu",
        "lat": 1.0410934,
        "lng": 100.439656
      },
      "province": {
        "id": 26,
        "name": "Riau",
        "lat": 0.2933469,
        "lng": 101.7068294
      },
      "country": {
        "id": 228,
        "name": "INDONESIA",
        "code": "ID"
      },
      "id": 61028,
      "name": "Sungai Kuti",
      "postcode": "28556",
      "lat": 0.9321186,
      "lng": 100.7041509
    },
    {
      "suburb": {
        "id": 5183,
        "name": "Pagaran Tapah Darussalam",
        "lat": 0.759127,
        "lng": 100.5971361
      },
      "city": {
        "id": 339,
        "name": "Rokan Hulu",
        "lat": 1.0410934,
        "lng": 100.439656
      },
      "province": {
        "id": 26,
        "name": "Riau",
        "lat": 0.2933469,
        "lng": 101.7068294
      },
      "country": {
        "id": 228,
        "name": "INDONESIA",
        "code": "ID"
      },
      "id": 61029,
      "name": "Sangkir Indah",
      "postcode": "28556",
      "lat": 0.7826337,
      "lng": 100.546488
    },
    {
      "suburb": {
        "id": 5183,
        "name": "Pagaran Tapah Darussalam",
        "lat": 0.759127,
        "lng": 100.5971361
      },
      "city": {
        "id": 339,
        "name": "Rokan Hulu",
        "lat": 1.0410934,
        "lng": 100.439656
      },
      "province": {
        "id": 26,
        "name": "Riau",
        "lat": 0.2933469,
        "lng": 101.7068294
      },
      "country": {
        "id": 228,
        "name": "INDONESIA",
        "code": "ID"
      },
      "id": 61030,
      "name": "Rimba Jaya",
      "postcode": "28556",
      "lat": 0.8104714,
      "lng": 100.6365483
    },
    {
      "suburb": {
        "id": 5183,
        "name": "Pagaran Tapah Darussalam",
        "lat": 0.759127,
        "lng": 100.5971361
      },
      "city": {
        "id": 339,
        "name": "Rokan Hulu",
        "lat": 1.0410934,
        "lng": 100.439656
      },
      "province": {
        "id": 26,
        "name": "Riau",
        "lat": 0.2933469,
        "lng": 101.7068294
      },
      "country": {
        "id": 228,
        "name": "INDONESIA",
        "code": "ID"
      },
      "id": 61031,
      "name": "Rimba Makmur",
      "postcode": "28556",
      "lat": 0.8010245,
      "lng": 100.6703435
    },
    {
      "suburb": {
        "id": 5182,
        "name": "Kunto Darussalam",
        "lat": 0.9087122,
        "lng": 100.6872457
      },
      "city": {
        "id": 339,
        "name": "Rokan Hulu",
        "lat": 1.0410934,
        "lng": 100.439656
      },
      "province": {
        "id": 26,
        "name": "Riau",
        "lat": 0.2933469,
        "lng": 101.7068294
      },
      "country": {
        "id": 228,
        "name": "INDONESIA",
        "code": "ID"
      },
      "id": 61032,
      "name": "Pasir Indah",
      "postcode": "28556",
      "lat": 0.988618,
      "lng": 100.659077
    },
    {
      "suburb": {
        "id": 5182,
        "name": "Kunto Darussalam",
        "lat": 0.9087122,
        "lng": 100.6872457
      },
      "city": {
        "id": 339,
        "name": "Rokan Hulu",
        "lat": 1.0410934,
        "lng": 100.439656
      },
      "province": {
        "id": 26,
        "name": "Riau",
        "lat": 0.2933469,
        "lng": 101.7068294
      },
      "country": {
        "id": 228,
        "name": "INDONESIA",
        "code": "ID"
      },
      "id": 61033,
      "name": "Pasir Luhur",
      "postcode": "28556",
      "lat": 1.0261977,
      "lng": 100.6703435
    },
    {
      "suburb": {
        "id": 5182,
        "name": "Kunto Darussalam",
        "lat": 0.9087122,
        "lng": 100.6872457
      },
      "city": {
        "id": 339,
        "name": "Rokan Hulu",
        "lat": 1.0410934,
        "lng": 100.439656
      },
      "province": {
        "id": 26,
        "name": "Riau",
        "lat": 0.2933469,
        "lng": 101.7068294
      },
      "country": {
        "id": 228,
        "name": "INDONESIA",
        "code": "ID"
      },
      "id": 61034,
      "name": "Muara Intan",
      "postcode": "28556",
      "lat": 0.8593261,
      "lng": 100.7464275
    },
    {
      "suburb": {
        "id": 5183,
        "name": "Pagaran Tapah Darussalam",
        "lat": 0.759127,
        "lng": 100.5971361
      },
      "city": {
        "id": 339,
        "name": "Rokan Hulu",
        "lat": 1.0410934,
        "lng": 100.439656
      },
      "province": {
        "id": 26,
        "name": "Riau",
        "lat": 0.2933469,
        "lng": 101.7068294
      },
      "country": {
        "id": 228,
        "name": "INDONESIA",
        "code": "ID"
      },
      "id": 61035,
      "name": "Pagaran Tapah",
      "postcode": "28556",
      "lat": 0.7497522,
      "lng": 100.608395
    },
    {
      "suburb": {
        "id": 5182,
        "name": "Kunto Darussalam",
        "lat": 0.9087122,
        "lng": 100.6872457
      },
      "city": {
        "id": 339,
        "name": "Rokan Hulu",
        "lat": 1.0410934,
        "lng": 100.439656
      },
      "province": {
        "id": 26,
        "name": "Riau",
        "lat": 0.2933469,
        "lng": 101.7068294
      },
      "country": {
        "id": 228,
        "name": "INDONESIA",
        "code": "ID"
      },
      "id": 61036,
      "name": "Kota Lama",
      "postcode": "28556",
      "lat": 0.8712072,
      "lng": 100.6872457
    },
    {
      "suburb": {
        "id": 5182,
        "name": "Kunto Darussalam",
        "lat": 0.9087122,
        "lng": 100.6872457
      },
      "city": {
        "id": 339,
        "name": "Rokan Hulu",
        "lat": 1.0410934,
        "lng": 100.439656
      },
      "province": {
        "id": 26,
        "name": "Riau",
        "lat": 0.2933469,
        "lng": 101.7068294
      },
      "country": {
        "id": 228,
        "name": "INDONESIA",
        "code": "ID"
      },
      "id": 61037,
      "name": "Kota Raya",
      "postcode": "28556",
      "lat": 0.911335,
      "lng": 100.5943216
    },
    {
      "suburb": {
        "id": 5182,
        "name": "Kunto Darussalam",
        "lat": 0.9087122,
        "lng": 100.6872457
      },
      "city": {
        "id": 339,
        "name": "Rokan Hulu",
        "lat": 1.0410934,
        "lng": 100.439656
      },
      "province": {
        "id": 26,
        "name": "Riau",
        "lat": 0.2933469,
        "lng": 101.7068294
      },
      "country": {
        "id": 228,
        "name": "INDONESIA",
        "code": "ID"
      },
      "id": 61038,
      "name": "Muara Dilam",
      "postcode": "28556",
      "lat": 0.9836807,
      "lng": 100.7323332
    },
    {
      "suburb": {
        "id": 5182,
        "name": "Kunto Darussalam",
        "lat": 0.9087122,
        "lng": 100.6872457
      },
      "city": {
        "id": 339,
        "name": "Rokan Hulu",
        "lat": 1.0410934,
        "lng": 100.439656
      },
      "province": {
        "id": 26,
        "name": "Riau",
        "lat": 0.2933469,
        "lng": 101.7068294
      },
      "country": {
        "id": 228,
        "name": "INDONESIA",
        "code": "ID"
      },
      "id": 61039,
      "name": "Kota Intan",
      "postcode": "28556",
      "lat": 0.8433816,
      "lng": 100.5858786
    },
    {
      "suburb": {
        "id": 5182,
        "name": "Kunto Darussalam",
        "lat": 0.9087122,
        "lng": 100.6872457
      },
      "city": {
        "id": 339,
        "name": "Rokan Hulu",
        "lat": 1.0410934,
        "lng": 100.439656
      },
      "province": {
        "id": 26,
        "name": "Riau",
        "lat": 0.2933469,
        "lng": 101.7068294
      },
      "country": {
        "id": 228,
        "name": "INDONESIA",
        "code": "ID"
      },
      "id": 61040,
      "name": "Kota Baru",
      "postcode": "28556",
      "lat": 0.9253624,
      "lng": 100.6112099
    },
    {
      "suburb": {
        "id": 5183,
        "name": "Pagaran Tapah Darussalam",
        "lat": 0.759127,
        "lng": 100.5971361
      },
      "city": {
        "id": 339,
        "name": "Rokan Hulu",
        "lat": 1.0410934,
        "lng": 100.439656
      },
      "province": {
        "id": 26,
        "name": "Riau",
        "lat": 0.2933469,
        "lng": 101.7068294
      },
      "country": {
        "id": 228,
        "name": "INDONESIA",
        "code": "ID"
      },
      "id": 61041,
      "name": "Kembang Damai",
      "postcode": "28556",
      "lat": 0.7918158,
      "lng": 100.614025
    },
    {
      "suburb": {
        "id": 5182,
        "name": "Kunto Darussalam",
        "lat": 0.9087122,
        "lng": 100.6872457
      },
      "city": {
        "id": 339,
        "name": "Rokan Hulu",
        "lat": 1.0410934,
        "lng": 100.439656
      },
      "province": {
        "id": 26,
        "name": "Riau",
        "lat": 0.2933469,
        "lng": 101.7068294
      },
      "country": {
        "id": 228,
        "name": "INDONESIA",
        "code": "ID"
      },
      "id": 61042,
      "name": "Intan Jaya",
      "postcode": "28556",
      "lat": 0.8780651,
      "lng": 100.7464275
    },
    {
      "suburb": {
        "id": 5182,
        "name": "Kunto Darussalam",
        "lat": 0.9087122,
        "lng": 100.6872457
      },
      "city": {
        "id": 339,
        "name": "Rokan Hulu",
        "lat": 1.0410934,
        "lng": 100.439656
      },
      "province": {
        "id": 26,
        "name": "Riau",
        "lat": 0.2933469,
        "lng": 101.7068294
      },
      "country": {
        "id": 228,
        "name": "INDONESIA",
        "code": "ID"
      },
      "id": 61043,
      "name": "Bagan Tujuh",
      "postcode": "28556",
      "lat": 0.8384347,
      "lng": 100.6816113
    },
    {
      "suburb": {
        "id": 5182,
        "name": "Kunto Darussalam",
        "lat": 0.9087122,
        "lng": 100.6872457
      },
      "city": {
        "id": 339,
        "name": "Rokan Hulu",
        "lat": 1.0410934,
        "lng": 100.439656
      },
      "province": {
        "id": 26,
        "name": "Riau",
        "lat": 0.2933469,
        "lng": 101.7068294
      },
      "country": {
        "id": 228,
        "name": "INDONESIA",
        "code": "ID"
      },
      "id": 61044,
      "name": "Bukit Intan Makmur",
      "postcode": "28556",
      "lat": 0.8126684,
      "lng": 100.690063
    },
    {
      "suburb": {
        "id": 5184,
        "name": "Rokan IV Koto",
        "lat": 0.5545185,
        "lng": 100.3048897
      },
      "city": {
        "id": 339,
        "name": "Rokan Hulu",
        "lat": 1.0410934,
        "lng": 100.439656
      },
      "province": {
        "id": 26,
        "name": "Riau",
        "lat": 0.2933469,
        "lng": 101.7068294
      },
      "country": {
        "id": 228,
        "name": "INDONESIA",
        "code": "ID"
      },
      "id": 61045,
      "name": "Tanjung Medan",
      "postcode": "28555",
      "lat": 0.6381796,
      "lng": 100.4059456
    },
    {
      "suburb": {
        "id": 5184,
        "name": "Rokan IV Koto",
        "lat": 0.5545185,
        "lng": 100.3048897
      },
      "city": {
        "id": 339,
        "name": "Rokan Hulu",
        "lat": 1.0410934,
        "lng": 100.439656
      },
      "province": {
        "id": 26,
        "name": "Riau",
        "lat": 0.2933469,
        "lng": 101.7068294
      },
      "country": {
        "id": 228,
        "name": "INDONESIA",
        "code": "ID"
      },
      "id": 61046,
      "name": "Tibawan",
      "postcode": "28555",
      "lat": 0.5825576,
      "lng": 100.2487967
    },
    {
      "suburb": {
        "id": 5184,
        "name": "Rokan IV Koto",
        "lat": 0.5545185,
        "lng": 100.3048897
      },
      "city": {
        "id": 339,
        "name": "Rokan Hulu",
        "lat": 1.0410934,
        "lng": 100.439656
      },
      "province": {
        "id": 26,
        "name": "Riau",
        "lat": 0.2933469,
        "lng": 101.7068294
      },
      "country": {
        "id": 228,
        "name": "INDONESIA",
        "code": "ID"
      },
      "id": 61047,
      "name": "Sikebau Jaya",
      "postcode": "28555",
      "lat": 0.5868063,
      "lng": 100.4677576
    },
    {
      "suburb": {
        "id": 5185,
        "name": "Pendalian IV Koto",
        "lat": 0.4983836,
        "lng": 100.5071143
      },
      "city": {
        "id": 339,
        "name": "Rokan Hulu",
        "lat": 1.0410934,
        "lng": 100.439656
      },
      "province": {
        "id": 26,
        "name": "Riau",
        "lat": 0.2933469,
        "lng": 101.7068294
      },
      "country": {
        "id": 228,
        "name": "INDONESIA",
        "code": "ID"
      },
      "id": 61048,
      "name": "Suligi",
      "postcode": "28555",
      "lat": 0.5401586,
      "lng": 100.5352367
    },
    {
      "suburb": {
        "id": 5184,
        "name": "Rokan IV Koto",
        "lat": 0.5545185,
        "lng": 100.3048897
      },
      "city": {
        "id": 339,
        "name": "Rokan Hulu",
        "lat": 1.0410934,
        "lng": 100.439656
      },
      "province": {
        "id": 26,
        "name": "Riau",
        "lat": 0.2933469,
        "lng": 101.7068294
      },
      "country": {
        "id": 228,
        "name": "INDONESIA",
        "code": "ID"
      },
      "id": 61049,
      "name": "Rokan Timur",
      "postcode": "28555",
      "lat": 0.58687,
      "lng": 100.4340367
    },
    {
      "suburb": {
        "id": 5185,
        "name": "Pendalian IV Koto",
        "lat": 0.4983836,
        "lng": 100.5071143
      },
      "city": {
        "id": 339,
        "name": "Rokan Hulu",
        "lat": 1.0410934,
        "lng": 100.439656
      },
      "province": {
        "id": 26,
        "name": "Riau",
        "lat": 0.2933469,
        "lng": 101.7068294
      },
      "country": {
        "id": 228,
        "name": "INDONESIA",
        "code": "ID"
      },
      "id": 61050,
      "name": "Sei Kandis",
      "postcode": "28555",
      "lat": 0.4983836,
      "lng": 100.5071143
    },
    {
      "suburb": {
        "id": 5184,
        "name": "Rokan IV Koto",
        "lat": 0.5545185,
        "lng": 100.3048897
      },
      "city": {
        "id": 339,
        "name": "Rokan Hulu",
        "lat": 1.0410934,
        "lng": 100.439656
      },
      "province": {
        "id": 26,
        "name": "Riau",
        "lat": 0.2933469,
        "lng": 101.7068294
      },
      "country": {
        "id": 228,
        "name": "INDONESIA",
        "code": "ID"
      },
      "id": 61051,
      "name": "Rokan",
      "postcode": "28555",
      "lat": 0.5962266,
      "lng": 100.4115631
    },
    {
      "suburb": {
        "id": 5184,
        "name": "Rokan IV Koto",
        "lat": 0.5545185,
        "lng": 100.3048897
      },
      "city": {
        "id": 339,
        "name": "Rokan Hulu",
        "lat": 1.0410934,
        "lng": 100.439656
      },
      "province": {
        "id": 26,
        "name": "Riau",
        "lat": 0.2933469,
        "lng": 101.7068294
      },
      "country": {
        "id": 228,
        "name": "INDONESIA",
        "code": "ID"
      },
      "id": 61052,
      "name": "Rokan Koto Ruang",
      "postcode": "28555",
      "lat": 0.5730172,
      "lng": 100.3722477
    },
    {
      "suburb": {
        "id": 5184,
        "name": "Rokan IV Koto",
        "lat": 0.5545185,
        "lng": 100.3048897
      },
      "city": {
        "id": 339,
        "name": "Rokan Hulu",
        "lat": 1.0410934,
        "lng": 100.439656
      },
      "province": {
        "id": 26,
        "name": "Riau",
        "lat": 0.2933469,
        "lng": 101.7068294
      },
      "country": {
        "id": 228,
        "name": "INDONESIA",
        "code": "ID"
      },
      "id": 61053,
      "name": "Pemandang",
      "postcode": "28555",
      "lat": 0.6942219,
      "lng": 100.383479
    },
    {
      "suburb": {
        "id": 5185,
        "name": "Pendalian IV Koto",
        "lat": 0.4983836,
        "lng": 100.5071143
      },
      "city": {
        "id": 339,
        "name": "Rokan Hulu",
        "lat": 1.0410934,
        "lng": 100.439656
      },
      "province": {
        "id": 26,
        "name": "Riau",
        "lat": 0.2933469,
        "lng": 101.7068294
      },
      "country": {
        "id": 228,
        "name": "INDONESIA",
        "code": "ID"
      },
      "id": 61054,
      "name": "Pendalian",
      "postcode": "28555",
      "lat": 0.4891487,
      "lng": 100.4733789
    },
    {
      "suburb": {
        "id": 5184,
        "name": "Rokan IV Koto",
        "lat": 0.5545185,
        "lng": 100.3048897
      },
      "city": {
        "id": 339,
        "name": "Rokan Hulu",
        "lat": 1.0410934,
        "lng": 100.439656
      },
      "province": {
        "id": 26,
        "name": "Riau",
        "lat": 0.2933469,
        "lng": 101.7068294
      },
      "country": {
        "id": 228,
        "name": "INDONESIA",
        "code": "ID"
      },
      "id": 61055,
      "name": "Lubuk Bendahara Timur",
      "postcode": "28555",
      "lat": 0.7127508,
      "lng": 100.4508956
    },
    {
      "suburb": {
        "id": 5184,
        "name": "Rokan IV Koto",
        "lat": 0.5545185,
        "lng": 100.3048897
      },
      "city": {
        "id": 339,
        "name": "Rokan Hulu",
        "lat": 1.0410934,
        "lng": 100.439656
      },
      "province": {
        "id": 26,
        "name": "Riau",
        "lat": 0.2933469,
        "lng": 101.7068294
      },
      "country": {
        "id": 228,
        "name": "INDONESIA",
        "code": "ID"
      },
      "id": 61056,
      "name": "Lubuk Betung",
      "postcode": "28555",
      "lat": 0.6963494,
      "lng": 100.4761897
    },
    {
      "suburb": {
        "id": 5184,
        "name": "Rokan IV Koto",
        "lat": 0.5545185,
        "lng": 100.3048897
      },
      "city": {
        "id": 339,
        "name": "Rokan Hulu",
        "lat": 1.0410934,
        "lng": 100.439656
      },
      "province": {
        "id": 26,
        "name": "Riau",
        "lat": 0.2933469,
        "lng": 101.7068294
      },
      "country": {
        "id": 228,
        "name": "INDONESIA",
        "code": "ID"
      },
      "id": 61057,
      "name": "Cipang Kiri Hulu",
      "postcode": "28555",
      "lat": 0.4522739,
      "lng": 100.2936683
    },
    {
      "suburb": {
        "id": 5184,
        "name": "Rokan IV Koto",
        "lat": 0.5545185,
        "lng": 100.3048897
      },
      "city": {
        "id": 339,
        "name": "Rokan Hulu",
        "lat": 1.0410934,
        "lng": 100.439656
      },
      "province": {
        "id": 26,
        "name": "Riau",
        "lat": 0.2933469,
        "lng": 101.7068294
      },
      "country": {
        "id": 228,
        "name": "INDONESIA",
        "code": "ID"
      },
      "id": 61058,
      "name": "Lubuk Bendahara",
      "postcode": "28555",
      "lat": 0.6193537,
      "lng": 100.4958678
    },
    {
      "suburb": {
        "id": 5184,
        "name": "Rokan IV Koto",
        "lat": 0.5545185,
        "lng": 100.3048897
      },
      "city": {
        "id": 339,
        "name": "Rokan Hulu",
        "lat": 1.0410934,
        "lng": 100.439656
      },
      "province": {
        "id": 26,
        "name": "Riau",
        "lat": 0.2933469,
        "lng": 101.7068294
      },
      "country": {
        "id": 228,
        "name": "INDONESIA",
        "code": "ID"
      },
      "id": 61059,
      "name": "Cipang Kiri Hilir",
      "postcode": "28555",
      "lat": 0.4985998,
      "lng": 100.3722477
    },
    {
      "suburb": {
        "id": 5184,
        "name": "Rokan IV Koto",
        "lat": 0.5545185,
        "lng": 100.3048897
      },
      "city": {
        "id": 339,
        "name": "Rokan Hulu",
        "lat": 1.0410934,
        "lng": 100.439656
      },
      "province": {
        "id": 26,
        "name": "Riau",
        "lat": 0.2933469,
        "lng": 101.7068294
      },
      "country": {
        "id": 228,
        "name": "INDONESIA",
        "code": "ID"
      },
      "id": 61060,
      "name": "Cipang Kanan",
      "postcode": "28555",
      "lat": 0.6571632,
      "lng": 100.2487967
    },
    {
      "suburb": {
        "id": 5185,
        "name": "Pendalian IV Koto",
        "lat": 0.4983836,
        "lng": 100.5071143
      },
      "city": {
        "id": 339,
        "name": "Rokan Hulu",
        "lat": 1.0410934,
        "lng": 100.439656
      },
      "province": {
        "id": 26,
        "name": "Riau",
        "lat": 0.2933469,
        "lng": 101.7068294
      },
      "country": {
        "id": 228,
        "name": "INDONESIA",
        "code": "ID"
      },
      "id": 61061,
      "name": "Bengkolan Salak",
      "postcode": "28555",
      "lat": 0.4960388,
      "lng": 100.5211744
    },
    {
      "suburb": {
        "id": 5184,
        "name": "Rokan IV Koto",
        "lat": 0.5545185,
        "lng": 100.3048897
      },
      "city": {
        "id": 339,
        "name": "Rokan Hulu",
        "lat": 1.0410934,
        "lng": 100.439656
      },
      "province": {
        "id": 26,
        "name": "Riau",
        "lat": 0.2933469,
        "lng": 101.7068294
      },
      "country": {
        "id": 228,
        "name": "INDONESIA",
        "code": "ID"
      },
      "id": 61062,
      "name": "Alahan",
      "postcode": "28555",
      "lat": 0.6427381,
      "lng": 100.4565159
    },
    {
      "suburb": {
        "id": 5186,
        "name": "Ujung Batu",
        "lat": 0.6845114,
        "lng": 100.5521142
      },
      "city": {
        "id": 339,
        "name": "Rokan Hulu",
        "lat": 1.0410934,
        "lng": 100.439656
      },
      "province": {
        "id": 26,
        "name": "Riau",
        "lat": 0.2933469,
        "lng": 101.7068294
      },
      "country": {
        "id": 228,
        "name": "INDONESIA",
        "code": "ID"
      },
      "id": 61063,
      "name": "Ujung Batu Timur",
      "postcode": "28554",
      "lat": 0.6752051,
      "lng": 100.5408622
    },
    {
      "suburb": {
        "id": 5185,
        "name": "Pendalian IV Koto",
        "lat": 0.4983836,
        "lng": 100.5071143
      },
      "city": {
        "id": 339,
        "name": "Rokan Hulu",
        "lat": 1.0410934,
        "lng": 100.439656
      },
      "province": {
        "id": 26,
        "name": "Riau",
        "lat": 0.2933469,
        "lng": 101.7068294
      },
      "country": {
        "id": 228,
        "name": "INDONESIA",
        "code": "ID"
      },
      "id": 61064,
      "name": "Air Panas",
      "postcode": "28555",
      "lat": 0.5309387,
      "lng": 100.4902451
    },
    {
      "suburb": {
        "id": 5187,
        "name": "Tandun",
        "lat": 0.5726011,
        "lng": 100.5971361
      },
      "city": {
        "id": 339,
        "name": "Rokan Hulu",
        "lat": 1.0410934,
        "lng": 100.439656
      },
      "province": {
        "id": 26,
        "name": "Riau",
        "lat": 0.2933469,
        "lng": 101.7068294
      },
      "country": {
        "id": 228,
        "name": "INDONESIA",
        "code": "ID"
      },
      "id": 61065,
      "name": "Tapung Jaya",
      "postcode": "28554",
      "lat": 0.614594,
      "lng": 100.546488
    },
    {
      "suburb": {
        "id": 5186,
        "name": "Ujung Batu",
        "lat": 0.6845114,
        "lng": 100.5521142
      },
      "city": {
        "id": 339,
        "name": "Rokan Hulu",
        "lat": 1.0410934,
        "lng": 100.439656
      },
      "province": {
        "id": 26,
        "name": "Riau",
        "lat": 0.2933469,
        "lng": 101.7068294
      },
      "country": {
        "id": 228,
        "name": "INDONESIA",
        "code": "ID"
      },
      "id": 61066,
      "name": "Ujung Batu",
      "postcode": "28554",
      "lat": 0.6962354,
      "lng": 100.5267991
    },
    {
      "suburb": {
        "id": 5187,
        "name": "Tandun",
        "lat": 0.5726011,
        "lng": 100.5971361
      },
      "city": {
        "id": 339,
        "name": "Rokan Hulu",
        "lat": 1.0410934,
        "lng": 100.439656
      },
      "province": {
        "id": 26,
        "name": "Riau",
        "lat": 0.2933469,
        "lng": 101.7068294
      },
      "country": {
        "id": 228,
        "name": "INDONESIA",
        "code": "ID"
      },
      "id": 61067,
      "name": "Tandun Barat",
      "postcode": "28554",
      "lat": 0.6378084,
      "lng": 100.5858786
    },
    {
      "suburb": {
        "id": 5187,
        "name": "Tandun",
        "lat": 0.5726011,
        "lng": 100.5971361
      },
      "city": {
        "id": 339,
        "name": "Rokan Hulu",
        "lat": 1.0410934,
        "lng": 100.439656
      },
      "province": {
        "id": 26,
        "name": "Riau",
        "lat": 0.2933469,
        "lng": 101.7068294
      },
      "country": {
        "id": 228,
        "name": "INDONESIA",
        "code": "ID"
      },
      "id": 61068,
      "name": "Sei/Sungai Kuning",
      "postcode": "28554",
      "lat": 0.5400795,
      "lng": 100.5802503
    },
    {
      "suburb": {
        "id": 5187,
        "name": "Tandun",
        "lat": 0.5726011,
        "lng": 100.5971361
      },
      "city": {
        "id": 339,
        "name": "Rokan Hulu",
        "lat": 1.0410934,
        "lng": 100.439656
      },
      "province": {
        "id": 26,
        "name": "Riau",
        "lat": 0.2933469,
        "lng": 101.7068294
      },
      "country": {
        "id": 228,
        "name": "INDONESIA",
        "code": "ID"
      },
      "id": 61069,
      "name": "Tandun",
      "postcode": "28554",
      "lat": 0.5818422,
      "lng": 100.6309169
    },
    {
      "suburb": {
        "id": 5186,
        "name": "Ujung Batu",
        "lat": 0.6845114,
        "lng": 100.5521142
      },
      "city": {
        "id": 339,
        "name": "Rokan Hulu",
        "lat": 1.0410934,
        "lng": 100.439656
      },
      "province": {
        "id": 26,
        "name": "Riau",
        "lat": 0.2933469,
        "lng": 101.7068294
      },
      "country": {
        "id": 228,
        "name": "INDONESIA",
        "code": "ID"
      },
      "id": 61070,
      "name": "Suka Damai",
      "postcode": "28554",
      "lat": 0.6682751,
      "lng": 100.5099262
    },
    {
      "suburb": {
        "id": 5186,
        "name": "Ujung Batu",
        "lat": 0.6845114,
        "lng": 100.5521142
      },
      "city": {
        "id": 339,
        "name": "Rokan Hulu",
        "lat": 1.0410934,
        "lng": 100.439656
      },
      "province": {
        "id": 26,
        "name": "Riau",
        "lat": 0.2933469,
        "lng": 101.7068294
      },
      "country": {
        "id": 228,
        "name": "INDONESIA",
        "code": "ID"
      },
      "id": 61071,
      "name": "Pematang Tebih",
      "postcode": "28554",
      "lat": 0.7313326,
      "lng": 100.4958678
    },
    {
      "suburb": {
        "id": 5187,
        "name": "Tandun",
        "lat": 0.5726011,
        "lng": 100.5971361
      },
      "city": {
        "id": 339,
        "name": "Rokan Hulu",
        "lat": 1.0410934,
        "lng": 100.439656
      },
      "province": {
        "id": 26,
        "name": "Riau",
        "lat": 0.2933469,
        "lng": 101.7068294
      },
      "country": {
        "id": 228,
        "name": "INDONESIA",
        "code": "ID"
      },
      "id": 61072,
      "name": "Puo Raya",
      "postcode": "28554",
      "lat": 0.5631524,
      "lng": 100.6759772
    },
    {
      "suburb": {
        "id": 5186,
        "name": "Ujung Batu",
        "lat": 0.6845114,
        "lng": 100.5521142
      },
      "city": {
        "id": 339,
        "name": "Rokan Hulu",
        "lat": 1.0410934,
        "lng": 100.439656
      },
      "province": {
        "id": 26,
        "name": "Riau",
        "lat": 0.2933469,
        "lng": 101.7068294
      },
      "country": {
        "id": 228,
        "name": "INDONESIA",
        "code": "ID"
      },
      "id": 61073,
      "name": "Ngaso",
      "postcode": "28554",
      "lat": 0.7172002,
      "lng": 100.546488
    },
    {
      "suburb": {
        "id": 5187,
        "name": "Tandun",
        "lat": 0.5726011,
        "lng": 100.5971361
      },
      "city": {
        "id": 339,
        "name": "Rokan Hulu",
        "lat": 1.0410934,
        "lng": 100.439656
      },
      "province": {
        "id": 26,
        "name": "Riau",
        "lat": 0.2933469,
        "lng": 101.7068294
      },
      "country": {
        "id": 228,
        "name": "INDONESIA",
        "code": "ID"
      },
      "id": 61074,
      "name": "Kumain",
      "postcode": "28554",
      "lat": 0.5307055,
      "lng": 100.6252859
    },
    {
      "suburb": {
        "id": 5188,
        "name": "Kabun",
        "lat": 0.4794201,
        "lng": 100.7548851
      },
      "city": {
        "id": 339,
        "name": "Rokan Hulu",
        "lat": 1.0410934,
        "lng": 100.439656
      },
      "province": {
        "id": 26,
        "name": "Riau",
        "lat": 0.2933469,
        "lng": 101.7068294
      },
      "country": {
        "id": 228,
        "name": "INDONESIA",
        "code": "ID"
      },
      "id": 61075,
      "name": "Kota/Koto Ranah",
      "postcode": "28554",
      "lat": 0.4006651,
      "lng": 100.7379706
    },
    {
      "suburb": {
        "id": 5187,
        "name": "Tandun",
        "lat": 0.5726011,
        "lng": 100.5971361
      },
      "city": {
        "id": 339,
        "name": "Rokan Hulu",
        "lat": 1.0410934,
        "lng": 100.439656
      },
      "province": {
        "id": 26,
        "name": "Riau",
        "lat": 0.2933469,
        "lng": 101.7068294
      },
      "country": {
        "id": 228,
        "name": "INDONESIA",
        "code": "ID"
      },
      "id": 61076,
      "name": "Koto Tandun",
      "postcode": "28554",
      "lat": 0.6051684,
      "lng": 100.6027654
    },
    {
      "suburb": {
        "id": 5188,
        "name": "Kabun",
        "lat": 0.4794201,
        "lng": 100.7548851
      },
      "city": {
        "id": 339,
        "name": "Rokan Hulu",
        "lat": 1.0410934,
        "lng": 100.439656
      },
      "province": {
        "id": 26,
        "name": "Riau",
        "lat": 0.2933469,
        "lng": 101.7068294
      },
      "country": {
        "id": 228,
        "name": "INDONESIA",
        "code": "ID"
      },
      "id": 61077,
      "name": "Giti",
      "postcode": "28554",
      "lat": 0.4747017,
      "lng": 100.8056466
    },
    {
      "suburb": {
        "id": 5188,
        "name": "Kabun",
        "lat": 0.4794201,
        "lng": 100.7548851
      },
      "city": {
        "id": 339,
        "name": "Rokan Hulu",
        "lat": 1.0410934,
        "lng": 100.439656
      },
      "province": {
        "id": 26,
        "name": "Riau",
        "lat": 0.2933469,
        "lng": 101.7068294
      },
      "country": {
        "id": 228,
        "name": "INDONESIA",
        "code": "ID"
      },
      "id": 61078,
      "name": "Kabun",
      "postcode": "28554",
      "lat": 0.4144864,
      "lng": 100.7887231
    },
    {
      "suburb": {
        "id": 5187,
        "name": "Tandun",
        "lat": 0.5726011,
        "lng": 100.5971361
      },
      "city": {
        "id": 339,
        "name": "Rokan Hulu",
        "lat": 1.0410934,
        "lng": 100.439656
      },
      "province": {
        "id": 26,
        "name": "Riau",
        "lat": 0.2933469,
        "lng": 101.7068294
      },
      "country": {
        "id": 228,
        "name": "INDONESIA",
        "code": "ID"
      },
      "id": 61079,
      "name": "Dayo",
      "postcode": "28554",
      "lat": 0.5866568,
      "lng": 100.546488
    },
    {
      "suburb": {
        "id": 5188,
        "name": "Kabun",
        "lat": 0.4794201,
        "lng": 100.7548851
      },
      "city": {
        "id": 339,
        "name": "Rokan Hulu",
        "lat": 1.0410934,
        "lng": 100.439656
      },
      "province": {
        "id": 26,
        "name": "Riau",
        "lat": 0.2933469,
        "lng": 101.7068294
      },
      "country": {
        "id": 228,
        "name": "INDONESIA",
        "code": "ID"
      },
      "id": 61080,
      "name": "Bencah/Boncah Kesuma",
      "postcode": "28554",
      "lat": 0.5073943,
      "lng": 100.6759772
    },
    {
      "suburb": {
        "id": 5187,
        "name": "Tandun",
        "lat": 0.5726011,
        "lng": 100.5971361
      },
      "city": {
        "id": 339,
        "name": "Rokan Hulu",
        "lat": 1.0410934,
        "lng": 100.439656
      },
      "province": {
        "id": 26,
        "name": "Riau",
        "lat": 0.2933469,
        "lng": 101.7068294
      },
      "country": {
        "id": 228,
        "name": "INDONESIA",
        "code": "ID"
      },
      "id": 61081,
      "name": "Bono Tapung",
      "postcode": "28554",
      "lat": 0.5772641,
      "lng": 100.5915072
    },
    {
      "suburb": {
        "id": 5188,
        "name": "Kabun",
        "lat": 0.4794201,
        "lng": 100.7548851
      },
      "city": {
        "id": 339,
        "name": "Rokan Hulu",
        "lat": 1.0410934,
        "lng": 100.439656
      },
      "province": {
        "id": 26,
        "name": "Riau",
        "lat": 0.2933469,
        "lng": 101.7068294
      },
      "country": {
        "id": 228,
        "name": "INDONESIA",
        "code": "ID"
      },
      "id": 61082,
      "name": "Aliantan",
      "postcode": "28554",
      "lat": 0.4609043,
      "lng": 100.7323332
    },
    {
      "suburb": {
        "id": 5188,
        "name": "Kabun",
        "lat": 0.4794201,
        "lng": 100.7548851
      },
      "city": {
        "id": 339,
        "name": "Rokan Hulu",
        "lat": 1.0410934,
        "lng": 100.439656
      },
      "province": {
        "id": 26,
        "name": "Riau",
        "lat": 0.2933469,
        "lng": 101.7068294
      },
      "country": {
        "id": 228,
        "name": "INDONESIA",
        "code": "ID"
      },
      "id": 61083,
      "name": "Batu Langkah Besar",
      "postcode": "28554",
      "lat": 0.3774325,
      "lng": 100.8112885
    },
    {
      "suburb": {
        "id": 5189,
        "name": "Kampar Kiri Hulu",
        "lat": -0.1835694,
        "lng": 100.9354944
      },
      "city": {
        "id": 340,
        "name": "Kampar",
        "lat": 0.146671,
        "lng": 101.1617356
      },
      "province": {
        "id": 26,
        "name": "Riau",
        "lat": 0.2933469,
        "lng": 101.7068294
      },
      "country": {
        "id": 228,
        "name": "INDONESIA",
        "code": "ID"
      },
      "id": 61084,
      "name": "Terusan",
      "postcode": "28471",
      "lat": -0.3078346,
      "lng": 101.0768333
    },
    {
      "suburb": {
        "id": 5190,
        "name": "Kampar Kiri Tengah",
        "lat": 0.1649542,
        "lng": 101.3204164
      },
      "city": {
        "id": 340,
        "name": "Kampar",
        "lat": 0.146671,
        "lng": 101.1617356
      },
      "province": {
        "id": 26,
        "name": "Riau",
        "lat": 0.2933469,
        "lng": 101.7068294
      },
      "country": {
        "id": 228,
        "name": "INDONESIA",
        "code": "ID"
      },
      "id": 61085,
      "name": "Utama Karya",
      "postcode": "28471",
      "lat": 0.2431047,
      "lng": 101.3147449
    },
    {
      "suburb": {
        "id": 5189,
        "name": "Kampar Kiri Hulu",
        "lat": -0.1835694,
        "lng": 100.9354944
      },
      "city": {
        "id": 340,
        "name": "Kampar",
        "lat": 0.146671,
        "lng": 101.1617356
      },
      "province": {
        "id": 26,
        "name": "Riau",
        "lat": 0.2933469,
        "lng": 101.7068294
      },
      "country": {
        "id": 228,
        "name": "INDONESIA",
        "code": "ID"
      },
      "id": 61086,
      "name": "Tanjung Permai",
      "postcode": "28471",
      "lat": -0.0825364,
      "lng": 100.7887231
    },
    {
      "suburb": {
        "id": 5191,
        "name": "Kampar Kiri",
        "lat": -0.0366199,
        "lng": 101.1164452
      },
      "city": {
        "id": 340,
        "name": "Kampar",
        "lat": 0.146671,
        "lng": 101.1617356
      },
      "province": {
        "id": 26,
        "name": "Riau",
        "lat": 0.2933469,
        "lng": 101.7068294
      },
      "country": {
        "id": 228,
        "name": "INDONESIA",
        "code": "ID"
      },
      "id": 61087,
      "name": "Teluk Paman",
      "postcode": "28471",
      "lat": -0.0526396,
      "lng": 101.1872207
    },
    {
      "suburb": {
        "id": 5191,
        "name": "Kampar Kiri",
        "lat": -0.0366199,
        "lng": 101.1164452
      },
      "city": {
        "id": 340,
        "name": "Kampar",
        "lat": 0.146671,
        "lng": 101.1617356
      },
      "province": {
        "id": 26,
        "name": "Riau",
        "lat": 0.2933469,
        "lng": 101.7068294
      },
      "country": {
        "id": 228,
        "name": "INDONESIA",
        "code": "ID"
      },
      "id": 61088,
      "name": "Teluk Paman Timur",
      "postcode": "28471",
      "lat": -0.0411879,
      "lng": 101.2013819
    },
    {
      "suburb": {
        "id": 5189,
        "name": "Kampar Kiri Hulu",
        "lat": -0.1835694,
        "lng": 100.9354944
      },
      "city": {
        "id": 340,
        "name": "Kampar",
        "lat": 0.146671,
        "lng": 101.1617356
      },
      "province": {
        "id": 26,
        "name": "Riau",
        "lat": 0.2933469,
        "lng": 101.7068294
      },
      "country": {
        "id": 228,
        "name": "INDONESIA",
        "code": "ID"
      },
      "id": 61089,
      "name": "Tanjung Karang",
      "postcode": "28471",
      "lat": -0.0320633,
      "lng": 100.9072516
    },
    {
      "suburb": {
        "id": 5191,
        "name": "Kampar Kiri",
        "lat": -0.0366199,
        "lng": 101.1164452
      },
      "city": {
        "id": 340,
        "name": "Kampar",
        "lat": 0.146671,
        "lng": 101.1617356
      },
      "province": {
        "id": 26,
        "name": "Riau",
        "lat": 0.2933469,
        "lng": 101.7068294
      },
      "country": {
        "id": 228,
        "name": "INDONESIA",
        "code": "ID"
      },
      "id": 61090,
      "name": "Tanjung Harapan",
      "postcode": "28471",
      "lat": 0.0183041,
      "lng": 101.1390878
    },
    {
      "suburb": {
        "id": 5191,
        "name": "Kampar Kiri",
        "lat": -0.0366199,
        "lng": 101.1164452
      },
      "city": {
        "id": 340,
        "name": "Kampar",
        "lat": 0.146671,
        "lng": 101.1617356
      },
      "province": {
        "id": 26,
        "name": "Riau",
        "lat": 0.2933469,
        "lng": 101.7068294
      },
      "country": {
        "id": 228,
        "name": "INDONESIA",
        "code": "ID"
      },
      "id": 61091,
      "name": "Tanjung Mas",
      "postcode": "28471",
      "lat": -0.0045758,
      "lng": 101.0994667
    },
    {
      "suburb": {
        "id": 5189,
        "name": "Kampar Kiri Hulu",
        "lat": -0.1835694,
        "lng": 100.9354944
      },
      "city": {
        "id": 340,
        "name": "Kampar",
        "lat": 0.146671,
        "lng": 101.1617356
      },
      "province": {
        "id": 26,
        "name": "Riau",
        "lat": 0.2933469,
        "lng": 101.7068294
      },
      "country": {
        "id": 228,
        "name": "INDONESIA",
        "code": "ID"
      },
      "id": 61092,
      "name": "Tanjung Belit Selatan",
      "postcode": "28471",
      "lat": -0.1352325,
      "lng": 101.0740045
    },
    {
      "suburb": {
        "id": 5189,
        "name": "Kampar Kiri Hulu",
        "lat": -0.1835694,
        "lng": 100.9354944
      },
      "city": {
        "id": 340,
        "name": "Kampar",
        "lat": 0.146671,
        "lng": 101.1617356
      },
      "province": {
        "id": 26,
        "name": "Riau",
        "lat": 0.2933469,
        "lng": 101.7068294
      },
      "country": {
        "id": 228,
        "name": "INDONESIA",
        "code": "ID"
      },
      "id": 61093,
      "name": "Tanjung Beringin",
      "postcode": "28471",
      "lat": -0.2433046,
      "lng": 101.0768333
    },
    {
      "suburb": {
        "id": 5189,
        "name": "Kampar Kiri Hulu",
        "lat": -0.1835694,
        "lng": 100.9354944
      },
      "city": {
        "id": 340,
        "name": "Kampar",
        "lat": 0.146671,
        "lng": 101.1617356
      },
      "province": {
        "id": 26,
        "name": "Riau",
        "lat": 0.2933469,
        "lng": 101.7068294
      },
      "country": {
        "id": 228,
        "name": "INDONESIA",
        "code": "ID"
      },
      "id": 61094,
      "name": "Tanjung Belit",
      "postcode": "28471",
      "lat": -0.1972478,
      "lng": 101.1221054
    },
    {
      "suburb": {
        "id": 5191,
        "name": "Kampar Kiri",
        "lat": -0.0366199,
        "lng": 101.1164452
      },
      "city": {
        "id": 340,
        "name": "Kampar",
        "lat": 0.146671,
        "lng": 101.1617356
      },
      "province": {
        "id": 26,
        "name": "Riau",
        "lat": 0.2933469,
        "lng": 101.7068294
      },
      "country": {
        "id": 228,
        "name": "INDONESIA",
        "code": "ID"
      },
      "id": 61095,
      "name": "Sungai Sarik",
      "postcode": "28471",
      "lat": 0.0457929,
      "lng": 101.0372376
    },
    {
      "suburb": {
        "id": 5192,
        "name": "Kampar Kiri Hilir",
        "lat": 0.1098278,
        "lng": 101.47935
      },
      "city": {
        "id": 340,
        "name": "Kampar",
        "lat": 0.146671,
        "lng": 101.1617356
      },
      "province": {
        "id": 26,
        "name": "Riau",
        "lat": 0.2933469,
        "lng": 101.7068294
      },
      "country": {
        "id": 228,
        "name": "INDONESIA",
        "code": "ID"
      },
      "id": 61096,
      "name": "Sungai Simpang Dua",
      "postcode": "28471",
      "lat": 0.2660616,
      "lng": 101.3771496
    },
    {
      "suburb": {
        "id": 5191,
        "name": "Kampar Kiri",
        "lat": -0.0366199,
        "lng": 101.1164452
      },
      "city": {
        "id": 340,
        "name": "Kampar",
        "lat": 0.146671,
        "lng": 101.1617356
      },
      "province": {
        "id": 26,
        "name": "Riau",
        "lat": 0.2933469,
        "lng": 101.7068294
      },
      "country": {
        "id": 228,
        "name": "INDONESIA",
        "code": "ID"
      },
      "id": 61097,
      "name": "Sungai Rambai",
      "postcode": "28471",
      "lat": 0.0091548,
      "lng": 101.0146187
    },
    {
      "suburb": {
        "id": 5189,
        "name": "Kampar Kiri Hulu",
        "lat": -0.1835694,
        "lng": 100.9354944
      },
      "city": {
        "id": 340,
        "name": "Kampar",
        "lat": 0.146671,
        "lng": 101.1617356
      },
      "province": {
        "id": 26,
        "name": "Riau",
        "lat": 0.2933469,
        "lng": 101.7068294
      },
      "country": {
        "id": 228,
        "name": "INDONESIA",
        "code": "ID"
      },
      "id": 61098,
      "name": "Sungai Santi",
      "postcode": "28471",
      "lat": -0.2849015,
      "lng": 100.9467939
    },
    {
      "suburb": {
        "id": 5191,
        "name": "Kampar Kiri",
        "lat": -0.0366199,
        "lng": 101.1164452
      },
      "city": {
        "id": 340,
        "name": "Kampar",
        "lat": 0.146671,
        "lng": 101.1617356
      },
      "province": {
        "id": 26,
        "name": "Riau",
        "lat": 0.2933469,
        "lng": 101.7068294
      },
      "country": {
        "id": 228,
        "name": "INDONESIA",
        "code": "ID"
      },
      "id": 61099,
      "name": "Sungai Raja",
      "postcode": "28471",
      "lat": -0.0228899,
      "lng": 101.0315823
    },
    {
      "suburb": {
        "id": 5191,
        "name": "Kampar Kiri",
        "lat": -0.0366199,
        "lng": 101.1164452
      },
      "city": {
        "id": 340,
        "name": "Kampar",
        "lat": 0.146671,
        "lng": 101.1617356
      },
      "province": {
        "id": 26,
        "name": "Riau",
        "lat": 0.2933469,
        "lng": 101.7068294
      },
      "country": {
        "id": 228,
        "name": "INDONESIA",
        "code": "ID"
      },
      "id": 61100,
      "name": "Sungai Paku",
      "postcode": "28471",
      "lat": 0.0572193,
      "lng": 101.192885
    },
    {
      "suburb": {
        "id": 5192,
        "name": "Kampar Kiri Hilir",
        "lat": 0.1098278,
        "lng": 101.47935
      },
      "city": {
        "id": 340,
        "name": "Kampar",
        "lat": 0.146671,
        "lng": 101.1617356
      },
      "province": {
        "id": 26,
        "name": "Riau",
        "lat": 0.2933469,
        "lng": 101.7068294
      },
      "country": {
        "id": 228,
        "name": "INDONESIA",
        "code": "ID"
      },
      "id": 61101,
      "name": "Sungai Petai",
      "postcode": "28471",
      "lat": 0.1970771,
      "lng": 101.3714748
    },
    {
      "suburb": {
        "id": 5191,
        "name": "Kampar Kiri",
        "lat": -0.0366199,
        "lng": 101.1164452
      },
      "city": {
        "id": 340,
        "name": "Kampar",
        "lat": 0.146671,
        "lng": 101.1617356
      },
      "province": {
        "id": 26,
        "name": "Riau",
        "lat": 0.2933469,
        "lng": 101.7068294
      },
      "country": {
        "id": 228,
        "name": "INDONESIA",
        "code": "ID"
      },
      "id": 61102,
      "name": "Sungai Liti",
      "postcode": "28471",
      "lat": -0.137482,
      "lng": 101.1730615
    },
    {
      "suburb": {
        "id": 5192,
        "name": "Kampar Kiri Hilir",
        "lat": 0.1098278,
        "lng": 101.47935
      },
      "city": {
        "id": 340,
        "name": "Kampar",
        "lat": 0.146671,
        "lng": 101.1617356
      },
      "province": {
        "id": 26,
        "name": "Riau",
        "lat": 0.2933469,
        "lng": 101.7068294
      },
      "country": {
        "id": 228,
        "name": "INDONESIA",
        "code": "ID"
      },
      "id": 61103,
      "name": "Sungai Pagar",
      "postcode": "28471",
      "lat": 0.2292339,
      "lng": 101.3998518
    },
    {
      "suburb": {
        "id": 5191,
        "name": "Kampar Kiri",
        "lat": -0.0366199,
        "lng": 101.1164452
      },
      "city": {
        "id": 340,
        "name": "Kampar",
        "lat": 0.146671,
        "lng": 101.1617356
      },
      "province": {
        "id": 26,
        "name": "Riau",
        "lat": 0.2933469,
        "lng": 101.7068294
      },
      "country": {
        "id": 228,
        "name": "INDONESIA",
        "code": "ID"
      },
      "id": 61104,
      "name": "Sungai Geringging",
      "postcode": "28471",
      "lat": 0.0434795,
      "lng": 101.1872207
    },
    {
      "suburb": {
        "id": 5191,
        "name": "Kampar Kiri",
        "lat": -0.0366199,
        "lng": 101.1164452
      },
      "city": {
        "id": 340,
        "name": "Kampar",
        "lat": 0.146671,
        "lng": 101.1617356
      },
      "province": {
        "id": 26,
        "name": "Riau",
        "lat": 0.2933469,
        "lng": 101.7068294
      },
      "country": {
        "id": 228,
        "name": "INDONESIA",
        "code": "ID"
      },
      "id": 61105,
      "name": "Sungai Harapan",
      "postcode": "28471",
      "lat": -0.0641306,
      "lng": 101.0146187
    },
    {
      "suburb": {
        "id": 5193,
        "name": "Gunung Sahilan",
        "lat": 0.0182926,
        "lng": 101.3204164
      },
      "city": {
        "id": 340,
        "name": "Kampar",
        "lat": 0.146671,
        "lng": 101.1617356
      },
      "province": {
        "id": 26,
        "name": "Riau",
        "lat": 0.2933469,
        "lng": 101.7068294
      },
      "country": {
        "id": 228,
        "name": "INDONESIA",
        "code": "ID"
      },
      "id": 61106,
      "name": "Sungai Lipai",
      "postcode": "28471",
      "lat": -0.0228685,
      "lng": 101.3034028
    },
    {
      "suburb": {
        "id": 5193,
        "name": "Gunung Sahilan",
        "lat": 0.0182926,
        "lng": 101.3204164
      },
      "city": {
        "id": 340,
        "name": "Kampar",
        "lat": 0.146671,
        "lng": 101.1617356
      },
      "province": {
        "id": 26,
        "name": "Riau",
        "lat": 0.2933469,
        "lng": 101.7068294
      },
      "country": {
        "id": 228,
        "name": "INDONESIA",
        "code": "ID"
      },
      "id": 61107,
      "name": "Suka Makmur",
      "postcode": "28471",
      "lat": 0.0320198,
      "lng": 101.3034028
    },
    {
      "suburb": {
        "id": 5192,
        "name": "Kampar Kiri Hilir",
        "lat": 0.1098278,
        "lng": 101.47935
      },
      "city": {
        "id": 340,
        "name": "Kampar",
        "lat": 0.146671,
        "lng": 101.1617356
      },
      "province": {
        "id": 26,
        "name": "Riau",
        "lat": 0.2933469,
        "lng": 101.7068294
      },
      "country": {
        "id": 228,
        "name": "INDONESIA",
        "code": "ID"
      },
      "id": 61108,
      "name": "Sungai Bunga/Bungo",
      "postcode": "28471",
      "lat": 0.2475332,
      "lng": 101.5134398
    },
    {
      "suburb": {
        "id": 5193,
        "name": "Gunung Sahilan",
        "lat": 0.0182926,
        "lng": 101.3204164
      },
      "city": {
        "id": 340,
        "name": "Kampar",
        "lat": 0.146671,
        "lng": 101.1617356
      },
      "province": {
        "id": 26,
        "name": "Riau",
        "lat": 0.2933469,
        "lng": 101.7068294
      },
      "country": {
        "id": 228,
        "name": "INDONESIA",
        "code": "ID"
      },
      "id": 61109,
      "name": "Subarak",
      "postcode": "28471",
      "lat": -0.0548958,
      "lng": 101.3658004
    },
    {
      "suburb": {
        "id": 5190,
        "name": "Kampar Kiri Tengah",
        "lat": 0.1649542,
        "lng": 101.3204164
      },
      "city": {
        "id": 340,
        "name": "Kampar",
        "lat": 0.146671,
        "lng": 101.1617356
      },
      "province": {
        "id": 26,
        "name": "Riau",
        "lat": 0.2933469,
        "lng": 101.7068294
      },
      "country": {
        "id": 228,
        "name": "INDONESIA",
        "code": "ID"
      },
      "id": 61110,
      "name": "Simalinyang",
      "postcode": "28471",
      "lat": 0.1741187,
      "lng": 101.3544525
    },
    {
      "suburb": {
        "id": 5189,
        "name": "Kampar Kiri Hulu",
        "lat": -0.1835694,
        "lng": 100.9354944
      },
      "city": {
        "id": 340,
        "name": "Kampar",
        "lat": 0.146671,
        "lng": 101.1617356
      },
      "province": {
        "id": 26,
        "name": "Riau",
        "lat": 0.2933469,
        "lng": 101.7068294
      },
      "country": {
        "id": 228,
        "name": "INDONESIA",
        "code": "ID"
      },
      "id": 61111,
      "name": "Subayang Jaya",
      "postcode": "28471",
      "lat": -0.3170865,
      "lng": 101.0542052
    },
    {
      "suburb": {
        "id": 5193,
        "name": "Gunung Sahilan",
        "lat": 0.0182926,
        "lng": 101.3204164
      },
      "city": {
        "id": 340,
        "name": "Kampar",
        "lat": 0.146671,
        "lng": 101.1617356
      },
      "province": {
        "id": 26,
        "name": "Riau",
        "lat": 0.2933469,
        "lng": 101.7068294
      },
      "country": {
        "id": 228,
        "name": "INDONESIA",
        "code": "ID"
      },
      "id": 61112,
      "name": "Sahilan Darussalam",
      "postcode": "28471",
      "lat": 0.1007395,
      "lng": 101.2637155
    },
    {
      "suburb": {
        "id": 5192,
        "name": "Kampar Kiri Hilir",
        "lat": 0.1098278,
        "lng": 101.47935
      },
      "city": {
        "id": 340,
        "name": "Kampar",
        "lat": 0.146671,
        "lng": 101.1617356
      },
      "province": {
        "id": 26,
        "name": "Riau",
        "lat": 0.2933469,
        "lng": 101.7068294
      },
      "country": {
        "id": 228,
        "name": "INDONESIA",
        "code": "ID"
      },
      "id": 61113,
      "name": "Rantau Kasih",
      "postcode": "28471",
      "lat": 0.0548782,
      "lng": 101.4566299
    },
    {
      "suburb": {
        "id": 5190,
        "name": "Kampar Kiri Tengah",
        "lat": 0.1649542,
        "lng": 101.3204164
      },
      "city": {
        "id": 340,
        "name": "Kampar",
        "lat": 0.146671,
        "lng": 101.1617356
      },
      "province": {
        "id": 26,
        "name": "Riau",
        "lat": 0.2933469,
        "lng": 101.7068294
      },
      "country": {
        "id": 228,
        "name": "INDONESIA",
        "code": "ID"
      },
      "id": 61114,
      "name": "Penghidupan",
      "postcode": "28471",
      "lat": 0.0640554,
      "lng": 101.3544525
    },
    {
      "suburb": {
        "id": 5189,
        "name": "Kampar Kiri Hulu",
        "lat": -0.1835694,
        "lng": 100.9354944
      },
      "city": {
        "id": 340,
        "name": "Kampar",
        "lat": 0.146671,
        "lng": 101.1617356
      },
      "province": {
        "id": 26,
        "name": "Riau",
        "lat": 0.2933469,
        "lng": 101.7068294
      },
      "country": {
        "id": 228,
        "name": "INDONESIA",
        "code": "ID"
      },
      "id": 61115,
      "name": "Pangkalan Serai",
      "postcode": "28471",
      "lat": -0.3586337,
      "lng": 101.0598617
    },
    {
      "suburb": {
        "id": 5189,
        "name": "Kampar Kiri Hulu",
        "lat": -0.1835694,
        "lng": 100.9354944
      },
      "city": {
        "id": 340,
        "name": "Kampar",
        "lat": 0.146671,
        "lng": 101.1617356
      },
      "province": {
        "id": 26,
        "name": "Riau",
        "lat": 0.2933469,
        "lng": 101.7068294
      },
      "country": {
        "id": 228,
        "name": "INDONESIA",
        "code": "ID"
      },
      "id": 61116,
      "name": "Pangkalan Kapas",
      "postcode": "28471",
      "lat": -0.1836251,
      "lng": 100.8451467
    },
    {
      "suburb": {
        "id": 5191,
        "name": "Kampar Kiri",
        "lat": -0.0366199,
        "lng": 101.1164452
      },
      "city": {
        "id": 340,
        "name": "Kampar",
        "lat": 0.146671,
        "lng": 101.1617356
      },
      "province": {
        "id": 26,
        "name": "Riau",
        "lat": 0.2933469,
        "lng": 101.7068294
      },
      "country": {
        "id": 228,
        "name": "INDONESIA",
        "code": "ID"
      },
      "id": 61117,
      "name": "Padang Sawah",
      "postcode": "28471",
      "lat": -0.0824546,
      "lng": 101.0824912
    },
    {
      "suburb": {
        "id": 5189,
        "name": "Kampar Kiri Hulu",
        "lat": -0.1835694,
        "lng": 100.9354944
      },
      "city": {
        "id": 340,
        "name": "Kampar",
        "lat": 0.146671,
        "lng": 101.1617356
      },
      "province": {
        "id": 26,
        "name": "Riau",
        "lat": 0.2933469,
        "lng": 101.7068294
      },
      "country": {
        "id": 228,
        "name": "INDONESIA",
        "code": "ID"
      },
      "id": 61118,
      "name": "Muarobio",
      "postcode": "28471",
      "lat": -0.1835694,
      "lng": 100.9354944
    },
    {
      "suburb": {
        "id": 5191,
        "name": "Kampar Kiri",
        "lat": -0.0366199,
        "lng": 101.1164452
      },
      "city": {
        "id": 340,
        "name": "Kampar",
        "lat": 0.146671,
        "lng": 101.1617356
      },
      "province": {
        "id": 26,
        "name": "Riau",
        "lat": 0.2933469,
        "lng": 101.7068294
      },
      "country": {
        "id": 228,
        "name": "INDONESIA",
        "code": "ID"
      },
      "id": 61119,
      "name": "Muara Selaya",
      "postcode": "28471",
      "lat": -0.0320559,
      "lng": 100.9750484
    },
    {
      "suburb": {
        "id": 5192,
        "name": "Kampar Kiri Hilir",
        "lat": 0.1098278,
        "lng": 101.47935
      },
      "city": {
        "id": 340,
        "name": "Kampar",
        "lat": 0.146671,
        "lng": 101.1617356
      },
      "province": {
        "id": 26,
        "name": "Riau",
        "lat": 0.2933469,
        "lng": 101.7068294
      },
      "country": {
        "id": 228,
        "name": "INDONESIA",
        "code": "ID"
      },
      "id": 61120,
      "name": "Mentulik",
      "postcode": "28471",
      "lat": 0.1281533,
      "lng": 101.5020752
    },
    {
      "suburb": {
        "id": 5193,
        "name": "Gunung Sahilan",
        "lat": 0.0182926,
        "lng": 101.3204164
      },
      "city": {
        "id": 340,
        "name": "Kampar",
        "lat": 0.146671,
        "lng": 101.1617356
      },
      "province": {
        "id": 26,
        "name": "Riau",
        "lat": 0.2933469,
        "lng": 101.7068294
      },
      "country": {
        "id": 228,
        "name": "INDONESIA",
        "code": "ID"
      },
      "id": 61121,
      "name": "Makmur Sejahtera",
      "postcode": "28471",
      "lat": 0.0594941,
      "lng": 101.2693842
    },
    {
      "suburb": {
        "id": 5190,
        "name": "Kampar Kiri Tengah",
        "lat": 0.1649542,
        "lng": 101.3204164
      },
      "city": {
        "id": 340,
        "name": "Kampar",
        "lat": 0.146671,
        "lng": 101.1617356
      },
      "province": {
        "id": 26,
        "name": "Riau",
        "lat": 0.2933469,
        "lng": 101.7068294
      },
      "country": {
        "id": 228,
        "name": "INDONESIA",
        "code": "ID"
      },
      "id": 61122,
      "name": "Mayang Pongkai",
      "postcode": "28471",
      "lat": 0.1994164,
      "lng": 101.3119092
    },
    {
      "suburb": {
        "id": 5190,
        "name": "Kampar Kiri Tengah",
        "lat": 0.1649542,
        "lng": 101.3204164
      },
      "city": {
        "id": 340,
        "name": "Kampar",
        "lat": 0.146671,
        "lng": 101.1617356
      },
      "province": {
        "id": 26,
        "name": "Riau",
        "lat": 0.2933469,
        "lng": 101.7068294
      },
      "country": {
        "id": 228,
        "name": "INDONESIA",
        "code": "ID"
      },
      "id": 61123,
      "name": "Mekar Jaya",
      "postcode": "28471",
      "lat": 0.2615052,
      "lng": 101.3260883
    },
    {
      "suburb": {
        "id": 5190,
        "name": "Kampar Kiri Tengah",
        "lat": 0.1649542,
        "lng": 101.3204164
      },
      "city": {
        "id": 340,
        "name": "Kampar",
        "lat": 0.146671,
        "lng": 101.1617356
      },
      "province": {
        "id": 26,
        "name": "Riau",
        "lat": 0.2933469,
        "lng": 101.7068294
      },
      "country": {
        "id": 228,
        "name": "INDONESIA",
        "code": "ID"
      },
      "id": 61124,
      "name": "Lubuk Sakai",
      "postcode": "28471",
      "lat": 0.2155135,
      "lng": 101.3034028
    },
    {
      "suburb": {
        "id": 5189,
        "name": "Kampar Kiri Hulu",
        "lat": -0.1835694,
        "lng": 100.9354944
      },
      "city": {
        "id": 340,
        "name": "Kampar",
        "lat": 0.146671,
        "lng": 101.1617356
      },
      "province": {
        "id": 26,
        "name": "Riau",
        "lat": 0.2933469,
        "lng": 101.7068294
      },
      "country": {
        "id": 228,
        "name": "INDONESIA",
        "code": "ID"
      },
      "id": 61125,
      "name": "Ludai",
      "postcode": "28471",
      "lat": -0.1146241,
      "lng": 100.941144
    },
    {
      "suburb": {
        "id": 5189,
        "name": "Kampar Kiri Hulu",
        "lat": -0.1835694,
        "lng": 100.9354944
      },
      "city": {
        "id": 340,
        "name": "Kampar",
        "lat": 0.146671,
        "lng": 101.1617356
      },
      "province": {
        "id": 26,
        "name": "Riau",
        "lat": 0.2933469,
        "lng": 101.7068294
      },
      "country": {
        "id": 228,
        "name": "INDONESIA",
        "code": "ID"
      },
      "id": 61126,
      "name": "Lubuk Bingau",
      "postcode": "28471",
      "lat": -0.0458312,
      "lng": 100.7887231
    },
    {
      "suburb": {
        "id": 5191,
        "name": "Kampar Kiri",
        "lat": -0.0366199,
        "lng": 101.1164452
      },
      "city": {
        "id": 340,
        "name": "Kampar",
        "lat": 0.146671,
        "lng": 101.1617356
      },
      "province": {
        "id": 26,
        "name": "Riau",
        "lat": 0.2933469,
        "lng": 101.7068294
      },
      "country": {
        "id": 228,
        "name": "INDONESIA",
        "code": "ID"
      },
      "id": 61127,
      "name": "Lipat Kain Utara",
      "postcode": "28471",
      "lat": 0.1007711,
      "lng": 101.1730615
    },
    {
      "suburb": {
        "id": 5191,
        "name": "Kampar Kiri",
        "lat": -0.0366199,
        "lng": 101.1164452
      },
      "city": {
        "id": 340,
        "name": "Kampar",
        "lat": 0.146671,
        "lng": 101.1617356
      },
      "province": {
        "id": 26,
        "name": "Riau",
        "lat": 0.2933469,
        "lng": 101.7068294
      },
      "country": {
        "id": 228,
        "name": "INDONESIA",
        "code": "ID"
      },
      "id": 61128,
      "name": "Lipat Kain",
      "postcode": "28471",
      "lat": 0.0320336,
      "lng": 101.178725
    },
    {
      "suburb": {
        "id": 5191,
        "name": "Kampar Kiri",
        "lat": -0.0366199,
        "lng": 101.1164452
      },
      "city": {
        "id": 340,
        "name": "Kampar",
        "lat": 0.146671,
        "lng": 101.1617356
      },
      "province": {
        "id": 26,
        "name": "Riau",
        "lat": 0.2933469,
        "lng": 101.7068294
      },
      "country": {
        "id": 228,
        "name": "INDONESIA",
        "code": "ID"
      },
      "id": 61129,
      "name": "Lipat Kain Selatan",
      "postcode": "28471",
      "lat": -0.0091477,
      "lng": 101.2410442
    },
    {
      "suburb": {
        "id": 5191,
        "name": "Kampar Kiri",
        "lat": -0.0366199,
        "lng": 101.1164452
      },
      "city": {
        "id": 340,
        "name": "Kampar",
        "lat": 0.146671,
        "lng": 101.1617356
      },
      "province": {
        "id": 26,
        "name": "Riau",
        "lat": 0.2933469,
        "lng": 101.7068294
      },
      "country": {
        "id": 228,
        "name": "INDONESIA",
        "code": "ID"
      },
      "id": 61130,
      "name": "Kuntu",
      "postcode": "28471",
      "lat": -0.0641008,
      "lng": 101.1504111
    },
    {
      "suburb": {
        "id": 5191,
        "name": "Kampar Kiri",
        "lat": -0.0366199,
        "lng": 101.1164452
      },
      "city": {
        "id": 340,
        "name": "Kampar",
        "lat": 0.146671,
        "lng": 101.1617356
      },
      "province": {
        "id": 26,
        "name": "Riau",
        "lat": 0.2933469,
        "lng": 101.7068294
      },
      "country": {
        "id": 228,
        "name": "INDONESIA",
        "code": "ID"
      },
      "id": 61131,
      "name": "Kuntu Darussalam",
      "postcode": "28471",
      "lat": -0.0961829,
      "lng": 101.178725
    },
    {
      "suburb": {
        "id": 5190,
        "name": "Kampar Kiri Tengah",
        "lat": 0.1649542,
        "lng": 101.3204164
      },
      "city": {
        "id": 340,
        "name": "Kampar",
        "lat": 0.146671,
        "lng": 101.1617356
      },
      "province": {
        "id": 26,
        "name": "Riau",
        "lat": 0.2933469,
        "lng": 101.7068294
      },
      "country": {
        "id": 228,
        "name": "INDONESIA",
        "code": "ID"
      },
      "id": 61132,
      "name": "Koto Damai",
      "postcode": "28471",
      "lat": 0.215573,
      "lng": 101.2240441
    },
    {
      "suburb": {
        "id": 5189,
        "name": "Kampar Kiri Hulu",
        "lat": -0.1835694,
        "lng": 100.9354944
      },
      "city": {
        "id": 340,
        "name": "Kampar",
        "lat": 0.146671,
        "lng": 101.1617356
      },
      "province": {
        "id": 26,
        "name": "Riau",
        "lat": 0.2933469,
        "lng": 101.7068294
      },
      "country": {
        "id": 228,
        "name": "INDONESIA",
        "code": "ID"
      },
      "id": 61133,
      "name": "Kebun Tinggi",
      "postcode": "28471",
      "lat": -0.077936,
      "lng": 100.8282161
    },
    {
      "suburb": {
        "id": 5189,
        "name": "Kampar Kiri Hulu",
        "lat": -0.1835694,
        "lng": 100.9354944
      },
      "city": {
        "id": 340,
        "name": "Kampar",
        "lat": 0.146671,
        "lng": 101.1617356
      },
      "province": {
        "id": 26,
        "name": "Riau",
        "lat": 0.2933469,
        "lng": 101.7068294
      },
      "country": {
        "id": 228,
        "name": "INDONESIA",
        "code": "ID"
      },
      "id": 61134,
      "name": "Kota Lama",
      "postcode": "28471",
      "lat": -0.1651597,
      "lng": 100.9580947
    },
    {
      "suburb": {
        "id": 5190,
        "name": "Kampar Kiri Tengah",
        "lat": 0.1649542,
        "lng": 101.3204164
      },
      "city": {
        "id": 340,
        "name": "Kampar",
        "lat": 0.146671,
        "lng": 101.1617356
      },
      "province": {
        "id": 26,
        "name": "Riau",
        "lat": 0.2933469,
        "lng": 101.7068294
      },
      "country": {
        "id": 228,
        "name": "INDONESIA",
        "code": "ID"
      },
      "id": 61135,
      "name": "Karya Bakti/Bhakti",
      "postcode": "28471",
      "lat": 0.2615466,
      "lng": 101.2807224
    },
    {
      "suburb": {
        "id": 5193,
        "name": "Gunung Sahilan",
        "lat": 0.0182926,
        "lng": 101.3204164
      },
      "city": {
        "id": 340,
        "name": "Kampar",
        "lat": 0.146671,
        "lng": 101.1617356
      },
      "province": {
        "id": 26,
        "name": "Riau",
        "lat": 0.2933469,
        "lng": 101.7068294
      },
      "country": {
        "id": 228,
        "name": "INDONESIA",
        "code": "ID"
      },
      "id": 61136,
      "name": "Kebun Durian",
      "postcode": "28471",
      "lat": -0.0137167,
      "lng": 101.3601263
    },
    {
      "suburb": {
        "id": 5191,
        "name": "Kampar Kiri",
        "lat": -0.0366199,
        "lng": 101.1164452
      },
      "city": {
        "id": 340,
        "name": "Kampar",
        "lat": 0.146671,
        "lng": 101.1617356
      },
      "province": {
        "id": 26,
        "name": "Riau",
        "lat": 0.2933469,
        "lng": 101.7068294
      },
      "country": {
        "id": 228,
        "name": "INDONESIA",
        "code": "ID"
      },
      "id": 61137,
      "name": "IV Koto Setingkai",
      "postcode": "28471",
      "lat": 0.0137359,
      "lng": 100.9524441
    },
    {
      "suburb": {
        "id": 5190,
        "name": "Kampar Kiri Tengah",
        "lat": 0.1649542,
        "lng": 101.3204164
      },
      "city": {
        "id": 340,
        "name": "Kampar",
        "lat": 0.146671,
        "lng": 101.1617356
      },
      "province": {
        "id": 26,
        "name": "Riau",
        "lat": 0.2933469,
        "lng": 101.7068294
      },
      "country": {
        "id": 228,
        "name": "INDONESIA",
        "code": "ID"
      },
      "id": 61138,
      "name": "Hidup Baru",
      "postcode": "28471",
      "lat": 0.2615878,
      "lng": 101.2353772
    },
    {
      "suburb": {
        "id": 5193,
        "name": "Gunung Sahilan",
        "lat": 0.0182926,
        "lng": 101.3204164
      },
      "city": {
        "id": 340,
        "name": "Kampar",
        "lat": 0.146671,
        "lng": 101.1617356
      },
      "province": {
        "id": 26,
        "name": "Riau",
        "lat": 0.2933469,
        "lng": 101.7068294
      },
      "country": {
        "id": 228,
        "name": "INDONESIA",
        "code": "ID"
      },
      "id": 61139,
      "name": "Gunung Sahilan",
      "postcode": "28471",
      "lat": 0.0045722,
      "lng": 101.3260883
    },
    {
      "suburb": {
        "id": 5193,
        "name": "Gunung Sahilan",
        "lat": 0.0182926,
        "lng": 101.3204164
      },
      "city": {
        "id": 340,
        "name": "Kampar",
        "lat": 0.146671,
        "lng": 101.1617356
      },
      "province": {
        "id": 26,
        "name": "Riau",
        "lat": 0.2933469,
        "lng": 101.7068294
      },
      "country": {
        "id": 228,
        "name": "INDONESIA",
        "code": "ID"
      },
      "id": 61140,
      "name": "Gunung Sari",
      "postcode": "28471",
      "lat": 0.0778097,
      "lng": 101.3034028
    },
    {
      "suburb": {
        "id": 5189,
        "name": "Kampar Kiri Hulu",
        "lat": -0.1835694,
        "lng": 100.9354944
      },
      "city": {
        "id": 340,
        "name": "Kampar",
        "lat": 0.146671,
        "lng": 101.1617356
      },
      "province": {
        "id": 26,
        "name": "Riau",
        "lat": 0.2933469,
        "lng": 101.7068294
      },
      "country": {
        "id": 228,
        "name": "INDONESIA",
        "code": "ID"
      },
      "id": 61141,
      "name": "Gema",
      "postcode": "28471",
      "lat": -0.1605036,
      "lng": 101.0655186
    },
    {
      "suburb": {
        "id": 5193,
        "name": "Gunung Sahilan",
        "lat": 0.0182926,
        "lng": 101.3204164
      },
      "city": {
        "id": 340,
        "name": "Kampar",
        "lat": 0.146671,
        "lng": 101.1617356
      },
      "province": {
        "id": 26,
        "name": "Riau",
        "lat": 0.2933469,
        "lng": 101.7068294
      },
      "country": {
        "id": 228,
        "name": "INDONESIA",
        "code": "ID"
      },
      "id": 61142,
      "name": "Gunung Mulya",
      "postcode": "28471",
      "lat": 0.1558264,
      "lng": 101.2183781
    },
    {
      "suburb": {
        "id": 5189,
        "name": "Kampar Kiri Hulu",
        "lat": -0.1835694,
        "lng": 100.9354944
      },
      "city": {
        "id": 340,
        "name": "Kampar",
        "lat": 0.146671,
        "lng": 101.1617356
      },
      "province": {
        "id": 26,
        "name": "Riau",
        "lat": 0.2933469,
        "lng": 101.7068294
      },
      "country": {
        "id": 228,
        "name": "INDONESIA",
        "code": "ID"
      },
      "id": 61143,
      "name": "Gajah Bertalut",
      "postcode": "28471",
      "lat": -0.264037,
      "lng": 101.0740045
    },
    {
      "suburb": {
        "id": 5189,
        "name": "Kampar Kiri Hulu",
        "lat": -0.1835694,
        "lng": 100.9354944
      },
      "city": {
        "id": 340,
        "name": "Kampar",
        "lat": 0.146671,
        "lng": 101.1617356
      },
      "province": {
        "id": 26,
        "name": "Riau",
        "lat": 0.2933469,
        "lng": 101.7068294
      },
      "country": {
        "id": 228,
        "name": "INDONESIA",
        "code": "ID"
      },
      "id": 61144,
      "name": "Dua Sepakat",
      "postcode": "28471",
      "lat": -0.1330014,
      "lng": 100.9298452
    },
    {
      "suburb": {
        "id": 5192,
        "name": "Kampar Kiri Hilir",
        "lat": 0.1098278,
        "lng": 101.47935
      },
      "city": {
        "id": 340,
        "name": "Kampar",
        "lat": 0.146671,
        "lng": 101.1617356
      },
      "province": {
        "id": 26,
        "name": "Riau",
        "lat": 0.2933469,
        "lng": 101.7068294
      },
      "country": {
        "id": 228,
        "name": "INDONESIA",
        "code": "ID"
      },
      "id": 61145,
      "name": "Gading Permai",
      "postcode": "28471",
      "lat": 0.2107423,
      "lng": 101.5361726
    },
    {
      "suburb": {
        "id": 5191,
        "name": "Kampar Kiri",
        "lat": -0.0366199,
        "lng": 101.1164452
      },
      "city": {
        "id": 340,
        "name": "Kampar",
        "lat": 0.146671,
        "lng": 101.1617356
      },
      "province": {
        "id": 26,
        "name": "Riau",
        "lat": 0.2933469,
        "lng": 101.7068294
      },
      "country": {
        "id": 228,
        "name": "INDONESIA",
        "code": "ID"
      },
      "id": 61146,
      "name": "Domo",
      "postcode": "28471",
      "lat": -0.1558751,
      "lng": 101.1277659
    },
    {
      "suburb": {
        "id": 5189,
        "name": "Kampar Kiri Hulu",
        "lat": -0.1835694,
        "lng": 100.9354944
      },
      "city": {
        "id": 340,
        "name": "Kampar",
        "lat": 0.146671,
        "lng": 101.1617356
      },
      "province": {
        "id": 26,
        "name": "Riau",
        "lat": 0.2933469,
        "lng": 101.7068294
      },
      "country": {
        "id": 228,
        "name": "INDONESIA",
        "code": "ID"
      },
      "id": 61147,
      "name": "Danau Sontul",
      "postcode": "28471",
      "lat": -0.0824864,
      "lng": 100.9693968
    },
    {
      "suburb": {
        "id": 5189,
        "name": "Kampar Kiri Hulu",
        "lat": -0.1835694,
        "lng": 100.9354944
      },
      "city": {
        "id": 340,
        "name": "Kampar",
        "lat": 0.146671,
        "lng": 101.1617356
      },
      "province": {
        "id": 26,
        "name": "Riau",
        "lat": 0.2933469,
        "lng": 101.7068294
      },
      "country": {
        "id": 228,
        "name": "INDONESIA",
        "code": "ID"
      },
      "id": 61148,
      "name": "Deras Tajak",
      "postcode": "28471",
      "lat": -0.0824989,
      "lng": 100.9241963
    },
    {
      "suburb": {
        "id": 5189,
        "name": "Kampar Kiri Hulu",
        "lat": -0.1835694,
        "lng": 100.9354944
      },
      "city": {
        "id": 340,
        "name": "Kampar",
        "lat": 0.146671,
        "lng": 101.1617356
      },
      "province": {
        "id": 26,
        "name": "Riau",
        "lat": 0.2933469,
        "lng": 101.7068294
      },
      "country": {
        "id": 228,
        "name": "INDONESIA",
        "code": "ID"
      },
      "id": 61149,
      "name": "Bukit Betung",
      "postcode": "28471",
      "lat": -0.1329454,
      "lng": 101.0542052
    },
    {
      "suburb": {
        "id": 5190,
        "name": "Kampar Kiri Tengah",
        "lat": 0.1649542,
        "lng": 101.3204164
      },
      "city": {
        "id": 340,
        "name": "Kampar",
        "lat": 0.146671,
        "lng": 101.1617356
      },
      "province": {
        "id": 26,
        "name": "Riau",
        "lat": 0.2933469,
        "lng": 101.7068294
      },
      "country": {
        "id": 228,
        "name": "INDONESIA",
        "code": "ID"
      },
      "id": 61150,
      "name": "Bukit Sakai",
      "postcode": "28471",
      "lat": 0.197163,
      "lng": 101.2467116
    },
    {
      "suburb": {
        "id": 5190,
        "name": "Kampar Kiri Tengah",
        "lat": 0.1649542,
        "lng": 101.3204164
      },
      "city": {
        "id": 340,
        "name": "Kampar",
        "lat": 0.146671,
        "lng": 101.1617356
      },
      "province": {
        "id": 26,
        "name": "Riau",
        "lat": 0.2933469,
        "lng": 101.7068294
      },
      "country": {
        "id": 228,
        "name": "INDONESIA",
        "code": "ID"
      },
      "id": 61151,
      "name": "Bina Baru",
      "postcode": "28471",
      "lat": 0.2247471,
      "lng": 101.2580472
    },
    {
      "suburb": {
        "id": 5189,
        "name": "Kampar Kiri Hulu",
        "lat": -0.1835694,
        "lng": 100.9354944
      },
      "city": {
        "id": 340,
        "name": "Kampar",
        "lat": 0.146671,
        "lng": 101.1617356
      },
      "province": {
        "id": 26,
        "name": "Riau",
        "lat": 0.2933469,
        "lng": 101.7068294
      },
      "country": {
        "id": 228,
        "name": "INDONESIA",
        "code": "ID"
      },
      "id": 61152,
      "name": "Batu Sasak",
      "postcode": "28471",
      "lat": -0.009159,
      "lng": 100.8790171
    },
    {
      "suburb": {
        "id": 5192,
        "name": "Kampar Kiri Hilir",
        "lat": 0.1098278,
        "lng": 101.47935
      },
      "city": {
        "id": 340,
        "name": "Kampar",
        "lat": 0.146671,
        "lng": 101.1617356
      },
      "province": {
        "id": 26,
        "name": "Riau",
        "lat": 0.2933469,
        "lng": 101.7068294
      },
      "country": {
        "id": 228,
        "name": "INDONESIA",
        "code": "ID"
      },
      "id": 61153,
      "name": "Bangun Sari",
      "postcode": "28471",
      "lat": 0.2406815,
      "lng": 101.4594696
    },
    {
      "suburb": {
        "id": 5189,
        "name": "Kampar Kiri Hulu",
        "lat": -0.1835694,
        "lng": 100.9354944
      },
      "city": {
        "id": 340,
        "name": "Kampar",
        "lat": 0.146671,
        "lng": 101.1617356
      },
      "province": {
        "id": 26,
        "name": "Riau",
        "lat": 0.2933469,
        "lng": 101.7068294
      },
      "country": {
        "id": 228,
        "name": "INDONESIA",
        "code": "ID"
      },
      "id": 61154,
      "name": "Batu Sanggan",
      "postcode": "28471",
      "lat": -0.2156822,
      "lng": 101.0768333
    },
    {
      "suburb": {
        "id": 5189,
        "name": "Kampar Kiri Hulu",
        "lat": -0.1835694,
        "lng": 100.9354944
      },
      "city": {
        "id": 340,
        "name": "Kampar",
        "lat": 0.146671,
        "lng": 101.1617356
      },
      "province": {
        "id": 26,
        "name": "Riau",
        "lat": 0.2933469,
        "lng": 101.7068294
      },
      "country": {
        "id": 228,
        "name": "INDONESIA",
        "code": "ID"
      },
      "id": 61155,
      "name": "Aur Kuning",
      "postcode": "28471",
      "lat": -0.2801764,
      "lng": 101.0655186
    },
    {
      "suburb": {
        "id": 5194,
        "name": "Tapung",
        "lat": 0.5530349,
        "lng": 101.1164452
      },
      "city": {
        "id": 340,
        "name": "Kampar",
        "lat": 0.146671,
        "lng": 101.1617356
      },
      "province": {
        "id": 26,
        "name": "Riau",
        "lat": 0.2933469,
        "lng": 101.7068294
      },
      "country": {
        "id": 228,
        "name": "INDONESIA",
        "code": "ID"
      },
      "id": 61156,
      "name": "Tri Manunggal",
      "postcode": "28464",
      "lat": 0.6970745,
      "lng": 101.1673984
    },
    {
      "suburb": {
        "id": 5195,
        "name": "Tapung Hilir",
        "lat": 0.851239,
        "lng": 101.1164452
      },
      "city": {
        "id": 340,
        "name": "Kampar",
        "lat": 0.146671,
        "lng": 101.1617356
      },
      "province": {
        "id": 26,
        "name": "Riau",
        "lat": 0.2933469,
        "lng": 101.7068294
      },
      "country": {
        "id": 228,
        "name": "INDONESIA",
        "code": "ID"
      },
      "id": 61157,
      "name": "Tebing Lestari",
      "postcode": "28464",
      "lat": 0.8094961,
      "lng": 100.997658
    },
    {
      "suburb": {
        "id": 5195,
        "name": "Tapung Hilir",
        "lat": 0.851239,
        "lng": 101.1164452
      },
      "city": {
        "id": 340,
        "name": "Kampar",
        "lat": 0.146671,
        "lng": 101.1617356
      },
      "province": {
        "id": 26,
        "name": "Riau",
        "lat": 0.2933469,
        "lng": 101.7068294
      },
      "country": {
        "id": 228,
        "name": "INDONESIA",
        "code": "ID"
      },
      "id": 61158,
      "name": "Tapung Lestari",
      "postcode": "28464",
      "lat": 0.8044026,
      "lng": 101.1504111
    },
    {
      "suburb": {
        "id": 5194,
        "name": "Tapung",
        "lat": 0.5530349,
        "lng": 101.1164452
      },
      "city": {
        "id": 340,
        "name": "Kampar",
        "lat": 0.146671,
        "lng": 101.1617356
      },
      "province": {
        "id": 26,
        "name": "Riau",
        "lat": 0.2933469,
        "lng": 101.7068294
      },
      "country": {
        "id": 228,
        "name": "INDONESIA",
        "code": "ID"
      },
      "id": 61159,
      "name": "Tanjung Sawit",
      "postcode": "28464",
      "lat": 0.5995969,
      "lng": 101.0598617
    },
    {
      "suburb": {
        "id": 5195,
        "name": "Tapung Hilir",
        "lat": 0.851239,
        "lng": 101.1164452
      },
      "city": {
        "id": 340,
        "name": "Kampar",
        "lat": 0.146671,
        "lng": 101.1617356
      },
      "province": {
        "id": 26,
        "name": "Riau",
        "lat": 0.2933469,
        "lng": 101.7068294
      },
      "country": {
        "id": 228,
        "name": "INDONESIA",
        "code": "ID"
      },
      "id": 61160,
      "name": "Tapung Makmur",
      "postcode": "28464",
      "lat": 0.8371292,
      "lng": 101.1447493
    },
    {
      "suburb": {
        "id": 5195,
        "name": "Tapung Hilir",
        "lat": 0.851239,
        "lng": 101.1164452
      },
      "city": {
        "id": 340,
        "name": "Kampar",
        "lat": 0.146671,
        "lng": 101.1617356
      },
      "province": {
        "id": 26,
        "name": "Riau",
        "lat": 0.2933469,
        "lng": 101.7068294
      },
      "country": {
        "id": 228,
        "name": "INDONESIA",
        "code": "ID"
      },
      "id": 61161,
      "name": "Tandan Sari",
      "postcode": "28464",
      "lat": 0.8745117,
      "lng": 101.1560732
    },
    {
      "suburb": {
        "id": 5195,
        "name": "Tapung Hilir",
        "lat": 0.851239,
        "lng": 101.1164452
      },
      "city": {
        "id": 340,
        "name": "Kampar",
        "lat": 0.146671,
        "lng": 101.1617356
      },
      "province": {
        "id": 26,
        "name": "Riau",
        "lat": 0.2933469,
        "lng": 101.7068294
      },
      "country": {
        "id": 228,
        "name": "INDONESIA",
        "code": "ID"
      },
      "id": 61162,
      "name": "Tanah Tinggi",
      "postcode": "28464",
      "lat": 0.8372268,
      "lng": 101.1107854
    },
    {
      "suburb": {
        "id": 5194,
        "name": "Tapung",
        "lat": 0.5530349,
        "lng": 101.1164452
      },
      "city": {
        "id": 340,
        "name": "Kampar",
        "lat": 0.146671,
        "lng": 101.1617356
      },
      "province": {
        "id": 26,
        "name": "Riau",
        "lat": 0.2933469,
        "lng": 101.7068294
      },
      "country": {
        "id": 228,
        "name": "INDONESIA",
        "code": "ID"
      },
      "id": 61163,
      "name": "Sumber Makmur",
      "postcode": "28464",
      "lat": 0.6739873,
      "lng": 101.0824912
    },
    {
      "suburb": {
        "id": 5196,
        "name": "Tapung Hulu",
        "lat": 0.7771909,
        "lng": 100.8451467
      },
      "city": {
        "id": 340,
        "name": "Kampar",
        "lat": 0.146671,
        "lng": 101.1617356
      },
      "province": {
        "id": 26,
        "name": "Riau",
        "lat": 0.2933469,
        "lng": 101.7068294
      },
      "country": {
        "id": 228,
        "name": "INDONESIA",
        "code": "ID"
      },
      "id": 61164,
      "name": "Sumber Sari",
      "postcode": "28464",
      "lat": 0.6570029,
      "lng": 100.869137
    },
    {
      "suburb": {
        "id": 5196,
        "name": "Tapung Hulu",
        "lat": 0.7771909,
        "lng": 100.8451467
      },
      "city": {
        "id": 340,
        "name": "Kampar",
        "lat": 0.146671,
        "lng": 101.1617356
      },
      "province": {
        "id": 26,
        "name": "Riau",
        "lat": 0.2933469,
        "lng": 101.7068294
      },
      "country": {
        "id": 228,
        "name": "INDONESIA",
        "code": "ID"
      },
      "id": 61165,
      "name": "Talang Danto",
      "postcode": "28464",
      "lat": 0.6003241,
      "lng": 100.6985155
    },
    {
      "suburb": {
        "id": 5196,
        "name": "Tapung Hulu",
        "lat": 0.7771909,
        "lng": 100.8451467
      },
      "city": {
        "id": 340,
        "name": "Kampar",
        "lat": 0.146671,
        "lng": 101.1617356
      },
      "province": {
        "id": 26,
        "name": "Riau",
        "lat": 0.2933469,
        "lng": 101.7068294
      },
      "country": {
        "id": 228,
        "name": "INDONESIA",
        "code": "ID"
      },
      "id": 61166,
      "name": "Sinama Nenek",
      "postcode": "28464",
      "lat": 0.7586764,
      "lng": 100.7774424
    },
    {
      "suburb": {
        "id": 5196,
        "name": "Tapung Hulu",
        "lat": 0.7771909,
        "lng": 100.8451467
      },
      "city": {
        "id": 340,
        "name": "Kampar",
        "lat": 0.146671,
        "lng": 101.1617356
      },
      "province": {
        "id": 26,
        "name": "Riau",
        "lat": 0.2933469,
        "lng": 101.7068294
      },
      "country": {
        "id": 228,
        "name": "INDONESIA",
        "code": "ID"
      },
      "id": 61167,
      "name": "Sukaramai",
      "postcode": "28464",
      "lat": 0.6511222,
      "lng": 100.8959568
    },
    {
      "suburb": {
        "id": 5195,
        "name": "Tapung Hilir",
        "lat": 0.851239,
        "lng": 101.1164452
      },
      "city": {
        "id": 340,
        "name": "Kampar",
        "lat": 0.146671,
        "lng": 101.1617356
      },
      "province": {
        "id": 26,
        "name": "Riau",
        "lat": 0.2933469,
        "lng": 101.7068294
      },
      "country": {
        "id": 228,
        "name": "INDONESIA",
        "code": "ID"
      },
      "id": 61168,
      "name": "Suka Maju",
      "postcode": "28464",
      "lat": 0.7480383,
      "lng": 101.286392
    },
    {
      "suburb": {
        "id": 5194,
        "name": "Tapung",
        "lat": 0.5530349,
        "lng": 101.1164452
      },
      "city": {
        "id": 340,
        "name": "Kampar",
        "lat": 0.146671,
        "lng": 101.1617356
      },
      "province": {
        "id": 26,
        "name": "Riau",
        "lat": 0.2933469,
        "lng": 101.7068294
      },
      "country": {
        "id": 228,
        "name": "INDONESIA",
        "code": "ID"
      },
      "id": 61169,
      "name": "Sibuak",
      "postcode": "28464",
      "lat": 0.492728,
      "lng": 101.1221054
    },
    {
      "suburb": {
        "id": 5195,
        "name": "Tapung Hilir",
        "lat": 0.851239,
        "lng": 101.1164452
      },
      "city": {
        "id": 340,
        "name": "Kampar",
        "lat": 0.146671,
        "lng": 101.1617356
      },
      "province": {
        "id": 26,
        "name": "Riau",
        "lat": 0.2933469,
        "lng": 101.7068294
      },
      "country": {
        "id": 228,
        "name": "INDONESIA",
        "code": "ID"
      },
      "id": 61170,
      "name": "Sikijang/Sekijang",
      "postcode": "28464",
      "lat": 0.8702871,
      "lng": 101.0033112
    },
    {
      "suburb": {
        "id": 5194,
        "name": "Tapung",
        "lat": 0.5530349,
        "lng": 101.1164452
      },
      "city": {
        "id": 340,
        "name": "Kampar",
        "lat": 0.146671,
        "lng": 101.1617356
      },
      "province": {
        "id": 26,
        "name": "Riau",
        "lat": 0.2933469,
        "lng": 101.7068294
      },
      "country": {
        "id": 228,
        "name": "INDONESIA",
        "code": "ID"
      },
      "id": 61171,
      "name": "Sei/Sungai Agung",
      "postcode": "28464",
      "lat": 0.5721752,
      "lng": 100.8225732
    },
    {
      "suburb": {
        "id": 5194,
        "name": "Tapung",
        "lat": 0.5530349,
        "lng": 101.1164452
      },
      "city": {
        "id": 340,
        "name": "Kampar",
        "lat": 0.146671,
        "lng": 101.1617356
      },
      "province": {
        "id": 26,
        "name": "Riau",
        "lat": 0.2933469,
        "lng": 101.7068294
      },
      "country": {
        "id": 228,
        "name": "INDONESIA",
        "code": "ID"
      },
      "id": 61172,
      "name": "Sei/Sungai Lembu Makmur",
      "postcode": "28464",
      "lat": 0.4579974,
      "lng": 101.1136153
    },
    {
      "suburb": {
        "id": 5194,
        "name": "Tapung",
        "lat": 0.5530349,
        "lng": 101.1164452
      },
      "city": {
        "id": 340,
        "name": "Kampar",
        "lat": 0.146671,
        "lng": 101.1617356
      },
      "province": {
        "id": 26,
        "name": "Riau",
        "lat": 0.2933469,
        "lng": 101.7068294
      },
      "country": {
        "id": 228,
        "name": "INDONESIA",
        "code": "ID"
      },
      "id": 61173,
      "name": "Sei/Sungai Putih",
      "postcode": "28464",
      "lat": 0.5110308,
      "lng": 101.2580472
    },
    {
      "suburb": {
        "id": 5196,
        "name": "Tapung Hulu",
        "lat": 0.7771909,
        "lng": 100.8451467
      },
      "city": {
        "id": 340,
        "name": "Kampar",
        "lat": 0.146671,
        "lng": 101.1617356
      },
      "province": {
        "id": 26,
        "name": "Riau",
        "lat": 0.2933469,
        "lng": 101.7068294
      },
      "country": {
        "id": 228,
        "name": "INDONESIA",
        "code": "ID"
      },
      "id": 61174,
      "name": "Rimba Beringin",
      "postcode": "28464",
      "lat": 0.6231197,
      "lng": 100.9298452
    },
    {
      "suburb": {
        "id": 5194,
        "name": "Tapung",
        "lat": 0.5530349,
        "lng": 101.1164452
      },
      "city": {
        "id": 340,
        "name": "Kampar",
        "lat": 0.146671,
        "lng": 101.1617356
      },
      "province": {
        "id": 26,
        "name": "Riau",
        "lat": 0.2933469,
        "lng": 101.7068294
      },
      "country": {
        "id": 228,
        "name": "INDONESIA",
        "code": "ID"
      },
      "id": 61175,
      "name": "Sari Galuh",
      "postcode": "28464",
      "lat": 0.5552749,
      "lng": 101.1589044
    },
    {
      "suburb": {
        "id": 5194,
        "name": "Tapung",
        "lat": 0.5530349,
        "lng": 101.1164452
      },
      "city": {
        "id": 340,
        "name": "Kampar",
        "lat": 0.146671,
        "lng": 101.1617356
      },
      "province": {
        "id": 26,
        "name": "Riau",
        "lat": 0.2933469,
        "lng": 101.7068294
      },
      "country": {
        "id": 228,
        "name": "INDONESIA",
        "code": "ID"
      },
      "id": 61176,
      "name": "Pelambaian",
      "postcode": "28464",
      "lat": 0.734585,
      "lng": 101.0768333
    },
    {
      "suburb": {
        "id": 5194,
        "name": "Tapung",
        "lat": 0.5530349,
        "lng": 101.1164452
      },
      "city": {
        "id": 340,
        "name": "Kampar",
        "lat": 0.146671,
        "lng": 101.1617356
      },
      "province": {
        "id": 26,
        "name": "Riau",
        "lat": 0.2933469,
        "lng": 101.7068294
      },
      "country": {
        "id": 228,
        "name": "INDONESIA",
        "code": "ID"
      },
      "id": 61177,
      "name": "Petapahan",
      "postcode": "28464",
      "lat": 0.5718273,
      "lng": 101.0033112
    },