{
  "metadata": {
    "path": "/v3/location/areas?limit=1000&page=4",
    "http_status_code": 200,
    "http_status": "OK",
    "timestamp": 1647334008
  },
  "data": [
    {
      "suburb": {
        "id": 293,
        "name": "Curup Timur",
        "lat": -3.4613757,
        "lng": 102.5470132
      },
      "city": {
        "id": 25,
        "name": "Rejang Lebong",
        "lat": -3.4548154,
        "lng": 102.6675575
      },
      "province": {
        "id": 4,
        "name": "Bengkulu",
        "lat": -3.7928451,
        "lng": 102.2607641
      },
      "country": {
        "id": 228,
        "name": "INDONESIA",
        "code": "ID"
      },
      "id": 3001,
      "name": "Kampung Delima",
      "postcode": "39125",
      "lat": -3.4510649,
      "lng": 102.5333881
    },
    {
      "suburb": {
        "id": 292,
        "name": "Curup Utara",
        "lat": -3.4420847,
        "lng": 102.5125951
      },
      "city": {
        "id": 25,
        "name": "Rejang Lebong",
        "lat": -3.4548154,
        "lng": 102.6675575
      },
      "province": {
        "id": 4,
        "name": "Bengkulu",
        "lat": -3.7928451,
        "lng": 102.2607641
      },
      "country": {
        "id": 228,
        "name": "INDONESIA",
        "code": "ID"
      },
      "id": 3002,
      "name": "Dusun Sawah",
      "postcode": "39125",
      "lat": -3.4720231,
      "lng": 102.4896554
    },
    {
      "suburb": {
        "id": 292,
        "name": "Curup Utara",
        "lat": -3.4420847,
        "lng": 102.5125951
      },
      "city": {
        "id": 25,
        "name": "Rejang Lebong",
        "lat": -3.4548154,
        "lng": 102.6675575
      },
      "province": {
        "id": 4,
        "name": "Bengkulu",
        "lat": -3.7928451,
        "lng": 102.2607641
      },
      "country": {
        "id": 228,
        "name": "INDONESIA",
        "code": "ID"
      },
      "id": 3003,
      "name": "Desa Pahlawan",
      "postcode": "39125",
      "lat": -3.4432999,
      "lng": 102.5140289
    },
    {
      "suburb": {
        "id": 293,
        "name": "Curup Timur",
        "lat": -3.4613757,
        "lng": 102.5470132
      },
      "city": {
        "id": 25,
        "name": "Rejang Lebong",
        "lat": -3.4548154,
        "lng": 102.6675575
      },
      "province": {
        "id": 4,
        "name": "Bengkulu",
        "lat": -3.7928451,
        "lng": 102.2607641
      },
      "country": {
        "id": 228,
        "name": "INDONESIA",
        "code": "ID"
      },
      "id": 3004,
      "name": "Duku Ilir",
      "postcode": "39125",
      "lat": -3.4497539,
      "lng": 102.5391248
    },
    {
      "suburb": {
        "id": 293,
        "name": "Curup Timur",
        "lat": -3.4613757,
        "lng": 102.5470132
      },
      "city": {
        "id": 25,
        "name": "Rejang Lebong",
        "lat": -3.4548154,
        "lng": 102.6675575
      },
      "province": {
        "id": 4,
        "name": "Bengkulu",
        "lat": -3.7928451,
        "lng": 102.2607641
      },
      "country": {
        "id": 228,
        "name": "INDONESIA",
        "code": "ID"
      },
      "id": 3005,
      "name": "Duku Ulu",
      "postcode": "39125",
      "lat": -3.4489163,
      "lng": 102.5556193
    },
    {
      "suburb": {
        "id": 292,
        "name": "Curup Utara",
        "lat": -3.4420847,
        "lng": 102.5125951
      },
      "city": {
        "id": 25,
        "name": "Rejang Lebong",
        "lat": -3.4548154,
        "lng": 102.6675575
      },
      "province": {
        "id": 4,
        "name": "Bengkulu",
        "lat": -3.7928451,
        "lng": 102.2607641
      },
      "country": {
        "id": 228,
        "name": "INDONESIA",
        "code": "ID"
      },
      "id": 3006,
      "name": "Batu Dewa",
      "postcode": "39125",
      "lat": -3.4611138,
      "lng": 102.5204816
    },
    {
      "suburb": {
        "id": 292,
        "name": "Curup Utara",
        "lat": -3.4420847,
        "lng": 102.5125951
      },
      "city": {
        "id": 25,
        "name": "Rejang Lebong",
        "lat": -3.4548154,
        "lng": 102.6675575
      },
      "province": {
        "id": 4,
        "name": "Bengkulu",
        "lat": -3.7928451,
        "lng": 102.2607641
      },
      "country": {
        "id": 228,
        "name": "INDONESIA",
        "code": "ID"
      },
      "id": 3007,
      "name": "Batu Panco",
      "postcode": "39125",
      "lat": -3.4582283,
      "lng": 102.5054259
    },
    {
      "suburb": {
        "id": 294,
        "name": "Curup Tengah",
        "lat": -3.481133,
        "lng": 102.5470132
      },
      "city": {
        "id": 25,
        "name": "Rejang Lebong",
        "lat": -3.4548154,
        "lng": 102.6675575
      },
      "province": {
        "id": 4,
        "name": "Bengkulu",
        "lat": -3.7928451,
        "lng": 102.2607641
      },
      "country": {
        "id": 228,
        "name": "INDONESIA",
        "code": "ID"
      },
      "id": 3008,
      "name": "Batu Galing",
      "postcode": "39125",
      "lat": -3.474466,
      "lng": 102.5376906
    },
    {
      "suburb": {
        "id": 294,
        "name": "Curup Tengah",
        "lat": -3.481133,
        "lng": 102.5470132
      },
      "city": {
        "id": 25,
        "name": "Rejang Lebong",
        "lat": -3.4548154,
        "lng": 102.6675575
      },
      "province": {
        "id": 4,
        "name": "Bengkulu",
        "lat": -3.7928451,
        "lng": 102.2607641
      },
      "country": {
        "id": 228,
        "name": "INDONESIA",
        "code": "ID"
      },
      "id": 3009,
      "name": "Air Merah",
      "postcode": "39125",
      "lat": -3.4834871,
      "lng": 102.5556193
    },
    {
      "suburb": {
        "id": 294,
        "name": "Curup Tengah",
        "lat": -3.481133,
        "lng": 102.5470132
      },
      "city": {
        "id": 25,
        "name": "Rejang Lebong",
        "lat": -3.4548154,
        "lng": 102.6675575
      },
      "province": {
        "id": 4,
        "name": "Bengkulu",
        "lat": -3.7928451,
        "lng": 102.2607641
      },
      "country": {
        "id": 228,
        "name": "INDONESIA",
        "code": "ID"
      },
      "id": 3010,
      "name": "Banyumas",
      "postcode": "39125",
      "lat": -3.4707998,
      "lng": 102.5348222
    },
    {
      "suburb": {
        "id": 294,
        "name": "Curup Tengah",
        "lat": -3.481133,
        "lng": 102.5470132
      },
      "city": {
        "id": 25,
        "name": "Rejang Lebong",
        "lat": -3.4548154,
        "lng": 102.6675575
      },
      "province": {
        "id": 4,
        "name": "Bengkulu",
        "lat": -3.7928451,
        "lng": 102.2607641
      },
      "country": {
        "id": 228,
        "name": "INDONESIA",
        "code": "ID"
      },
      "id": 3011,
      "name": "Air Bang",
      "postcode": "39125",
      "lat": -3.4749001,
      "lng": 102.5513162
    },
    {
      "suburb": {
        "id": 290,
        "name": "Curup Selatan",
        "lat": -3.5068509,
        "lng": 102.4724537
      },
      "city": {
        "id": 25,
        "name": "Rejang Lebong",
        "lat": -3.4548154,
        "lng": 102.6675575
      },
      "province": {
        "id": 4,
        "name": "Bengkulu",
        "lat": -3.7928451,
        "lng": 102.2607641
      },
      "country": {
        "id": 228,
        "name": "INDONESIA",
        "code": "ID"
      },
      "id": 3012,
      "name": "Air Lanang",
      "postcode": "39125",
      "lat": -3.5120279,
      "lng": 102.4552546
    },
    {
      "suburb": {
        "id": 291,
        "name": "Curup",
        "lat": -3.4740702,
        "lng": 102.5211986
      },
      "city": {
        "id": 25,
        "name": "Rejang Lebong",
        "lat": -3.4548154,
        "lng": 102.6675575
      },
      "province": {
        "id": 4,
        "name": "Bengkulu",
        "lat": -3.7928451,
        "lng": 102.2607641
      },
      "country": {
        "id": 228,
        "name": "INDONESIA",
        "code": "ID"
      },
      "id": 3013,
      "name": "Adirejo",
      "postcode": "39125",
      "lat": -3.4756188,
      "lng": 102.5208401
    },
    {
      "suburb": {
        "id": 290,
        "name": "Curup Selatan",
        "lat": -3.5068509,
        "lng": 102.4724537
      },
      "city": {
        "id": 25,
        "name": "Rejang Lebong",
        "lat": -3.4548154,
        "lng": 102.6675575
      },
      "province": {
        "id": 4,
        "name": "Bengkulu",
        "lat": -3.7928451,
        "lng": 102.2607641
      },
      "country": {
        "id": 228,
        "name": "INDONESIA",
        "code": "ID"
      },
      "id": 3014,
      "name": "Tempel Rejo",
      "postcode": "39124",
      "lat": -3.4924635,
      "lng": 102.5312369
    },
    {
      "suburb": {
        "id": 292,
        "name": "Curup Utara",
        "lat": -3.4420847,
        "lng": 102.5125951
      },
      "city": {
        "id": 25,
        "name": "Rejang Lebong",
        "lat": -3.4548154,
        "lng": 102.6675575
      },
      "province": {
        "id": 4,
        "name": "Bengkulu",
        "lat": -3.7928451,
        "lng": 102.2607641
      },
      "country": {
        "id": 228,
        "name": "INDONESIA",
        "code": "ID"
      },
      "id": 3015,
      "name": "Tunas Harapan",
      "postcode": "39123",
      "lat": -3.448199,
      "lng": 102.5168968
    },
    {
      "suburb": {
        "id": 292,
        "name": "Curup Utara",
        "lat": -3.4420847,
        "lng": 102.5125951
      },
      "city": {
        "id": 25,
        "name": "Rejang Lebong",
        "lat": -3.4548154,
        "lng": 102.6675575
      },
      "province": {
        "id": 4,
        "name": "Bengkulu",
        "lat": -3.7928451,
        "lng": 102.2607641
      },
      "country": {
        "id": 228,
        "name": "INDONESIA",
        "code": "ID"
      },
      "id": 3016,
      "name": "Dusun Curup",
      "postcode": "39119",
      "lat": -3.4543138,
      "lng": 102.5211986
    },
    {
      "suburb": {
        "id": 294,
        "name": "Curup Tengah",
        "lat": -3.481133,
        "lng": 102.5470132
      },
      "city": {
        "id": 25,
        "name": "Rejang Lebong",
        "lat": -3.4548154,
        "lng": 102.6675575
      },
      "province": {
        "id": 4,
        "name": "Bengkulu",
        "lat": -3.7928451,
        "lng": 102.2607641
      },
      "country": {
        "id": 228,
        "name": "INDONESIA",
        "code": "ID"
      },
      "id": 3017,
      "name": "Sidorejo/Siderejo",
      "postcode": "39119",
      "lat": -3.4670761,
      "lng": 102.5362564
    },
    {
      "suburb": {
        "id": 293,
        "name": "Curup Timur",
        "lat": -3.4613757,
        "lng": 102.5470132
      },
      "city": {
        "id": 25,
        "name": "Rejang Lebong",
        "lat": -3.4548154,
        "lng": 102.6675575
      },
      "province": {
        "id": 4,
        "name": "Bengkulu",
        "lat": -3.7928451,
        "lng": 102.2607641
      },
      "country": {
        "id": 228,
        "name": "INDONESIA",
        "code": "ID"
      },
      "id": 3018,
      "name": "Sukaraja",
      "postcode": "39121",
      "lat": -3.4627449,
      "lng": 102.5369735
    },
    {
      "suburb": {
        "id": 291,
        "name": "Curup",
        "lat": -3.4740702,
        "lng": 102.5211986
      },
      "city": {
        "id": 25,
        "name": "Rejang Lebong",
        "lat": -3.4548154,
        "lng": 102.6675575
      },
      "province": {
        "id": 4,
        "name": "Bengkulu",
        "lat": -3.7928451,
        "lng": 102.2607641
      },
      "country": {
        "id": 228,
        "name": "INDONESIA",
        "code": "ID"
      },
      "id": 3019,
      "name": "Pasar Tengah",
      "postcode": "39117",
      "lat": -3.4638103,
      "lng": 102.5265762
    },
    {
      "suburb": {
        "id": 291,
        "name": "Curup",
        "lat": -3.4740702,
        "lng": 102.5211986
      },
      "city": {
        "id": 25,
        "name": "Rejang Lebong",
        "lat": -3.4548154,
        "lng": 102.6675575
      },
      "province": {
        "id": 4,
        "name": "Bengkulu",
        "lat": -3.7928451,
        "lng": 102.2607641
      },
      "country": {
        "id": 228,
        "name": "INDONESIA",
        "code": "ID"
      },
      "id": 3020,
      "name": "Talang Benih",
      "postcode": "39118",
      "lat": -3.4742242,
      "lng": 102.5097274
    },
    {
      "suburb": {
        "id": 291,
        "name": "Curup",
        "lat": -3.4740702,
        "lng": 102.5211986
      },
      "city": {
        "id": 25,
        "name": "Rejang Lebong",
        "lat": -3.4548154,
        "lng": 102.6675575
      },
      "province": {
        "id": 4,
        "name": "Bengkulu",
        "lat": -3.7928451,
        "lng": 102.2607641
      },
      "country": {
        "id": 228,
        "name": "INDONESIA",
        "code": "ID"
      },
      "id": 3021,
      "name": "Jalan Baru",
      "postcode": "39117",
      "lat": -3.4610562,
      "lng": 102.5247836
    },
    {
      "suburb": {
        "id": 294,
        "name": "Curup Tengah",
        "lat": -3.481133,
        "lng": 102.5470132
      },
      "city": {
        "id": 25,
        "name": "Rejang Lebong",
        "lat": -3.4548154,
        "lng": 102.6675575
      },
      "province": {
        "id": 4,
        "name": "Bengkulu",
        "lat": -3.7928451,
        "lng": 102.2607641
      },
      "country": {
        "id": 228,
        "name": "INDONESIA",
        "code": "ID"
      },
      "id": 3022,
      "name": "Kepala Siring",
      "postcode": "39116",
      "lat": -3.463468,
      "lng": 102.5290858
    },
    {
      "suburb": {
        "id": 294,
        "name": "Curup Tengah",
        "lat": -3.481133,
        "lng": 102.5470132
      },
      "city": {
        "id": 25,
        "name": "Rejang Lebong",
        "lat": -3.4548154,
        "lng": 102.6675575
      },
      "province": {
        "id": 4,
        "name": "Bengkulu",
        "lat": -3.7928451,
        "lng": 102.2607641
      },
      "country": {
        "id": 228,
        "name": "INDONESIA",
        "code": "ID"
      },
      "id": 3023,
      "name": "Pelabuhan Baru",
      "postcode": "39115",
      "lat": -3.4649777,
      "lng": 102.5315954
    },
    {
      "suburb": {
        "id": 293,
        "name": "Curup Timur",
        "lat": -3.4613757,
        "lng": 102.5470132
      },
      "city": {
        "id": 25,
        "name": "Rejang Lebong",
        "lat": -3.4548154,
        "lng": 102.6675575
      },
      "province": {
        "id": 4,
        "name": "Bengkulu",
        "lat": -3.7928451,
        "lng": 102.2607641
      },
      "country": {
        "id": 228,
        "name": "INDONESIA",
        "code": "ID"
      },
      "id": 3024,
      "name": "Karang Anyar",
      "postcode": "39116",
      "lat": -3.4554142,
      "lng": 102.5312369
    },
    {
      "suburb": {
        "id": 294,
        "name": "Curup Tengah",
        "lat": -3.481133,
        "lng": 102.5470132
      },
      "city": {
        "id": 25,
        "name": "Rejang Lebong",
        "lat": -3.4548154,
        "lng": 102.6675575
      },
      "province": {
        "id": 4,
        "name": "Bengkulu",
        "lat": -3.7928451,
        "lng": 102.2607641
      },
      "country": {
        "id": 228,
        "name": "INDONESIA",
        "code": "ID"
      },
      "id": 3025,
      "name": "Kampung Jawa",
      "postcode": "39115",
      "lat": -3.4637238,
      "lng": 102.5330296
    },
    {
      "suburb": {
        "id": 293,
        "name": "Curup Timur",
        "lat": -3.4613757,
        "lng": 102.5470132
      },
      "city": {
        "id": 25,
        "name": "Rejang Lebong",
        "lat": -3.4548154,
        "lng": 102.6675575
      },
      "province": {
        "id": 4,
        "name": "Bengkulu",
        "lat": -3.7928451,
        "lng": 102.2607641
      },
      "country": {
        "id": 228,
        "name": "INDONESIA",
        "code": "ID"
      },
      "id": 3026,
      "name": "Air Meles Bawah",
      "postcode": "39115",
      "lat": -3.4674912,
      "lng": 102.5513162
    },
    {
      "suburb": {
        "id": 294,
        "name": "Curup Tengah",
        "lat": -3.481133,
        "lng": 102.5470132
      },
      "city": {
        "id": 25,
        "name": "Rejang Lebong",
        "lat": -3.4548154,
        "lng": 102.6675575
      },
      "province": {
        "id": 4,
        "name": "Bengkulu",
        "lat": -3.7928451,
        "lng": 102.2607641
      },
      "country": {
        "id": 228,
        "name": "INDONESIA",
        "code": "ID"
      },
      "id": 3027,
      "name": "Talang Rimbo Lama",
      "postcode": "39114",
      "lat": -3.4885829,
      "lng": 102.5441446
    },
    {
      "suburb": {
        "id": 291,
        "name": "Curup",
        "lat": -3.4740702,
        "lng": 102.5211986
      },
      "city": {
        "id": 25,
        "name": "Rejang Lebong",
        "lat": -3.4548154,
        "lng": 102.6675575
      },
      "province": {
        "id": 4,
        "name": "Bengkulu",
        "lat": -3.7928451,
        "lng": 102.2607641
      },
      "country": {
        "id": 228,
        "name": "INDONESIA",
        "code": "ID"
      },
      "id": 3028,
      "name": "Pasar Baru",
      "postcode": "39113",
      "lat": -3.4659952,
      "lng": 102.5247836
    },
    {
      "suburb": {
        "id": 294,
        "name": "Curup Tengah",
        "lat": -3.481133,
        "lng": 102.5470132
      },
      "city": {
        "id": 25,
        "name": "Rejang Lebong",
        "lat": -3.4548154,
        "lng": 102.6675575
      },
      "province": {
        "id": 4,
        "name": "Bengkulu",
        "lat": -3.7928451,
        "lng": 102.2607641
      },
      "country": {
        "id": 228,
        "name": "INDONESIA",
        "code": "ID"
      },
      "id": 3029,
      "name": "Talang Rimbo Baru",
      "postcode": "39113",
      "lat": -3.4677993,
      "lng": 102.5283687
    },
    {
      "suburb": {
        "id": 290,
        "name": "Curup Selatan",
        "lat": -3.5068509,
        "lng": 102.4724537
      },
      "city": {
        "id": 25,
        "name": "Rejang Lebong",
        "lat": -3.4548154,
        "lng": 102.6675575
      },
      "province": {
        "id": 4,
        "name": "Bengkulu",
        "lat": -3.7928451,
        "lng": 102.2607641
      },
      "country": {
        "id": 228,
        "name": "INDONESIA",
        "code": "ID"
      },
      "id": 3030,
      "name": "Air Putih Baru",
      "postcode": "39112",
      "lat": -3.4851673,
      "lng": 102.5226326
    },
    {
      "suburb": {
        "id": 291,
        "name": "Curup",
        "lat": -3.4740702,
        "lng": 102.5211986
      },
      "city": {
        "id": 25,
        "name": "Rejang Lebong",
        "lat": -3.4548154,
        "lng": 102.6675575
      },
      "province": {
        "id": 4,
        "name": "Bengkulu",
        "lat": -3.7928451,
        "lng": 102.2607641
      },
      "country": {
        "id": 228,
        "name": "INDONESIA",
        "code": "ID"
      },
      "id": 3031,
      "name": "Air Putih Lama",
      "postcode": "39112",
      "lat": -3.4795606,
      "lng": 102.5262177
    },
    {
      "suburb": {
        "id": 291,
        "name": "Curup",
        "lat": -3.4740702,
        "lng": 102.5211986
      },
      "city": {
        "id": 25,
        "name": "Rejang Lebong",
        "lat": -3.4548154,
        "lng": 102.6675575
      },
      "province": {
        "id": 4,
        "name": "Bengkulu",
        "lat": -3.7928451,
        "lng": 102.2607641
      },
      "country": {
        "id": 228,
        "name": "INDONESIA",
        "code": "ID"
      },
      "id": 3032,
      "name": "Dwi Tunggal",
      "postcode": "39112",
      "lat": -3.4778332,
      "lng": 102.5168968
    },
    {
      "suburb": {
        "id": 291,
        "name": "Curup",
        "lat": -3.4740702,
        "lng": 102.5211986
      },
      "city": {
        "id": 25,
        "name": "Rejang Lebong",
        "lat": -3.4548154,
        "lng": 102.6675575
      },
      "province": {
        "id": 4,
        "name": "Bengkulu",
        "lat": -3.7928451,
        "lng": 102.2607641
      },
      "country": {
        "id": 228,
        "name": "INDONESIA",
        "code": "ID"
      },
      "id": 3033,
      "name": "Air Rambai",
      "postcode": "39111",
      "lat": -3.4752474,
      "lng": 102.5255006
    },
    {
      "suburb": {
        "id": 295,
        "name": "Maje",
        "lat": -4.7186652,
        "lng": 103.4974258
      },
      "city": {
        "id": 26,
        "name": "Kaur",
        "lat": -4.5215978,
        "lng": 103.2663479
      },
      "province": {
        "id": 4,
        "name": "Bengkulu",
        "lat": -3.7928451,
        "lng": 102.2607641
      },
      "country": {
        "id": 228,
        "name": "INDONESIA",
        "code": "ID"
      },
      "id": 3034,
      "name": "Way Hawang",
      "postcode": "38965",
      "lat": -4.863228,
      "lng": 103.436005
    },
    {
      "suburb": {
        "id": 295,
        "name": "Maje",
        "lat": -4.7186652,
        "lng": 103.4974258
      },
      "city": {
        "id": 26,
        "name": "Kaur",
        "lat": -4.5215978,
        "lng": 103.2663479
      },
      "province": {
        "id": 4,
        "name": "Bengkulu",
        "lat": -3.7928451,
        "lng": 102.2607641
      },
      "country": {
        "id": 228,
        "name": "INDONESIA",
        "code": "ID"
      },
      "id": 3035,
      "name": "Tanjung Beringin",
      "postcode": "38965",
      "lat": -4.8366246,
      "lng": 103.4699635
    },
    {
      "suburb": {
        "id": 295,
        "name": "Maje",
        "lat": -4.7186652,
        "lng": 103.4974258
      },
      "city": {
        "id": 26,
        "name": "Kaur",
        "lat": -4.5215978,
        "lng": 103.2663479
      },
      "province": {
        "id": 4,
        "name": "Bengkulu",
        "lat": -3.7928451,
        "lng": 102.2607641
      },
      "country": {
        "id": 228,
        "name": "INDONESIA",
        "code": "ID"
      },
      "id": 3036,
      "name": "Tanjung Ganti",
      "postcode": "38965",
      "lat": -4.794143,
      "lng": 103.4143341
    },
    {
      "suburb": {
        "id": 295,
        "name": "Maje",
        "lat": -4.7186652,
        "lng": 103.4974258
      },
      "city": {
        "id": 26,
        "name": "Kaur",
        "lat": -4.5215978,
        "lng": 103.2663479
      },
      "province": {
        "id": 4,
        "name": "Bengkulu",
        "lat": -3.7928451,
        "lng": 102.2607641
      },
      "country": {
        "id": 228,
        "name": "INDONESIA",
        "code": "ID"
      },
      "id": 3037,
      "name": "Tanjung Aur",
      "postcode": "38965",
      "lat": -4.8360865,
      "lng": 103.4338378
    },
    {
      "suburb": {
        "id": 295,
        "name": "Maje",
        "lat": -4.7186652,
        "lng": 103.4974258
      },
      "city": {
        "id": 26,
        "name": "Kaur",
        "lat": -4.5215978,
        "lng": 103.2663479
      },
      "province": {
        "id": 4,
        "name": "Bengkulu",
        "lat": -3.7928451,
        "lng": 102.2607641
      },
      "country": {
        "id": 228,
        "name": "INDONESIA",
        "code": "ID"
      },
      "id": 3038,
      "name": "Tanjung Baru",
      "postcode": "38965",
      "lat": -4.8553828,
      "lng": 103.4800805
    },
    {
      "suburb": {
        "id": 295,
        "name": "Maje",
        "lat": -4.7186652,
        "lng": 103.4974258
      },
      "city": {
        "id": 26,
        "name": "Kaur",
        "lat": -4.5215978,
        "lng": 103.2663479
      },
      "province": {
        "id": 4,
        "name": "Bengkulu",
        "lat": -3.7928451,
        "lng": 102.2607641
      },
      "country": {
        "id": 228,
        "name": "INDONESIA",
        "code": "ID"
      },
      "id": 3039,
      "name": "Suka Menanti",
      "postcode": "38965",
      "lat": -4.8432649,
      "lng": 103.4540669
    },
    {
      "suburb": {
        "id": 295,
        "name": "Maje",
        "lat": -4.7186652,
        "lng": 103.4974258
      },
      "city": {
        "id": 26,
        "name": "Kaur",
        "lat": -4.5215978,
        "lng": 103.2663479
      },
      "province": {
        "id": 4,
        "name": "Bengkulu",
        "lat": -3.7928451,
        "lng": 102.2607641
      },
      "country": {
        "id": 228,
        "name": "INDONESIA",
        "code": "ID"
      },
      "id": 3040,
      "name": "Sumber Harapan",
      "postcode": "38965",
      "lat": -4.803172,
      "lng": 103.4367274
    },
    {
      "suburb": {
        "id": 295,
        "name": "Maje",
        "lat": -4.7186652,
        "lng": 103.4974258
      },
      "city": {
        "id": 26,
        "name": "Kaur",
        "lat": -4.5215978,
        "lng": 103.2663479
      },
      "province": {
        "id": 4,
        "name": "Bengkulu",
        "lat": -3.7928451,
        "lng": 102.2607641
      },
      "country": {
        "id": 228,
        "name": "INDONESIA",
        "code": "ID"
      },
      "id": 3041,
      "name": "Tanjung Agung",
      "postcode": "38965",
      "lat": -4.8316852,
      "lng": 103.4641827
    },
    {
      "suburb": {
        "id": 295,
        "name": "Maje",
        "lat": -4.7186652,
        "lng": 103.4974258
      },
      "city": {
        "id": 26,
        "name": "Kaur",
        "lat": -4.5215978,
        "lng": 103.2663479
      },
      "province": {
        "id": 4,
        "name": "Bengkulu",
        "lat": -3.7928451,
        "lng": 102.2607641
      },
      "country": {
        "id": 228,
        "name": "INDONESIA",
        "code": "ID"
      },
      "id": 3042,
      "name": "Pematang Danau",
      "postcode": "38965",
      "lat": -4.7092581,
      "lng": 103.4627375
    },
    {
      "suburb": {
        "id": 295,
        "name": "Maje",
        "lat": -4.7186652,
        "lng": 103.4974258
      },
      "city": {
        "id": 26,
        "name": "Kaur",
        "lat": -4.5215978,
        "lng": 103.2663479
      },
      "province": {
        "id": 4,
        "name": "Bengkulu",
        "lat": -3.7928451,
        "lng": 102.2607641
      },
      "country": {
        "id": 228,
        "name": "INDONESIA",
        "code": "ID"
      },
      "id": 3043,
      "name": "Penyandingan",
      "postcode": "38965",
      "lat": -4.7655711,
      "lng": 103.4222797
    },
    {
      "suburb": {
        "id": 295,
        "name": "Maje",
        "lat": -4.7186652,
        "lng": 103.4974258
      },
      "city": {
        "id": 26,
        "name": "Kaur",
        "lat": -4.5215978,
        "lng": 103.2663479
      },
      "province": {
        "id": 4,
        "name": "Bengkulu",
        "lat": -3.7928451,
        "lng": 102.2607641
      },
      "country": {
        "id": 228,
        "name": "INDONESIA",
        "code": "ID"
      },
      "id": 3044,
      "name": "Muara Jaya",
      "postcode": "38965",
      "lat": -4.8629598,
      "lng": 103.4179456
    },
    {
      "suburb": {
        "id": 295,
        "name": "Maje",
        "lat": -4.7186652,
        "lng": 103.4974258
      },
      "city": {
        "id": 26,
        "name": "Kaur",
        "lat": -4.5215978,
        "lng": 103.2663479
      },
      "province": {
        "id": 4,
        "name": "Bengkulu",
        "lat": -3.7928451,
        "lng": 102.2607641
      },
      "country": {
        "id": 228,
        "name": "INDONESIA",
        "code": "ID"
      },
      "id": 3045,
      "name": "Parda Suka",
      "postcode": "38965",
      "lat": -4.8088015,
      "lng": 103.4078335
    },
    {
      "suburb": {
        "id": 295,
        "name": "Maje",
        "lat": -4.7186652,
        "lng": 103.4974258
      },
      "city": {
        "id": 26,
        "name": "Kaur",
        "lat": -4.5215978,
        "lng": 103.2663479
      },
      "province": {
        "id": 4,
        "name": "Bengkulu",
        "lat": -3.7928451,
        "lng": 102.2607641
      },
      "country": {
        "id": 228,
        "name": "INDONESIA",
        "code": "ID"
      },
      "id": 3046,
      "name": "Linau",
      "postcode": "38965",
      "lat": -4.8490196,
      "lng": 103.4193903
    },
    {
      "suburb": {
        "id": 295,
        "name": "Maje",
        "lat": -4.7186652,
        "lng": 103.4974258
      },
      "city": {
        "id": 26,
        "name": "Kaur",
        "lat": -4.5215978,
        "lng": 103.2663479
      },
      "province": {
        "id": 4,
        "name": "Bengkulu",
        "lat": -3.7928451,
        "lng": 102.2607641
      },
      "country": {
        "id": 228,
        "name": "INDONESIA",
        "code": "ID"
      },
      "id": 3047,
      "name": "Kedataran",
      "postcode": "38965",
      "lat": -4.7783694,
      "lng": 103.4136118
    },
    {
      "suburb": {
        "id": 295,
        "name": "Maje",
        "lat": -4.7186652,
        "lng": 103.4974258
      },
      "city": {
        "id": 26,
        "name": "Kaur",
        "lat": -4.5215978,
        "lng": 103.2663479
      },
      "province": {
        "id": 4,
        "name": "Bengkulu",
        "lat": -3.7928451,
        "lng": 102.2607641
      },
      "country": {
        "id": 228,
        "name": "INDONESIA",
        "code": "ID"
      },
      "id": 3048,
      "name": "Arga Mulya",
      "postcode": "38965",
      "lat": -4.8349241,
      "lng": 103.4916438
    },
    {
      "suburb": {
        "id": 295,
        "name": "Maje",
        "lat": -4.7186652,
        "lng": 103.4974258
      },
      "city": {
        "id": 26,
        "name": "Kaur",
        "lat": -4.5215978,
        "lng": 103.2663479
      },
      "province": {
        "id": 4,
        "name": "Bengkulu",
        "lat": -3.7928451,
        "lng": 102.2607641
      },
      "country": {
        "id": 228,
        "name": "INDONESIA",
        "code": "ID"
      },
      "id": 3049,
      "name": "Bakal Makmur",
      "postcode": "38965",
      "lat": -4.7101622,
      "lng": 103.416501
    },
    {
      "suburb": {
        "id": 295,
        "name": "Maje",
        "lat": -4.7186652,
        "lng": 103.4974258
      },
      "city": {
        "id": 26,
        "name": "Kaur",
        "lat": -4.5215978,
        "lng": 103.2663479
      },
      "province": {
        "id": 4,
        "name": "Bengkulu",
        "lat": -3.7928451,
        "lng": 102.2607641
      },
      "country": {
        "id": 228,
        "name": "INDONESIA",
        "code": "ID"
      },
      "id": 3050,
      "name": "Benteng Harapan",
      "postcode": "38965",
      "lat": -4.8235046,
      "lng": 103.4309481
    },
    {
      "suburb": {
        "id": 295,
        "name": "Maje",
        "lat": -4.7186652,
        "lng": 103.4974258
      },
      "city": {
        "id": 26,
        "name": "Kaur",
        "lat": -4.5215978,
        "lng": 103.2663479
      },
      "province": {
        "id": 4,
        "name": "Bengkulu",
        "lat": -3.7928451,
        "lng": 102.2607641
      },
      "country": {
        "id": 228,
        "name": "INDONESIA",
        "code": "ID"
      },
      "id": 3051,
      "name": "Air Jelatang",
      "postcode": "38965",
      "lat": -4.7999857,
      "lng": 103.406389
    },
    {
      "suburb": {
        "id": 295,
        "name": "Maje",
        "lat": -4.7186652,
        "lng": 103.4974258
      },
      "city": {
        "id": 26,
        "name": "Kaur",
        "lat": -4.5215978,
        "lng": 103.2663479
      },
      "province": {
        "id": 4,
        "name": "Bengkulu",
        "lat": -3.7928451,
        "lng": 102.2607641
      },
      "country": {
        "id": 228,
        "name": "INDONESIA",
        "code": "ID"
      },
      "id": 3052,
      "name": "Air Long",
      "postcode": "38965",
      "lat": -4.8085712,
      "lng": 103.4193903
    },
    {
      "suburb": {
        "id": 295,
        "name": "Maje",
        "lat": -4.7186652,
        "lng": 103.4974258
      },
      "city": {
        "id": 26,
        "name": "Kaur",
        "lat": -4.5215978,
        "lng": 103.2663479
      },
      "province": {
        "id": 4,
        "name": "Bengkulu",
        "lat": -3.7928451,
        "lng": 102.2607641
      },
      "country": {
        "id": 228,
        "name": "INDONESIA",
        "code": "ID"
      },
      "id": 3053,
      "name": "Air Bacang",
      "postcode": "38965",
      "lat": -4.6577194,
      "lng": 103.5205565
    },
    {
      "suburb": {
        "id": 296,
        "name": "Nasal",
        "lat": -4.6962156,
        "lng": 103.6131203
      },
      "city": {
        "id": 26,
        "name": "Kaur",
        "lat": -4.5215978,
        "lng": 103.2663479
      },
      "province": {
        "id": 4,
        "name": "Bengkulu",
        "lat": -3.7928451,
        "lng": 102.2607641
      },
      "country": {
        "id": 228,
        "name": "INDONESIA",
        "code": "ID"
      },
      "id": 3054,
      "name": "Tebing Rambutan",
      "postcode": "38964",
      "lat": -4.9117343,
      "lng": 103.5697229
    },
    {
      "suburb": {
        "id": 296,
        "name": "Nasal",
        "lat": -4.6962156,
        "lng": 103.6131203
      },
      "city": {
        "id": 26,
        "name": "Kaur",
        "lat": -4.5215978,
        "lng": 103.2663479
      },
      "province": {
        "id": 4,
        "name": "Bengkulu",
        "lat": -3.7928451,
        "lng": 102.2607641
      },
      "country": {
        "id": 228,
        "name": "INDONESIA",
        "code": "ID"
      },
      "id": 3055,
      "name": "Tri Jaya",
      "postcode": "38964",
      "lat": -4.8631452,
      "lng": 103.5957596
    },
    {
      "suburb": {
        "id": 296,
        "name": "Nasal",
        "lat": -4.6962156,
        "lng": 103.6131203
      },
      "city": {
        "id": 26,
        "name": "Kaur",
        "lat": -4.5215978,
        "lng": 103.2663479
      },
      "province": {
        "id": 4,
        "name": "Bengkulu",
        "lat": -3.7928451,
        "lng": 102.2607641
      },
      "country": {
        "id": 228,
        "name": "INDONESIA",
        "code": "ID"
      },
      "id": 3056,
      "name": "Ulak Pandan",
      "postcode": "38964",
      "lat": -4.8772636,
      "lng": 103.5234481
    },
    {
      "suburb": {
        "id": 296,
        "name": "Nasal",
        "lat": -4.6962156,
        "lng": 103.6131203
      },
      "city": {
        "id": 26,
        "name": "Kaur",
        "lat": -4.5215978,
        "lng": 103.2663479
      },
      "province": {
        "id": 4,
        "name": "Bengkulu",
        "lat": -3.7928451,
        "lng": 102.2607641
      },
      "country": {
        "id": 228,
        "name": "INDONESIA",
        "code": "ID"
      },
      "id": 3057,
      "name": "Suku Tiga",
      "postcode": "38964",
      "lat": -4.8522108,
      "lng": 103.511882
    },
    {
      "suburb": {
        "id": 296,
        "name": "Nasal",
        "lat": -4.6962156,
        "lng": 103.6131203
      },
      "city": {
        "id": 26,
        "name": "Kaur",
        "lat": -4.5215978,
        "lng": 103.2663479
      },
      "province": {
        "id": 4,
        "name": "Bengkulu",
        "lat": -3.7928451,
        "lng": 102.2607641
      },
      "country": {
        "id": 228,
        "name": "INDONESIA",
        "code": "ID"
      },
      "id": 3058,
      "name": "Sumber Harapan",
      "postcode": "38964",
      "lat": -4.7257719,
      "lng": 103.6478486
    },
    {
      "suburb": {
        "id": 296,
        "name": "Nasal",
        "lat": -4.6962156,
        "lng": 103.6131203
      },
      "city": {
        "id": 26,
        "name": "Kaur",
        "lat": -4.5215978,
        "lng": 103.2663479
      },
      "province": {
        "id": 4,
        "name": "Bengkulu",
        "lat": -3.7928451,
        "lng": 102.2607641
      },
      "country": {
        "id": 228,
        "name": "INDONESIA",
        "code": "ID"
      },
      "id": 3059,
      "name": "Tanjung Betuah",
      "postcode": "38964",
      "lat": -4.8636185,
      "lng": 103.5104363
    },
    {
      "suburb": {
        "id": 296,
        "name": "Nasal",
        "lat": -4.6962156,
        "lng": 103.6131203
      },
      "city": {
        "id": 26,
        "name": "Kaur",
        "lat": -4.5215978,
        "lng": 103.2663479
      },
      "province": {
        "id": 4,
        "name": "Bengkulu",
        "lat": -3.7928451,
        "lng": 102.2607641
      },
      "country": {
        "id": 228,
        "name": "INDONESIA",
        "code": "ID"
      },
      "id": 3060,
      "name": "Sinar Banten",
      "postcode": "38964",
      "lat": -4.8643246,
      "lng": 103.5379072
    },
    {
      "suburb": {
        "id": 296,
        "name": "Nasal",
        "lat": -4.6962156,
        "lng": 103.6131203
      },
      "city": {
        "id": 26,
        "name": "Kaur",
        "lat": -4.5215978,
        "lng": 103.2663479
      },
      "province": {
        "id": 4,
        "name": "Bengkulu",
        "lat": -3.7928451,
        "lng": 102.2607641
      },
      "country": {
        "id": 228,
        "name": "INDONESIA",
        "code": "ID"
      },
      "id": 3061,
      "name": "Suka Jaya",
      "postcode": "38964",
      "lat": -4.827648,
      "lng": 103.6015463
    },
    {
      "suburb": {
        "id": 296,
        "name": "Nasal",
        "lat": -4.6962156,
        "lng": 103.6131203
      },
      "city": {
        "id": 26,
        "name": "Kaur",
        "lat": -4.5215978,
        "lng": 103.2663479
      },
      "province": {
        "id": 4,
        "name": "Bengkulu",
        "lat": -3.7928451,
        "lng": 102.2607641
      },
      "country": {
        "id": 228,
        "name": "INDONESIA",
        "code": "ID"
      },
      "id": 3062,
      "name": "Pasar Jumat",
      "postcode": "38964",
      "lat": -4.7853734,
      "lng": 103.6941672
    },
    {
      "suburb": {
        "id": 296,
        "name": "Nasal",
        "lat": -4.6962156,
        "lng": 103.6131203
      },
      "city": {
        "id": 26,
        "name": "Kaur",
        "lat": -4.5215978,
        "lng": 103.2663479
      },
      "province": {
        "id": 4,
        "name": "Bengkulu",
        "lat": -3.7928451,
        "lng": 102.2607641
      },
      "country": {
        "id": 228,
        "name": "INDONESIA",
        "code": "ID"
      },
      "id": 3063,
      "name": "Pasar Baru",
      "postcode": "38964",
      "lat": -4.9159173,
      "lng": 103.5509218
    },
    {
      "suburb": {
        "id": 296,
        "name": "Nasal",
        "lat": -4.6962156,
        "lng": 103.6131203
      },
      "city": {
        "id": 26,
        "name": "Kaur",
        "lat": -4.5215978,
        "lng": 103.2663479
      },
      "province": {
        "id": 4,
        "name": "Bengkulu",
        "lat": -3.7928451,
        "lng": 102.2607641
      },
      "country": {
        "id": 228,
        "name": "INDONESIA",
        "code": "ID"
      },
      "id": 3064,
      "name": "Merpas",
      "postcode": "38964",
      "lat": -4.9009122,
      "lng": 103.5422453
    },
    {
      "suburb": {
        "id": 296,
        "name": "Nasal",
        "lat": -4.6962156,
        "lng": 103.6131203
      },
      "city": {
        "id": 26,
        "name": "Kaur",
        "lat": -4.5215978,
        "lng": 103.2663479
      },
      "province": {
        "id": 4,
        "name": "Bengkulu",
        "lat": -3.7928451,
        "lng": 102.2607641
      },
      "country": {
        "id": 228,
        "name": "INDONESIA",
        "code": "ID"
      },
      "id": 3065,
      "name": "Muara Dua",
      "postcode": "38964",
      "lat": -4.7065254,
      "lng": 103.6015463
    },
    {
      "suburb": {
        "id": 296,
        "name": "Nasal",
        "lat": -4.6962156,
        "lng": 103.6131203
      },
      "city": {
        "id": 26,
        "name": "Kaur",
        "lat": -4.5215978,
        "lng": 103.2663479
      },
      "province": {
        "id": 4,
        "name": "Bengkulu",
        "lat": -3.7928451,
        "lng": 102.2607641
      },
      "country": {
        "id": 228,
        "name": "INDONESIA",
        "code": "ID"
      },
      "id": 3066,
      "name": "Burni",
      "postcode": "38964",
      "lat": -4.6962156,
      "lng": 103.6131203
    },
    {
      "suburb": {
        "id": 296,
        "name": "Nasal",
        "lat": -4.6962156,
        "lng": 103.6131203
      },
      "city": {
        "id": 26,
        "name": "Kaur",
        "lat": -4.5215978,
        "lng": 103.2663479
      },
      "province": {
        "id": 4,
        "name": "Bengkulu",
        "lat": -3.7928451,
        "lng": 102.2607641
      },
      "country": {
        "id": 228,
        "name": "INDONESIA",
        "code": "ID"
      },
      "id": 3067,
      "name": "Gedung Menung",
      "postcode": "38964",
      "lat": -4.8667649,
      "lng": 103.5111592
    },
    {
      "suburb": {
        "id": 296,
        "name": "Nasal",
        "lat": -4.6962156,
        "lng": 103.6131203
      },
      "city": {
        "id": 26,
        "name": "Kaur",
        "lat": -4.5215978,
        "lng": 103.2663479
      },
      "province": {
        "id": 4,
        "name": "Bengkulu",
        "lat": -3.7928451,
        "lng": 102.2607641
      },
      "country": {
        "id": 228,
        "name": "INDONESIA",
        "code": "ID"
      },
      "id": 3068,
      "name": "Batu Lungun",
      "postcode": "38964",
      "lat": -4.8922051,
      "lng": 103.5350153
    },
    {
      "suburb": {
        "id": 296,
        "name": "Nasal",
        "lat": -4.6962156,
        "lng": 103.6131203
      },
      "city": {
        "id": 26,
        "name": "Kaur",
        "lat": -4.5215978,
        "lng": 103.2663479
      },
      "province": {
        "id": 4,
        "name": "Bengkulu",
        "lat": -3.7928451,
        "lng": 102.2607641
      },
      "country": {
        "id": 228,
        "name": "INDONESIA",
        "code": "ID"
      },
      "id": 3069,
      "name": "Bukit Indah",
      "postcode": "38964",
      "lat": -4.8433958,
      "lng": 103.5726156
    },
    {
      "suburb": {
        "id": 297,
        "name": "Tetap (Muara Tetap)",
        "lat": -4.711063,
        "lng": 103.3702811
      },
      "city": {
        "id": 26,
        "name": "Kaur",
        "lat": -4.5215978,
        "lng": 103.2663479
      },
      "province": {
        "id": 4,
        "name": "Bengkulu",
        "lat": -3.7928451,
        "lng": 102.2607641
      },
      "country": {
        "id": 228,
        "name": "INDONESIA",
        "code": "ID"
      },
      "id": 3070,
      "name": "Tanjung Dalam",
      "postcode": "38963",
      "lat": -4.750664,
      "lng": 103.3457336
    },
    {
      "suburb": {
        "id": 296,
        "name": "Nasal",
        "lat": -4.6962156,
        "lng": 103.6131203
      },
      "city": {
        "id": 26,
        "name": "Kaur",
        "lat": -4.5215978,
        "lng": 103.2663479
      },
      "province": {
        "id": 4,
        "name": "Bengkulu",
        "lat": -3.7928451,
        "lng": 102.2607641
      },
      "country": {
        "id": 228,
        "name": "INDONESIA",
        "code": "ID"
      },
      "id": 3071,
      "name": "Air Batang",
      "postcode": "38964",
      "lat": -4.8939645,
      "lng": 103.5726156
    },
    {
      "suburb": {
        "id": 297,
        "name": "Tetap (Muara Tetap)",
        "lat": -4.711063,
        "lng": 103.3702811
      },
      "city": {
        "id": 26,
        "name": "Kaur",
        "lat": -4.5215978,
        "lng": 103.2663479
      },
      "province": {
        "id": 4,
        "name": "Bengkulu",
        "lat": -3.7928451,
        "lng": 102.2607641
      },
      "country": {
        "id": 228,
        "name": "INDONESIA",
        "code": "ID"
      },
      "id": 3072,
      "name": "Tanjung Bunga",
      "postcode": "38963",
      "lat": -4.7411846,
      "lng": 103.3139733
    },
    {
      "suburb": {
        "id": 298,
        "name": "Kaur Selatan",
        "lat": -4.787375,
        "lng": 103.3414022
      },
      "city": {
        "id": 26,
        "name": "Kaur",
        "lat": -4.5215978,
        "lng": 103.2663479
      },
      "province": {
        "id": 4,
        "name": "Bengkulu",
        "lat": -3.7928451,
        "lng": 102.2607641
      },
      "country": {
        "id": 228,
        "name": "INDONESIA",
        "code": "ID"
      },
      "id": 3073,
      "name": "Tanjung Besar",
      "postcode": "38963",
      "lat": -4.787375,
      "lng": 103.3414022
    },
    {
      "suburb": {
        "id": 297,
        "name": "Tetap (Muara Tetap)",
        "lat": -4.711063,
        "lng": 103.3702811
      },
      "city": {
        "id": 26,
        "name": "Kaur",
        "lat": -4.5215978,
        "lng": 103.2663479
      },
      "province": {
        "id": 4,
        "name": "Bengkulu",
        "lat": -3.7928451,
        "lng": 102.2607641
      },
      "country": {
        "id": 228,
        "name": "INDONESIA",
        "code": "ID"
      },
      "id": 3074,
      "name": "Suka Raja",
      "postcode": "38963",
      "lat": -4.7711518,
      "lng": 103.3312962
    },
    {
      "suburb": {
        "id": 297,
        "name": "Tetap (Muara Tetap)",
        "lat": -4.711063,
        "lng": 103.3702811
      },
      "city": {
        "id": 26,
        "name": "Kaur",
        "lat": -4.5215978,
        "lng": 103.2663479
      },
      "province": {
        "id": 4,
        "name": "Bengkulu",
        "lat": -3.7928451,
        "lng": 102.2607641
      },
      "country": {
        "id": 228,
        "name": "INDONESIA",
        "code": "ID"
      },
      "id": 3075,
      "name": "Tanjung Agung",
      "postcode": "38963",
      "lat": -4.711063,
      "lng": 103.3702811
    },
    {
      "suburb": {
        "id": 297,
        "name": "Tetap (Muara Tetap)",
        "lat": -4.711063,
        "lng": 103.3702811
      },
      "city": {
        "id": 26,
        "name": "Kaur",
        "lat": -4.5215978,
        "lng": 103.2663479
      },
      "province": {
        "id": 4,
        "name": "Bengkulu",
        "lat": -3.7928451,
        "lng": 102.2607641
      },
      "country": {
        "id": 228,
        "name": "INDONESIA",
        "code": "ID"
      },
      "id": 3076,
      "name": "Suka Banjar",
      "postcode": "38963",
      "lat": -4.7414096,
      "lng": 103.3024261
    },
    {
      "suburb": {
        "id": 298,
        "name": "Kaur Selatan",
        "lat": -4.787375,
        "lng": 103.3414022
      },
      "city": {
        "id": 26,
        "name": "Kaur",
        "lat": -4.5215978,
        "lng": 103.2663479
      },
      "province": {
        "id": 4,
        "name": "Bengkulu",
        "lat": -3.7928451,
        "lng": 102.2607641
      },
      "country": {
        "id": 228,
        "name": "INDONESIA",
        "code": "ID"
      },
      "id": 3077,
      "name": "Suka Bandung",
      "postcode": "38963",
      "lat": -4.7886099,
      "lng": 103.342846
    },
    {
      "suburb": {
        "id": 298,
        "name": "Kaur Selatan",
        "lat": -4.787375,
        "lng": 103.3414022
      },
      "city": {
        "id": 26,
        "name": "Kaur",
        "lat": -4.5215978,
        "lng": 103.2663479
      },
      "province": {
        "id": 4,
        "name": "Bengkulu",
        "lat": -3.7928451,
        "lng": 102.2607641
      },
      "country": {
        "id": 228,
        "name": "INDONESIA",
        "code": "ID"
      },
      "id": 3078,
      "name": "Selasih",
      "postcode": "38963",
      "lat": -4.785019,
      "lng": 103.3327398
    },
    {
      "suburb": {
        "id": 298,
        "name": "Kaur Selatan",
        "lat": -4.787375,
        "lng": 103.3414022
      },
      "city": {
        "id": 26,
        "name": "Kaur",
        "lat": -4.5215978,
        "lng": 103.2663479
      },
      "province": {
        "id": 4,
        "name": "Bengkulu",
        "lat": -3.7928451,
        "lng": 102.2607641
      },
      "country": {
        "id": 228,
        "name": "INDONESIA",
        "code": "ID"
      },
      "id": 3079,
      "name": "Sinar Pagi",
      "postcode": "38963",
      "lat": -4.7788444,
      "lng": 103.3255216
    },
    {
      "suburb": {
        "id": 298,
        "name": "Kaur Selatan",
        "lat": -4.787375,
        "lng": 103.3414022
      },
      "city": {
        "id": 26,
        "name": "Kaur",
        "lat": -4.5215978,
        "lng": 103.2663479
      },
      "province": {
        "id": 4,
        "name": "Bengkulu",
        "lat": -3.7928451,
        "lng": 102.2607641
      },
      "country": {
        "id": 228,
        "name": "INDONESIA",
        "code": "ID"
      },
      "id": 3080,
      "name": "Sawah Jangkung",
      "postcode": "38963",
      "lat": -4.7934873,
      "lng": 103.367754
    },
    {
      "suburb": {
        "id": 298,
        "name": "Kaur Selatan",
        "lat": -4.787375,
        "lng": 103.3414022
      },
      "city": {
        "id": 26,
        "name": "Kaur",
        "lat": -4.5215978,
        "lng": 103.2663479
      },
      "province": {
        "id": 4,
        "name": "Bengkulu",
        "lat": -3.7928451,
        "lng": 102.2607641
      },
      "country": {
        "id": 228,
        "name": "INDONESIA",
        "code": "ID"
      },
      "id": 3081,
      "name": "Sekunyit",
      "postcode": "38963",
      "lat": -4.7745223,
      "lng": 103.3204691
    },
    {
      "suburb": {
        "id": 298,
        "name": "Kaur Selatan",
        "lat": -4.787375,
        "lng": 103.3414022
      },
      "city": {
        "id": 26,
        "name": "Kaur",
        "lat": -4.5215978,
        "lng": 103.2663479
      },
      "province": {
        "id": 4,
        "name": "Bengkulu",
        "lat": -3.7928451,
        "lng": 102.2607641
      },
      "country": {
        "id": 228,
        "name": "INDONESIA",
        "code": "ID"
      },
      "id": 3082,
      "name": "Pasar Saoh",
      "postcode": "38963",
      "lat": -4.787375,
      "lng": 103.3414022
    },
    {
      "suburb": {
        "id": 298,
        "name": "Kaur Selatan",
        "lat": -4.787375,
        "lng": 103.3414022
      },
      "city": {
        "id": 26,
        "name": "Kaur",
        "lat": -4.5215978,
        "lng": 103.2663479
      },
      "province": {
        "id": 4,
        "name": "Bengkulu",
        "lat": -3.7928451,
        "lng": 102.2607641
      },
      "country": {
        "id": 228,
        "name": "INDONESIA",
        "code": "ID"
      },
      "id": 3083,
      "name": "Pengubaian",
      "postcode": "38963",
      "lat": -4.7803063,
      "lng": 103.3154168
    },
    {
      "suburb": {
        "id": 298,
        "name": "Kaur Selatan",
        "lat": -4.787375,
        "lng": 103.3414022
      },
      "city": {
        "id": 26,
        "name": "Kaur",
        "lat": -4.5215978,
        "lng": 103.2663479
      },
      "province": {
        "id": 4,
        "name": "Bengkulu",
        "lat": -3.7928451,
        "lng": 102.2607641
      },
      "country": {
        "id": 228,
        "name": "INDONESIA",
        "code": "ID"
      },
      "id": 3084,
      "name": "Pahlawan Ratu",
      "postcode": "38963",
      "lat": -4.795127,
      "lng": 103.3327398
    },
    {
      "suburb": {
        "id": 298,
        "name": "Kaur Selatan",
        "lat": -4.787375,
        "lng": 103.3414022
      },
      "city": {
        "id": 26,
        "name": "Kaur",
        "lat": -4.5215978,
        "lng": 103.2663479
      },
      "province": {
        "id": 4,
        "name": "Bengkulu",
        "lat": -3.7928451,
        "lng": 102.2607641
      },
      "country": {
        "id": 228,
        "name": "INDONESIA",
        "code": "ID"
      },
      "id": 3085,
      "name": "Pasar Baru",
      "postcode": "38963",
      "lat": -4.7916118,
      "lng": 103.3507872
    },
    {
      "suburb": {
        "id": 298,
        "name": "Kaur Selatan",
        "lat": -4.787375,
        "lng": 103.3414022
      },
      "city": {
        "id": 26,
        "name": "Kaur",
        "lat": -4.5215978,
        "lng": 103.2663479
      },
      "province": {
        "id": 4,
        "name": "Bengkulu",
        "lat": -3.7928451,
        "lng": 102.2607641
      },
      "country": {
        "id": 228,
        "name": "INDONESIA",
        "code": "ID"
      },
      "id": 3086,
      "name": "Pasar Lama",
      "postcode": "38963",
      "lat": -4.7992502,
      "lng": 103.3478994
    },
    {
      "suburb": {
        "id": 298,
        "name": "Kaur Selatan",
        "lat": -4.787375,
        "lng": 103.3414022
      },
      "city": {
        "id": 26,
        "name": "Kaur",
        "lat": -4.5215978,
        "lng": 103.2663479
      },
      "province": {
        "id": 4,
        "name": "Bengkulu",
        "lat": -3.7928451,
        "lng": 102.2607641
      },
      "country": {
        "id": 228,
        "name": "INDONESIA",
        "code": "ID"
      },
      "id": 3087,
      "name": "Padang Petron",
      "postcode": "38963",
      "lat": -4.7795106,
      "lng": 103.3558409
    },
    {
      "suburb": {
        "id": 297,
        "name": "Tetap (Muara Tetap)",
        "lat": -4.711063,
        "lng": 103.3702811
      },
      "city": {
        "id": 26,
        "name": "Kaur",
        "lat": -4.5215978,
        "lng": 103.2663479
      },
      "province": {
        "id": 4,
        "name": "Bengkulu",
        "lat": -3.7928451,
        "lng": 102.2607641
      },
      "country": {
        "id": 228,
        "name": "INDONESIA",
        "code": "ID"
      },
      "id": 3088,
      "name": "Pagar Dewa",
      "postcode": "38963",
      "lat": -4.7496557,
      "lng": 103.3327398
    },
    {
      "suburb": {
        "id": 297,
        "name": "Tetap (Muara Tetap)",
        "lat": -4.711063,
        "lng": 103.3702811
      },
      "city": {
        "id": 26,
        "name": "Kaur",
        "lat": -4.5215978,
        "lng": 103.2663479
      },
      "province": {
        "id": 4,
        "name": "Bengkulu",
        "lat": -3.7928451,
        "lng": 102.2607641
      },
      "country": {
        "id": 228,
        "name": "INDONESIA",
        "code": "ID"
      },
      "id": 3089,
      "name": "Padang Binjai",
      "postcode": "38963",
      "lat": -4.7660998,
      "lng": 103.3312962
    },
    {
      "suburb": {
        "id": 298,
        "name": "Kaur Selatan",
        "lat": -4.787375,
        "lng": 103.3414022
      },
      "city": {
        "id": 26,
        "name": "Kaur",
        "lat": -4.5215978,
        "lng": 103.2663479
      },
      "province": {
        "id": 4,
        "name": "Bengkulu",
        "lat": -3.7928451,
        "lng": 102.2607641
      },
      "country": {
        "id": 228,
        "name": "INDONESIA",
        "code": "ID"
      },
      "id": 3090,
      "name": "Padang Genting",
      "postcode": "38963",
      "lat": -4.787375,
      "lng": 103.3414022
    },
    {
      "suburb": {
        "id": 297,
        "name": "Tetap (Muara Tetap)",
        "lat": -4.711063,
        "lng": 103.3702811
      },
      "city": {
        "id": 26,
        "name": "Kaur",
        "lat": -4.5215978,
        "lng": 103.2663479
      },
      "province": {
        "id": 4,
        "name": "Bengkulu",
        "lat": -3.7928451,
        "lng": 102.2607641
      },
      "country": {
        "id": 228,
        "name": "INDONESIA",
        "code": "ID"
      },
      "id": 3091,
      "name": "Muara Tetap",
      "postcode": "38963",
      "lat": -4.7567557,
      "lng": 103.3247998
    },
    {
      "suburb": {
        "id": 298,
        "name": "Kaur Selatan",
        "lat": -4.787375,
        "lng": 103.3414022
      },
      "city": {
        "id": 26,
        "name": "Kaur",
        "lat": -4.5215978,
        "lng": 103.2663479
      },
      "province": {
        "id": 4,
        "name": "Bengkulu",
        "lat": -3.7928451,
        "lng": 102.2607641
      },
      "country": {
        "id": 228,
        "name": "INDONESIA",
        "code": "ID"
      },
      "id": 3092,
      "name": "Kepala Pasar",
      "postcode": "38963",
      "lat": -4.7953452,
      "lng": 103.353675
    },
    {
      "suburb": {
        "id": 297,
        "name": "Tetap (Muara Tetap)",
        "lat": -4.711063,
        "lng": 103.3702811
      },
      "city": {
        "id": 26,
        "name": "Kaur",
        "lat": -4.5215978,
        "lng": 103.2663479
      },
      "province": {
        "id": 4,
        "name": "Bengkulu",
        "lat": -3.7928451,
        "lng": 102.2607641
      },
      "country": {
        "id": 228,
        "name": "INDONESIA",
        "code": "ID"
      },
      "id": 3093,
      "name": "Kepahyang",
      "postcode": "38963",
      "lat": -4.7643549,
      "lng": 103.3558409
    },
    {
      "suburb": {
        "id": 298,
        "name": "Kaur Selatan",
        "lat": -4.787375,
        "lng": 103.3414022
      },
      "city": {
        "id": 26,
        "name": "Kaur",
        "lat": -4.5215978,
        "lng": 103.2663479
      },
      "province": {
        "id": 4,
        "name": "Bengkulu",
        "lat": -3.7928451,
        "lng": 102.2607641
      },
      "country": {
        "id": 228,
        "name": "INDONESIA",
        "code": "ID"
      },
      "id": 3094,
      "name": "Gedung Sako II",
      "postcode": "38963",
      "lat": -4.7926754,
      "lng": 103.3608948
    },
    {
      "suburb": {
        "id": 298,
        "name": "Kaur Selatan",
        "lat": -4.787375,
        "lng": 103.3414022
      },
      "city": {
        "id": 26,
        "name": "Kaur",
        "lat": -4.5215978,
        "lng": 103.2663479
      },
      "province": {
        "id": 4,
        "name": "Bengkulu",
        "lat": -3.7928451,
        "lng": 102.2607641
      },
      "country": {
        "id": 228,
        "name": "INDONESIA",
        "code": "ID"
      },
      "id": 3095,
      "name": "Jembatan Dua",
      "postcode": "38963",
      "lat": -4.7902342,
      "lng": 103.3565628
    },
    {
      "suburb": {
        "id": 297,
        "name": "Tetap (Muara Tetap)",
        "lat": -4.711063,
        "lng": 103.3702811
      },
      "city": {
        "id": 26,
        "name": "Kaur",
        "lat": -4.5215978,
        "lng": 103.2663479
      },
      "province": {
        "id": 4,
        "name": "Bengkulu",
        "lat": -3.7928451,
        "lng": 102.2607641
      },
      "country": {
        "id": 228,
        "name": "INDONESIA",
        "code": "ID"
      },
      "id": 3096,
      "name": "Kasuk Baru",
      "postcode": "38963",
      "lat": -4.7610482,
      "lng": 103.3312962
    },
    {
      "suburb": {
        "id": 298,
        "name": "Kaur Selatan",
        "lat": -4.787375,
        "lng": 103.3414022
      },
      "city": {
        "id": 26,
        "name": "Kaur",
        "lat": -4.5215978,
        "lng": 103.2663479
      },
      "province": {
        "id": 4,
        "name": "Bengkulu",
        "lat": -3.7928451,
        "lng": 102.2607641
      },
      "country": {
        "id": 228,
        "name": "INDONESIA",
        "code": "ID"
      },
      "id": 3097,
      "name": "Gedung Sako",
      "postcode": "38963",
      "lat": -4.7938532,
      "lng": 103.3652269
    },
    {
      "suburb": {
        "id": 297,
        "name": "Tetap (Muara Tetap)",
        "lat": -4.711063,
        "lng": 103.3702811
      },
      "city": {
        "id": 26,
        "name": "Kaur",
        "lat": -4.5215978,
        "lng": 103.2663479
      },
      "province": {
        "id": 4,
        "name": "Bengkulu",
        "lat": -3.7928451,
        "lng": 102.2607641
      },
      "country": {
        "id": 228,
        "name": "INDONESIA",
        "code": "ID"
      },
      "id": 3098,
      "name": "Cucupan",
      "postcode": "38963",
      "lat": -4.7410157,
      "lng": 103.3226345
    },
    {
      "suburb": {
        "id": 298,
        "name": "Kaur Selatan",
        "lat": -4.787375,
        "lng": 103.3414022
      },
      "city": {
        "id": 26,
        "name": "Kaur",
        "lat": -4.5215978,
        "lng": 103.2663479
      },
      "province": {
        "id": 4,
        "name": "Bengkulu",
        "lat": -3.7928451,
        "lng": 102.2607641
      },
      "country": {
        "id": 228,
        "name": "INDONESIA",
        "code": "ID"
      },
      "id": 3099,
      "name": "Bandar Bintuhan",
      "postcode": "38963",
      "lat": -4.793805,
      "lng": 103.349403
    },
    {
      "suburb": {
        "id": 297,
        "name": "Tetap (Muara Tetap)",
        "lat": -4.711063,
        "lng": 103.3702811
      },
      "city": {
        "id": 26,
        "name": "Kaur",
        "lat": -4.5215978,
        "lng": 103.2663479
      },
      "province": {
        "id": 4,
        "name": "Bengkulu",
        "lat": -3.7928451,
        "lng": 102.2607641
      },
      "country": {
        "id": 228,
        "name": "INDONESIA",
        "code": "ID"
      },
      "id": 3100,
      "name": "Babat",
      "postcode": "38963",
      "lat": -4.7292336,
      "lng": 103.3442898
    },
    {
      "suburb": {
        "id": 298,
        "name": "Kaur Selatan",
        "lat": -4.787375,
        "lng": 103.3414022
      },
      "city": {
        "id": 26,
        "name": "Kaur",
        "lat": -4.5215978,
        "lng": 103.2663479
      },
      "province": {
        "id": 4,
        "name": "Bengkulu",
        "lat": -3.7928451,
        "lng": 102.2607641
      },
      "country": {
        "id": 228,
        "name": "INDONESIA",
        "code": "ID"
      },
      "id": 3101,
      "name": "Air Dingin",
      "postcode": "38963",
      "lat": -4.7931009,
      "lng": 103.347358
    },
    {
      "suburb": {
        "id": 299,
        "name": "Semidang Gumai (Gumay)",
        "lat": -4.6579081,
        "lng": 103.249034
      },
      "city": {
        "id": 26,
        "name": "Kaur",
        "lat": -4.5215978,
        "lng": 103.2663479
      },
      "province": {
        "id": 4,
        "name": "Bengkulu",
        "lat": -3.7928451,
        "lng": 102.2607641
      },
      "country": {
        "id": 228,
        "name": "INDONESIA",
        "code": "ID"
      },
      "id": 3102,
      "name": "Tanjung Harapan",
      "postcode": "38962",
      "lat": -4.6381771,
      "lng": 103.2259525
    },
    {
      "suburb": {
        "id": 300,
        "name": "Kinal",
        "lat": -4.5310144,
        "lng": 103.3009828
      },
      "city": {
        "id": 26,
        "name": "Kaur",
        "lat": -4.5215978,
        "lng": 103.2663479
      },
      "province": {
        "id": 4,
        "name": "Bengkulu",
        "lat": -3.7928451,
        "lng": 102.2607641
      },
      "country": {
        "id": 228,
        "name": "INDONESIA",
        "code": "ID"
      },
      "id": 3103,
      "name": "Tanjung Baru",
      "postcode": "38962",
      "lat": -4.6231398,
      "lng": 103.2879936
    },
    {
      "suburb": {
        "id": 300,
        "name": "Kinal",
        "lat": -4.5310144,
        "lng": 103.3009828
      },
      "city": {
        "id": 26,
        "name": "Kaur",
        "lat": -4.5215978,
        "lng": 103.2663479
      },
      "province": {
        "id": 4,
        "name": "Bengkulu",
        "lat": -3.7928451,
        "lng": 102.2607641
      },
      "country": {
        "id": 228,
        "name": "INDONESIA",
        "code": "ID"
      },
      "id": 3104,
      "name": "Talang Padang",
      "postcode": "38962",
      "lat": -4.5841284,
      "lng": 103.2865504
    },
    {
      "suburb": {
        "id": 300,
        "name": "Kinal",
        "lat": -4.5310144,
        "lng": 103.3009828
      },
      "city": {
        "id": 26,
        "name": "Kaur",
        "lat": -4.5215978,
        "lng": 103.2663479
      },
      "province": {
        "id": 4,
        "name": "Bengkulu",
        "lat": -3.7928451,
        "lng": 102.2607641
      },
      "country": {
        "id": 228,
        "name": "INDONESIA",
        "code": "ID"
      },
      "id": 3105,
      "name": "Tanjung Alam",
      "postcode": "38962",
      "lat": -4.625974,
      "lng": 103.3045911
    },
    {
      "suburb": {
        "id": 300,
        "name": "Kinal",
        "lat": -4.5310144,
        "lng": 103.3009828
      },
      "city": {
        "id": 26,
        "name": "Kaur",
        "lat": -4.5215978,
        "lng": 103.2663479
      },
      "province": {
        "id": 4,
        "name": "Bengkulu",
        "lat": -3.7928451,
        "lng": 102.2607641
      },
      "country": {
        "id": 228,
        "name": "INDONESIA",
        "code": "ID"
      },
      "id": 3106,
      "name": "Pinang Jawa II",
      "postcode": "38962",
      "lat": -4.6054513,
      "lng": 103.29088
    },
    {
      "suburb": {
        "id": 300,
        "name": "Kinal",
        "lat": -4.5310144,
        "lng": 103.3009828
      },
      "city": {
        "id": 26,
        "name": "Kaur",
        "lat": -4.5215978,
        "lng": 103.2663479
      },
      "province": {
        "id": 4,
        "name": "Bengkulu",
        "lat": -3.7928451,
        "lng": 102.2607641
      },
      "country": {
        "id": 228,
        "name": "INDONESIA",
        "code": "ID"
      },
      "id": 3107,
      "name": "Talang Beringin",
      "postcode": "38962",
      "lat": -4.5310144,
      "lng": 103.3009828
    },
    {
      "suburb": {
        "id": 299,
        "name": "Semidang Gumai (Gumay)",
        "lat": -4.6579081,
        "lng": 103.249034
      },
      "city": {
        "id": 26,
        "name": "Kaur",
        "lat": -4.5215978,
        "lng": 103.2663479
      },
      "province": {
        "id": 4,
        "name": "Bengkulu",
        "lat": -3.7928451,
        "lng": 102.2607641
      },
      "country": {
        "id": 228,
        "name": "INDONESIA",
        "code": "ID"
      },
      "id": 3108,
      "name": "Suka Merindu",
      "postcode": "38962",
      "lat": -4.6692839,
      "lng": 103.2475913
    },
    {
      "suburb": {
        "id": 300,
        "name": "Kinal",
        "lat": -4.5310144,
        "lng": 103.3009828
      },
      "city": {
        "id": 26,
        "name": "Kaur",
        "lat": -4.5215978,
        "lng": 103.2663479
      },
      "province": {
        "id": 4,
        "name": "Bengkulu",
        "lat": -3.7928451,
        "lng": 102.2607641
      },
      "country": {
        "id": 228,
        "name": "INDONESIA",
        "code": "ID"
      },
      "id": 3109,
      "name": "Pinang Jawa",
      "postcode": "38962",
      "lat": -4.5977869,
      "lng": 103.2966529
    },
    {
      "suburb": {
        "id": 300,
        "name": "Kinal",
        "lat": -4.5310144,
        "lng": 103.3009828
      },
      "city": {
        "id": 26,
        "name": "Kaur",
        "lat": -4.5215978,
        "lng": 103.2663479
      },
      "province": {
        "id": 4,
        "name": "Bengkulu",
        "lat": -3.7928451,
        "lng": 102.2607641
      },
      "country": {
        "id": 228,
        "name": "INDONESIA",
        "code": "ID"
      },
      "id": 3110,
      "name": "Penandingan",
      "postcode": "38962",
      "lat": -4.6304246,
      "lng": 103.3024261
    },
    {
      "suburb": {
        "id": 300,
        "name": "Kinal",
        "lat": -4.5310144,
        "lng": 103.3009828
      },
      "city": {
        "id": 26,
        "name": "Kaur",
        "lat": -4.5215978,
        "lng": 103.2663479
      },
      "province": {
        "id": 4,
        "name": "Bengkulu",
        "lat": -3.7928451,
        "lng": 102.2607641
      },
      "country": {
        "id": 228,
        "name": "INDONESIA",
        "code": "ID"
      },
      "id": 3111,
      "name": "Pengurung",
      "postcode": "38962",
      "lat": -4.6141307,
      "lng": 103.2980962
    },
    {
      "suburb": {
        "id": 300,
        "name": "Kinal",
        "lat": -4.5310144,
        "lng": 103.3009828
      },
      "city": {
        "id": 26,
        "name": "Kaur",
        "lat": -4.5215978,
        "lng": 103.2663479
      },
      "province": {
        "id": 4,
        "name": "Bengkulu",
        "lat": -3.7928451,
        "lng": 102.2607641
      },
      "country": {
        "id": 228,
        "name": "INDONESIA",
        "code": "ID"
      },
      "id": 3112,
      "name": "Papahan",
      "postcode": "38962",
      "lat": -4.6004142,
      "lng": 103.29088
    },
    {
      "suburb": {
        "id": 299,
        "name": "Semidang Gumai (Gumay)",
        "lat": -4.6579081,
        "lng": 103.249034
      },
      "city": {
        "id": 26,
        "name": "Kaur",
        "lat": -4.5215978,
        "lng": 103.2663479
      },
      "province": {
        "id": 4,
        "name": "Bengkulu",
        "lat": -3.7928451,
        "lng": 102.2607641
      },
      "country": {
        "id": 228,
        "name": "INDONESIA",
        "code": "ID"
      },
      "id": 3113,
      "name": "Padang Panjang",
      "postcode": "38962",
      "lat": -4.6604848,
      "lng": 103.2461486
    },
    {
      "suburb": {
        "id": 299,
        "name": "Semidang Gumai (Gumay)",
        "lat": -4.6579081,
        "lng": 103.249034
      },
      "city": {
        "id": 26,
        "name": "Kaur",
        "lat": -4.5215978,
        "lng": 103.2663479
      },
      "province": {
        "id": 4,
        "name": "Bengkulu",
        "lat": -3.7928451,
        "lng": 102.2607641
      },
      "country": {
        "id": 228,
        "name": "INDONESIA",
        "code": "ID"
      },
      "id": 3114,
      "name": "Mentiring",
      "postcode": "38962",
      "lat": -4.6854865,
      "lng": 103.2576906
    },
    {
      "suburb": {
        "id": 299,
        "name": "Semidang Gumai (Gumay)",
        "lat": -4.6579081,
        "lng": 103.249034
      },
      "city": {
        "id": 26,
        "name": "Kaur",
        "lat": -4.5215978,
        "lng": 103.2663479
      },
      "province": {
        "id": 4,
        "name": "Bengkulu",
        "lat": -3.7928451,
        "lng": 102.2607641
      },
      "country": {
        "id": 228,
        "name": "INDONESIA",
        "code": "ID"
      },
      "id": 3115,
      "name": "Nusuk",
      "postcode": "38962",
      "lat": -4.6404244,
      "lng": 103.2403779
    },
    {
      "suburb": {
        "id": 299,
        "name": "Semidang Gumai (Gumay)",
        "lat": -4.6579081,
        "lng": 103.249034
      },
      "city": {
        "id": 26,
        "name": "Kaur",
        "lat": -4.5215978,
        "lng": 103.2663479
      },
      "province": {
        "id": 4,
        "name": "Bengkulu",
        "lat": -3.7928451,
        "lng": 102.2607641
      },
      "country": {
        "id": 228,
        "name": "INDONESIA",
        "code": "ID"
      },
      "id": 3116,
      "name": "Lubuk Gung",
      "postcode": "38962",
      "lat": -4.6723401,
      "lng": 103.2526408
    },
    {
      "suburb": {
        "id": 299,
        "name": "Semidang Gumai (Gumay)",
        "lat": -4.6579081,
        "lng": 103.249034
      },
      "city": {
        "id": 26,
        "name": "Kaur",
        "lat": -4.5215978,
        "lng": 103.2663479
      },
      "province": {
        "id": 4,
        "name": "Bengkulu",
        "lat": -3.7928451,
        "lng": 102.2607641
      },
      "country": {
        "id": 228,
        "name": "INDONESIA",
        "code": "ID"
      },
      "id": 3117,
      "name": "Masria Baru",
      "postcode": "38962",
      "lat": -4.6579081,
      "lng": 103.249034
    },
    {
      "suburb": {
        "id": 299,
        "name": "Semidang Gumai (Gumay)",
        "lat": -4.6579081,
        "lng": 103.249034
      },
      "city": {
        "id": 26,
        "name": "Kaur",
        "lat": -4.5215978,
        "lng": 103.2663479
      },
      "province": {
        "id": 4,
        "name": "Bengkulu",
        "lat": -3.7928451,
        "lng": 102.2607641
      },
      "country": {
        "id": 228,
        "name": "INDONESIA",
        "code": "ID"
      },
      "id": 3118,
      "name": "Gunung Tiga II",
      "postcode": "38962",
      "lat": -4.6690082,
      "lng": 103.2620192
    },
    {
      "suburb": {
        "id": 299,
        "name": "Semidang Gumai (Gumay)",
        "lat": -4.6579081,
        "lng": 103.249034
      },
      "city": {
        "id": 26,
        "name": "Kaur",
        "lat": -4.5215978,
        "lng": 103.2663479
      },
      "province": {
        "id": 4,
        "name": "Bengkulu",
        "lat": -3.7928451,
        "lng": 102.2607641
      },
      "country": {
        "id": 228,
        "name": "INDONESIA",
        "code": "ID"
      },
      "id": 3119,
      "name": "Karang Dapo",
      "postcode": "38962",
      "lat": -4.6650875,
      "lng": 103.2692337
    },
    {
      "suburb": {
        "id": 300,
        "name": "Kinal",
        "lat": -4.5310144,
        "lng": 103.3009828
      },
      "city": {
        "id": 26,
        "name": "Kaur",
        "lat": -4.5215978,
        "lng": 103.2663479
      },
      "province": {
        "id": 4,
        "name": "Bengkulu",
        "lat": -3.7928451,
        "lng": 102.2607641
      },
      "country": {
        "id": 228,
        "name": "INDONESIA",
        "code": "ID"
      },
      "id": 3120,
      "name": "Jawi",
      "postcode": "38962",
      "lat": -4.6396568,
      "lng": 103.2807779
    },
    {
      "suburb": {
        "id": 299,
        "name": "Semidang Gumai (Gumay)",
        "lat": -4.6579081,
        "lng": 103.249034
      },
      "city": {
        "id": 26,
        "name": "Kaur",
        "lat": -4.5215978,
        "lng": 103.2663479
      },
      "province": {
        "id": 4,
        "name": "Bengkulu",
        "lat": -3.7928451,
        "lng": 102.2607641
      },
      "country": {
        "id": 228,
        "name": "INDONESIA",
        "code": "ID"
      },
      "id": 3121,
      "name": "Gunung Tiga",
      "postcode": "38962",
      "lat": -4.6741076,
      "lng": 103.2591334
    },
    {
      "suburb": {
        "id": 300,
        "name": "Kinal",
        "lat": -4.5310144,
        "lng": 103.3009828
      },
      "city": {
        "id": 26,
        "name": "Kaur",
        "lat": -4.5215978,
        "lng": 103.2663479
      },
      "province": {
        "id": 4,
        "name": "Bengkulu",
        "lat": -3.7928451,
        "lng": 102.2607641
      },
      "country": {
        "id": 228,
        "name": "INDONESIA",
        "code": "ID"
      },
      "id": 3122,
      "name": "Gunung Megang",
      "postcode": "38962",
      "lat": -4.4907892,
      "lng": 103.3009828
    },
    {
      "suburb": {
        "id": 300,
        "name": "Kinal",
        "lat": -4.5310144,
        "lng": 103.3009828
      },
      "city": {
        "id": 26,
        "name": "Kaur",
        "lat": -4.5215978,
        "lng": 103.2663479
      },
      "province": {
        "id": 4,
        "name": "Bengkulu",
        "lat": -3.7928451,
        "lng": 102.2607641
      },
      "country": {
        "id": 228,
        "name": "INDONESIA",
        "code": "ID"
      },
      "id": 3123,
      "name": "Gunung Terang",
      "postcode": "38962",
      "lat": -4.5935462,
      "lng": 103.3211909
    },
    {
      "suburb": {
        "id": 300,
        "name": "Kinal",
        "lat": -4.5310144,
        "lng": 103.3009828
      },
      "city": {
        "id": 26,
        "name": "Kaur",
        "lat": -4.5215978,
        "lng": 103.2663479
      },
      "province": {
        "id": 4,
        "name": "Bengkulu",
        "lat": -3.7928451,
        "lng": 102.2607641
      },
      "country": {
        "id": 228,
        "name": "INDONESIA",
        "code": "ID"
      },
      "id": 3124,
      "name": "Geramat",
      "postcode": "38962",
      "lat": -4.6258785,
      "lng": 103.2764487
    },
    {
      "suburb": {
        "id": 300,
        "name": "Kinal",
        "lat": -4.5310144,
        "lng": 103.3009828
      },
      "city": {
        "id": 26,
        "name": "Kaur",
        "lat": -4.5215978,
        "lng": 103.2663479
      },
      "province": {
        "id": 4,
        "name": "Bengkulu",
        "lat": -3.7928451,
        "lng": 102.2607641
      },
      "country": {
        "id": 228,
        "name": "INDONESIA",
        "code": "ID"
      },
      "id": 3125,
      "name": "Gedung Wani",
      "postcode": "38962",
      "lat": -4.6334384,
      "lng": 103.2764487
    },
    {
      "suburb": {
        "id": 299,
        "name": "Semidang Gumai (Gumay)",
        "lat": -4.6579081,
        "lng": 103.249034
      },
      "city": {
        "id": 26,
        "name": "Kaur",
        "lat": -4.5215978,
        "lng": 103.2663479
      },
      "province": {
        "id": 4,
        "name": "Bengkulu",
        "lat": -3.7928451,
        "lng": 102.2607641
      },
      "country": {
        "id": 228,
        "name": "INDONESIA",
        "code": "ID"
      },
      "id": 3126,
      "name": "Cahaya Batin",
      "postcode": "38962",
      "lat": -4.6903106,
      "lng": 103.2692337
    },
    {
      "suburb": {
        "id": 299,
        "name": "Semidang Gumai (Gumay)",
        "lat": -4.6579081,
        "lng": 103.249034
      },
      "city": {
        "id": 26,
        "name": "Kaur",
        "lat": -4.5215978,
        "lng": 103.2663479
      },
      "province": {
        "id": 4,
        "name": "Bengkulu",
        "lat": -3.7928451,
        "lng": 102.2607641
      },
      "country": {
        "id": 228,
        "name": "INDONESIA",
        "code": "ID"
      },
      "id": 3127,
      "name": "Bunga Melur",
      "postcode": "38962",
      "lat": -4.6547813,
      "lng": 103.2807779
    },
    {
      "suburb": {
        "id": 299,
        "name": "Semidang Gumai (Gumay)",
        "lat": -4.6579081,
        "lng": 103.249034
      },
      "city": {
        "id": 26,
        "name": "Kaur",
        "lat": -4.5215978,
        "lng": 103.2663479
      },
      "province": {
        "id": 4,
        "name": "Bengkulu",
        "lat": -3.7928451,
        "lng": 102.2607641
      },
      "country": {
        "id": 228,
        "name": "INDONESIA",
        "code": "ID"
      },
      "id": 3128,
      "name": "Awat Mata",
      "postcode": "38962",
      "lat": -4.6607047,
      "lng": 103.2346076
    },
    {
      "suburb": {
        "id": 301,
        "name": "Muara Sahung",
        "lat": -4.459154,
        "lng": 103.3818345
      },
      "city": {
        "id": 26,
        "name": "Kaur",
        "lat": -4.5215978,
        "lng": 103.2663479
      },
      "province": {
        "id": 4,
        "name": "Bengkulu",
        "lat": -3.7928451,
        "lng": 102.2607641
      },
      "country": {
        "id": 228,
        "name": "INDONESIA",
        "code": "ID"
      },
      "id": 3129,
      "name": "Ulak Lebar",
      "postcode": "38961",
      "lat": -4.4292441,
      "lng": 103.3702811
    },
    {
      "suburb": {
        "id": 302,
        "name": "Luas",
        "lat": -4.6612942,
        "lng": 103.3356272
      },
      "city": {
        "id": 26,
        "name": "Kaur",
        "lat": -4.5215978,
        "lng": 103.2663479
      },
      "province": {
        "id": 4,
        "name": "Bengkulu",
        "lat": -3.7928451,
        "lng": 102.2607641
      },
      "country": {
        "id": 228,
        "name": "INDONESIA",
        "code": "ID"
      },
      "id": 3130,
      "name": "Umbul",
      "postcode": "38961",
      "lat": -4.6758443,
      "lng": 103.3164994
    },
    {
      "suburb": {
        "id": 301,
        "name": "Muara Sahung",
        "lat": -4.459154,
        "lng": 103.3818345
      },
      "city": {
        "id": 26,
        "name": "Kaur",
        "lat": -4.5215978,
        "lng": 103.2663479
      },
      "province": {
        "id": 4,
        "name": "Bengkulu",
        "lat": -3.7928451,
        "lng": 102.2607641
      },
      "country": {
        "id": 228,
        "name": "INDONESIA",
        "code": "ID"
      },
      "id": 3131,
      "name": "Ulak Bandung",
      "postcode": "38961",
      "lat": -4.3882676,
      "lng": 103.416501
    },
    {
      "suburb": {
        "id": 302,
        "name": "Luas",
        "lat": -4.6612942,
        "lng": 103.3356272
      },
      "city": {
        "id": 26,
        "name": "Kaur",
        "lat": -4.5215978,
        "lng": 103.2663479
      },
      "province": {
        "id": 4,
        "name": "Bengkulu",
        "lat": -3.7928451,
        "lng": 102.2607641
      },
      "country": {
        "id": 228,
        "name": "INDONESIA",
        "code": "ID"
      },
      "id": 3132,
      "name": "Tuguk (Puguk)",
      "postcode": "38961",
      "lat": -4.6896441,
      "lng": 103.3038695
    },
    {
      "suburb": {
        "id": 301,
        "name": "Muara Sahung",
        "lat": -4.459154,
        "lng": 103.3818345
      },
      "city": {
        "id": 26,
        "name": "Kaur",
        "lat": -4.5215978,
        "lng": 103.2663479
      },
      "province": {
        "id": 4,
        "name": "Bengkulu",
        "lat": -3.7928451,
        "lng": 102.2607641
      },
      "country": {
        "id": 228,
        "name": "INDONESIA",
        "code": "ID"
      },
      "id": 3133,
      "name": "Tri Tunggal Bhakti",
      "postcode": "38961",
      "lat": -4.547812,
      "lng": 103.3442898
    },
    {
      "suburb": {
        "id": 303,
        "name": "Kaur Tengah",
        "lat": -4.7124078,
        "lng": 103.3009828
      },
      "city": {
        "id": 26,
        "name": "Kaur",
        "lat": -4.5215978,
        "lng": 103.2663479
      },
      "province": {
        "id": 4,
        "name": "Bengkulu",
        "lat": -3.7928451,
        "lng": 102.2607641
      },
      "country": {
        "id": 228,
        "name": "INDONESIA",
        "code": "ID"
      },
      "id": 3134,
      "name": "Tanjung Pandan",
      "postcode": "38961",
      "lat": -4.7000695,
      "lng": 103.2865504
    },
    {
      "suburb": {
        "id": 301,
        "name": "Muara Sahung",
        "lat": -4.459154,
        "lng": 103.3818345
      },
      "city": {
        "id": 26,
        "name": "Kaur",
        "lat": -4.5215978,
        "lng": 103.2663479
      },
      "province": {
        "id": 4,
        "name": "Bengkulu",
        "lat": -3.7928451,
        "lng": 102.2607641
      },
      "country": {
        "id": 228,
        "name": "INDONESIA",
        "code": "ID"
      },
      "id": 3135,
      "name": "Sumber Makmur",
      "postcode": "38961",
      "lat": -4.5856115,
      "lng": 103.3414022
    },
    {
      "suburb": {
        "id": 302,
        "name": "Luas",
        "lat": -4.6612942,
        "lng": 103.3356272
      },
      "city": {
        "id": 26,
        "name": "Kaur",
        "lat": -4.5215978,
        "lng": 103.2663479
      },
      "province": {
        "id": 4,
        "name": "Bengkulu",
        "lat": -3.7928451,
        "lng": 102.2607641
      },
      "country": {
        "id": 228,
        "name": "INDONESIA",
        "code": "ID"
      },
      "id": 3136,
      "name": "Tanjung Beringin",
      "postcode": "38961",
      "lat": -4.6689878,
      "lng": 103.3206496
    },
    {
      "suburb": {
        "id": 303,
        "name": "Kaur Tengah",
        "lat": -4.7124078,
        "lng": 103.3009828
      },
      "city": {
        "id": 26,
        "name": "Kaur",
        "lat": -4.5215978,
        "lng": 103.2663479
      },
      "province": {
        "id": 4,
        "name": "Bengkulu",
        "lat": -3.7928451,
        "lng": 102.2607641
      },
      "country": {
        "id": 228,
        "name": "INDONESIA",
        "code": "ID"
      },
      "id": 3137,
      "name": "Tanjung Iman",
      "postcode": "38961",
      "lat": -4.7062385,
      "lng": 103.2937664
    },
    {
      "suburb": {
        "id": 303,
        "name": "Kaur Tengah",
        "lat": -4.7124078,
        "lng": 103.3009828
      },
      "city": {
        "id": 26,
        "name": "Kaur",
        "lat": -4.5215978,
        "lng": 103.2663479
      },
      "province": {
        "id": 4,
        "name": "Bengkulu",
        "lat": -3.7928451,
        "lng": 102.2607641
      },
      "country": {
        "id": 228,
        "name": "INDONESIA",
        "code": "ID"
      },
      "id": 3138,
      "name": "Sukarami",
      "postcode": "38961",
      "lat": -4.7124078,
      "lng": 103.3009828
    },
    {
      "suburb": {
        "id": 302,
        "name": "Luas",
        "lat": -4.6612942,
        "lng": 103.3356272
      },
      "city": {
        "id": 26,
        "name": "Kaur",
        "lat": -4.5215978,
        "lng": 103.2663479
      },
      "province": {
        "id": 4,
        "name": "Bengkulu",
        "lat": -3.7928451,
        "lng": 102.2607641
      },
      "country": {
        "id": 228,
        "name": "INDONESIA",
        "code": "ID"
      },
      "id": 3139,
      "name": "Pulang Panggung",
      "postcode": "38961",
      "lat": -4.6299476,
      "lng": 103.393389
    },
    {
      "suburb": {
        "id": 303,
        "name": "Kaur Tengah",
        "lat": -4.7124078,
        "lng": 103.3009828
      },
      "city": {
        "id": 26,
        "name": "Kaur",
        "lat": -4.5215978,
        "lng": 103.2663479
      },
      "province": {
        "id": 4,
        "name": "Bengkulu",
        "lat": -3.7928451,
        "lng": 102.2607641
      },
      "country": {
        "id": 228,
        "name": "INDONESIA",
        "code": "ID"
      },
      "id": 3140,
      "name": "Sinar Jaya",
      "postcode": "38961",
      "lat": -4.6985016,
      "lng": 103.3024261
    },
    {
      "suburb": {
        "id": 303,
        "name": "Kaur Tengah",
        "lat": -4.7124078,
        "lng": 103.3009828
      },
      "city": {
        "id": 26,
        "name": "Kaur",
        "lat": -4.5215978,
        "lng": 103.2663479
      },
      "province": {
        "id": 4,
        "name": "Bengkulu",
        "lat": -3.7928451,
        "lng": 102.2607641
      },
      "country": {
        "id": 228,
        "name": "INDONESIA",
        "code": "ID"
      },
      "id": 3141,
      "name": "Pajar Bulan",
      "postcode": "38961",
      "lat": -4.7199233,
      "lng": 103.3038695
    },
    {
      "suburb": {
        "id": 303,
        "name": "Kaur Tengah",
        "lat": -4.7124078,
        "lng": 103.3009828
      },
      "city": {
        "id": 26,
        "name": "Kaur",
        "lat": -4.5215978,
        "lng": 103.2663479
      },
      "province": {
        "id": 4,
        "name": "Bengkulu",
        "lat": -3.7928451,
        "lng": 102.2607641
      },
      "country": {
        "id": 228,
        "name": "INDONESIA",
        "code": "ID"
      },
      "id": 3142,
      "name": "Penyandingan",
      "postcode": "38961",
      "lat": -4.7120142,
      "lng": 103.2887152
    },
    {
      "suburb": {
        "id": 303,
        "name": "Kaur Tengah",
        "lat": -4.7124078,
        "lng": 103.3009828
      },
      "city": {
        "id": 26,
        "name": "Kaur",
        "lat": -4.5215978,
        "lng": 103.2663479
      },
      "province": {
        "id": 4,
        "name": "Bengkulu",
        "lat": -3.7928451,
        "lng": 102.2607641
      },
      "country": {
        "id": 228,
        "name": "INDONESIA",
        "code": "ID"
      },
      "id": 3143,
      "name": "Padang Hangat",
      "postcode": "38961",
      "lat": -4.7136976,
      "lng": 103.2995395
    },
    {
      "suburb": {
        "id": 302,
        "name": "Luas",
        "lat": -4.6612942,
        "lng": 103.3356272
      },
      "city": {
        "id": 26,
        "name": "Kaur",
        "lat": -4.5215978,
        "lng": 103.2663479
      },
      "province": {
        "id": 4,
        "name": "Bengkulu",
        "lat": -3.7928451,
        "lng": 102.2607641
      },
      "country": {
        "id": 228,
        "name": "INDONESIA",
        "code": "ID"
      },
      "id": 3144,
      "name": "Padang Jati",
      "postcode": "38961",
      "lat": -4.6645529,
      "lng": 103.3136125
    },
    {
      "suburb": {
        "id": 301,
        "name": "Muara Sahung",
        "lat": -4.459154,
        "lng": 103.3818345
      },
      "city": {
        "id": 26,
        "name": "Kaur",
        "lat": -4.5215978,
        "lng": 103.2663479
      },
      "province": {
        "id": 4,
        "name": "Bengkulu",
        "lat": -3.7928451,
        "lng": 102.2607641
      },
      "country": {
        "id": 228,
        "name": "INDONESIA",
        "code": "ID"
      },
      "id": 3145,
      "name": "Muara Sahung",
      "postcode": "38961",
      "lat": -4.537535,
      "lng": 103.3558409
    },
    {
      "suburb": {
        "id": 303,
        "name": "Kaur Tengah",
        "lat": -4.7124078,
        "lng": 103.3009828
      },
      "city": {
        "id": 26,
        "name": "Kaur",
        "lat": -4.5215978,
        "lng": 103.2663479
      },
      "province": {
        "id": 4,
        "name": "Bengkulu",
        "lat": -3.7928451,
        "lng": 102.2607641
      },
      "country": {
        "id": 228,
        "name": "INDONESIA",
        "code": "ID"
      },
      "id": 3146,
      "name": "Padang Baru",
      "postcode": "38961",
      "lat": -4.6849324,
      "lng": 103.2865504
    },
    {
      "suburb": {
        "id": 303,
        "name": "Kaur Tengah",
        "lat": -4.7124078,
        "lng": 103.3009828
      },
      "city": {
        "id": 26,
        "name": "Kaur",
        "lat": -4.5215978,
        "lng": 103.2663479
      },
      "province": {
        "id": 4,
        "name": "Bengkulu",
        "lat": -3.7928451,
        "lng": 102.2607641
      },
      "country": {
        "id": 228,
        "name": "INDONESIA",
        "code": "ID"
      },
      "id": 3147,
      "name": "Kemang Manis",
      "postcode": "38961",
      "lat": -4.7164449,
      "lng": 103.2879936
    },
    {
      "suburb": {
        "id": 302,
        "name": "Luas",
        "lat": -4.6612942,
        "lng": 103.3356272
      },
      "city": {
        "id": 26,
        "name": "Kaur",
        "lat": -4.5215978,
        "lng": 103.2663479
      },
      "province": {
        "id": 4,
        "name": "Bengkulu",
        "lat": -3.7928451,
        "lng": 102.2607641
      },
      "country": {
        "id": 228,
        "name": "INDONESIA",
        "code": "ID"
      },
      "id": 3148,
      "name": "Kepahyang",
      "postcode": "38961",
      "lat": -4.6556982,
      "lng": 103.3645048
    },
    {
      "suburb": {
        "id": 302,
        "name": "Luas",
        "lat": -4.6612942,
        "lng": 103.3356272
      },
      "city": {
        "id": 26,
        "name": "Kaur",
        "lat": -4.5215978,
        "lng": 103.2663479
      },
      "province": {
        "id": 4,
        "name": "Bengkulu",
        "lat": -3.7928451,
        "lng": 102.2607641
      },
      "country": {
        "id": 228,
        "name": "INDONESIA",
        "code": "ID"
      },
      "id": 3149,
      "name": "Durian Besar",
      "postcode": "38961",
      "lat": -4.6723007,
      "lng": 103.3204691
    },
    {
      "suburb": {
        "id": 302,
        "name": "Luas",
        "lat": -4.6612942,
        "lng": 103.3356272
      },
      "city": {
        "id": 26,
        "name": "Kaur",
        "lat": -4.5215978,
        "lng": 103.2663479
      },
      "province": {
        "id": 4,
        "name": "Bengkulu",
        "lat": -3.7928451,
        "lng": 102.2607641
      },
      "country": {
        "id": 228,
        "name": "INDONESIA",
        "code": "ID"
      },
      "id": 3150,
      "name": "Ganda Suli (Gindo Suli)",
      "postcode": "38961",
      "lat": -4.6694675,
      "lng": 103.3038695
    },
    {
      "suburb": {
        "id": 302,
        "name": "Luas",
        "lat": -4.6612942,
        "lng": 103.3356272
      },
      "city": {
        "id": 26,
        "name": "Kaur",
        "lat": -4.5215978,
        "lng": 103.2663479
      },
      "province": {
        "id": 4,
        "name": "Bengkulu",
        "lat": -3.7928451,
        "lng": 102.2607641
      },
      "country": {
        "id": 228,
        "name": "INDONESIA",
        "code": "ID"
      },
      "id": 3151,
      "name": "Cahaya Negeri/Negri",
      "postcode": "38961",
      "lat": -4.6787765,
      "lng": 103.3442898
    },
    {
      "suburb": {
        "id": 301,
        "name": "Muara Sahung",
        "lat": -4.459154,
        "lng": 103.3818345
      },
      "city": {
        "id": 26,
        "name": "Kaur",
        "lat": -4.5215978,
        "lng": 103.2663479
      },
      "province": {
        "id": 4,
        "name": "Bengkulu",
        "lat": -3.7928451,
        "lng": 102.2607641
      },
      "country": {
        "id": 228,
        "name": "INDONESIA",
        "code": "ID"
      },
      "id": 3152,
      "name": "Bukit Makmur",
      "postcode": "38961",
      "lat": -4.5489692,
      "lng": 103.416501
    },
    {
      "suburb": {
        "id": 301,
        "name": "Muara Sahung",
        "lat": -4.459154,
        "lng": 103.3818345
      },
      "city": {
        "id": 26,
        "name": "Kaur",
        "lat": -4.5215978,
        "lng": 103.2663479
      },
      "province": {
        "id": 4,
        "name": "Bengkulu",
        "lat": -3.7928451,
        "lng": 102.2607641
      },
      "country": {
        "id": 228,
        "name": "INDONESIA",
        "code": "ID"
      },
      "id": 3153,
      "name": "Cinta Makmur",
      "postcode": "38961",
      "lat": -4.5883404,
      "lng": 103.4627375
    },
    {
      "suburb": {
        "id": 302,
        "name": "Luas",
        "lat": -4.6612942,
        "lng": 103.3356272
      },
      "city": {
        "id": 26,
        "name": "Kaur",
        "lat": -4.5215978,
        "lng": 103.2663479
      },
      "province": {
        "id": 4,
        "name": "Bengkulu",
        "lat": -3.7928451,
        "lng": 102.2607641
      },
      "country": {
        "id": 228,
        "name": "INDONESIA",
        "code": "ID"
      },
      "id": 3154,
      "name": "Bangun Jiwa",
      "postcode": "38961",
      "lat": -4.6636487,
      "lng": 103.3442898
    },
    {
      "suburb": {
        "id": 302,
        "name": "Luas",
        "lat": -4.6612942,
        "lng": 103.3356272
      },
      "city": {
        "id": 26,
        "name": "Kaur",
        "lat": -4.5215978,
        "lng": 103.2663479
      },
      "province": {
        "id": 4,
        "name": "Bengkulu",
        "lat": -3.7928451,
        "lng": 102.2607641
      },
      "country": {
        "id": 228,
        "name": "INDONESIA",
        "code": "ID"
      },
      "id": 3155,
      "name": "Benua Ratu",
      "postcode": "38961",
      "lat": -4.6866208,
      "lng": 103.3298525
    },
    {
      "suburb": {
        "id": 304,
        "name": "Padang Guci Hilir",
        "lat": -4.5036017,
        "lng": 103.1509672
      },
      "city": {
        "id": 26,
        "name": "Kaur",
        "lat": -4.5215978,
        "lng": 103.2663479
      },
      "province": {
        "id": 4,
        "name": "Bengkulu",
        "lat": -3.7928451,
        "lng": 102.2607641
      },
      "country": {
        "id": 228,
        "name": "INDONESIA",
        "code": "ID"
      },
      "id": 3156,
      "name": "Ulak Agung",
      "postcode": "38956",
      "lat": -4.5344279,
      "lng": 103.1163739
    },
    {
      "suburb": {
        "id": 305,
        "name": "Lungkang Kule",
        "lat": -4.5672095,
        "lng": 103.249034
      },
      "city": {
        "id": 26,
        "name": "Kaur",
        "lat": -4.5215978,
        "lng": 103.2663479
      },
      "province": {
        "id": 4,
        "name": "Bengkulu",
        "lat": -3.7928451,
        "lng": 102.2607641
      },
      "country": {
        "id": 228,
        "name": "INDONESIA",
        "code": "ID"
      },
      "id": 3157,
      "name": "Tanjung Kurung",
      "postcode": "38956",
      "lat": -4.5243801,
      "lng": 103.2519195
    },
    {
      "suburb": {
        "id": 306,
        "name": "Kelam Tengah",
        "lat": -4.5729987,
        "lng": 103.2086442
      },
      "city": {
        "id": 26,
        "name": "Kaur",
        "lat": -4.5215978,
        "lng": 103.2663479
      },
      "province": {
        "id": 4,
        "name": "Bengkulu",
        "lat": -3.7928451,
        "lng": 102.2607641
      },
      "country": {
        "id": 228,
        "name": "INDONESIA",
        "code": "ID"
      },
      "id": 3158,
      "name": "Tanjung Ganti I",
      "postcode": "38956",
      "lat": -4.5438101,
      "lng": 103.2216252
    },
    {
      "suburb": {
        "id": 306,
        "name": "Kelam Tengah",
        "lat": -4.5729987,
        "lng": 103.2086442
      },
      "city": {
        "id": 26,
        "name": "Kaur",
        "lat": -4.5215978,
        "lng": 103.2663479
      },
      "province": {
        "id": 4,
        "name": "Bengkulu",
        "lat": -3.7928451,
        "lng": 102.2607641
      },
      "country": {
        "id": 228,
        "name": "INDONESIA",
        "code": "ID"
      },
      "id": 3159,
      "name": "Tanjung Ganti II",
      "postcode": "38956",
      "lat": -4.5362614,
      "lng": 103.2216252
    },
    {
      "suburb": {
        "id": 307,
        "name": "Kaur Utara",
        "lat": -4.4924873,
        "lng": 103.2086442
      },
      "city": {
        "id": 26,
        "name": "Kaur",
        "lat": -4.5215978,
        "lng": 103.2663479
      },
      "province": {
        "id": 4,
        "name": "Bengkulu",
        "lat": -3.7928451,
        "lng": 102.2607641
      },
      "country": {
        "id": 228,
        "name": "INDONESIA",
        "code": "ID"
      },
      "id": 3160,
      "name": "Tanjung Betung I",
      "postcode": "38956",
      "lat": -4.4646823,
      "lng": 103.217298
    },
    {
      "suburb": {
        "id": 307,
        "name": "Kaur Utara",
        "lat": -4.4924873,
        "lng": 103.2086442
      },
      "city": {
        "id": 26,
        "name": "Kaur",
        "lat": -4.5215978,
        "lng": 103.2663479
      },
      "province": {
        "id": 4,
        "name": "Bengkulu",
        "lat": -3.7928451,
        "lng": 102.2607641
      },
      "country": {
        "id": 228,
        "name": "INDONESIA",
        "code": "ID"
      },
      "id": 3161,
      "name": "Tanjung Betung II",
      "postcode": "38956",
      "lat": -4.4075971,
      "lng": 103.1798024
    },
    {
      "suburb": {
        "id": 305,
        "name": "Lungkang Kule",
        "lat": -4.5672095,
        "lng": 103.249034
      },
      "city": {
        "id": 26,
        "name": "Kaur",
        "lat": -4.5215978,
        "lng": 103.2663479
      },
      "province": {
        "id": 4,
        "name": "Bengkulu",
        "lat": -3.7928451,
        "lng": 102.2607641
      },
      "country": {
        "id": 228,
        "name": "INDONESIA",
        "code": "ID"
      },
      "id": 3162,
      "name": "Tanjung Bunian",
      "postcode": "38956",
      "lat": -4.5649616,
      "lng": 103.2346076
    },
    {
      "suburb": {
        "id": 304,
        "name": "Padang Guci Hilir",
        "lat": -4.5036017,
        "lng": 103.1509672
      },