{
  "metadata": {
    "path": "/v3/location/areas?limit=1000&page=20",
    "http_status_code": 200,
    "http_status": "OK",
    "timestamp": 1647335030
  },
  "data": [
    {
      "suburb": {
        "id": 1726,
        "name": "Sampang",
        "lat": -7.5782556,
        "lng": 109.2058436
      },
      "city": {
        "id": 102,
        "name": "Cilacap",
        "lat": -7.6178096,
        "lng": 108.902683
      },
      "province": {
        "id": 10,
        "name": "Jawa Tengah",
        "lat": -7.150975,
        "lng": 110.1402594
      },
      "country": {
        "id": 228,
        "name": "INDONESIA",
        "code": "ID"
      },
      "id": 19001,
      "name": "Ketanggung",
      "postcode": "53273",
      "lat": -7.59564,
      "lng": 109.1924644
    },
    {
      "suburb": {
        "id": 1726,
        "name": "Sampang",
        "lat": -7.5782556,
        "lng": 109.2058436
      },
      "city": {
        "id": 102,
        "name": "Cilacap",
        "lat": -7.6178096,
        "lng": 108.902683
      },
      "province": {
        "id": 10,
        "name": "Jawa Tengah",
        "lat": -7.150975,
        "lng": 110.1402594
      },
      "country": {
        "id": 228,
        "name": "INDONESIA",
        "code": "ID"
      },
      "id": 19002,
      "name": "Karangjati",
      "postcode": "53273",
      "lat": -7.585319,
      "lng": 109.2207098
    },
    {
      "suburb": {
        "id": 1726,
        "name": "Sampang",
        "lat": -7.5782556,
        "lng": 109.2058436
      },
      "city": {
        "id": 102,
        "name": "Cilacap",
        "lat": -7.6178096,
        "lng": 108.902683
      },
      "province": {
        "id": 10,
        "name": "Jawa Tengah",
        "lat": -7.150975,
        "lng": 110.1402594
      },
      "country": {
        "id": 228,
        "name": "INDONESIA",
        "code": "ID"
      },
      "id": 19003,
      "name": "Karangtengah",
      "postcode": "53273",
      "lat": -7.5714614,
      "lng": 109.1850317
    },
    {
      "suburb": {
        "id": 1726,
        "name": "Sampang",
        "lat": -7.5782556,
        "lng": 109.2058436
      },
      "city": {
        "id": 102,
        "name": "Cilacap",
        "lat": -7.6178096,
        "lng": 108.902683
      },
      "province": {
        "id": 10,
        "name": "Jawa Tengah",
        "lat": -7.150975,
        "lng": 110.1402594
      },
      "country": {
        "id": 228,
        "name": "INDONESIA",
        "code": "ID"
      },
      "id": 19004,
      "name": "Brani",
      "postcode": "53273",
      "lat": -7.5565206,
      "lng": 109.1731396
    },
    {
      "suburb": {
        "id": 1726,
        "name": "Sampang",
        "lat": -7.5782556,
        "lng": 109.2058436
      },
      "city": {
        "id": 102,
        "name": "Cilacap",
        "lat": -7.6178096,
        "lng": 108.902683
      },
      "province": {
        "id": 10,
        "name": "Jawa Tengah",
        "lat": -7.150975,
        "lng": 110.1402594
      },
      "country": {
        "id": 228,
        "name": "INDONESIA",
        "code": "ID"
      },
      "id": 19005,
      "name": "Karangasem",
      "postcode": "53273",
      "lat": -7.5701092,
      "lng": 109.2147632
    },
    {
      "suburb": {
        "id": 1727,
        "name": "Maos",
        "lat": -7.6010706,
        "lng": 109.158275
      },
      "city": {
        "id": 102,
        "name": "Cilacap",
        "lat": -7.6178096,
        "lng": 108.902683
      },
      "province": {
        "id": 10,
        "name": "Jawa Tengah",
        "lat": -7.150975,
        "lng": 110.1402594
      },
      "country": {
        "id": 228,
        "name": "INDONESIA",
        "code": "ID"
      },
      "id": 19006,
      "name": "Maos Lor",
      "postcode": "53272",
      "lat": -7.6010706,
      "lng": 109.158275
    },
    {
      "suburb": {
        "id": 1727,
        "name": "Maos",
        "lat": -7.6010706,
        "lng": 109.158275
      },
      "city": {
        "id": 102,
        "name": "Cilacap",
        "lat": -7.6178096,
        "lng": 108.902683
      },
      "province": {
        "id": 10,
        "name": "Jawa Tengah",
        "lat": -7.150975,
        "lng": 110.1402594
      },
      "country": {
        "id": 228,
        "name": "INDONESIA",
        "code": "ID"
      },
      "id": 19007,
      "name": "Mernek",
      "postcode": "53272",
      "lat": -7.6179234,
      "lng": 109.1850317
    },
    {
      "suburb": {
        "id": 1727,
        "name": "Maos",
        "lat": -7.6010706,
        "lng": 109.158275
      },
      "city": {
        "id": 102,
        "name": "Cilacap",
        "lat": -7.6178096,
        "lng": 108.902683
      },
      "province": {
        "id": 10,
        "name": "Jawa Tengah",
        "lat": -7.150975,
        "lng": 110.1402594
      },
      "country": {
        "id": 228,
        "name": "INDONESIA",
        "code": "ID"
      },
      "id": 19008,
      "name": "Penisihan",
      "postcode": "53272",
      "lat": -7.5882979,
      "lng": 109.1553021
    },
    {
      "suburb": {
        "id": 1727,
        "name": "Maos",
        "lat": -7.6010706,
        "lng": 109.158275
      },
      "city": {
        "id": 102,
        "name": "Cilacap",
        "lat": -7.6178096,
        "lng": 108.902683
      },
      "province": {
        "id": 10,
        "name": "Jawa Tengah",
        "lat": -7.150975,
        "lng": 110.1402594
      },
      "country": {
        "id": 228,
        "name": "INDONESIA",
        "code": "ID"
      },
      "id": 19009,
      "name": "Klapagada",
      "postcode": "53272",
      "lat": -7.6181938,
      "lng": 109.1508428
    },
    {
      "suburb": {
        "id": 1727,
        "name": "Maos",
        "lat": -7.6010706,
        "lng": 109.158275
      },
      "city": {
        "id": 102,
        "name": "Cilacap",
        "lat": -7.6178096,
        "lng": 108.902683
      },
      "province": {
        "id": 10,
        "name": "Jawa Tengah",
        "lat": -7.150975,
        "lng": 110.1402594
      },
      "country": {
        "id": 228,
        "name": "INDONESIA",
        "code": "ID"
      },
      "id": 19010,
      "name": "Maos Kidul",
      "postcode": "53272",
      "lat": -7.610311,
      "lng": 109.1538157
    },
    {
      "suburb": {
        "id": 1727,
        "name": "Maos",
        "lat": -7.6010706,
        "lng": 109.158275
      },
      "city": {
        "id": 102,
        "name": "Cilacap",
        "lat": -7.6178096,
        "lng": 108.902683
      },
      "province": {
        "id": 10,
        "name": "Jawa Tengah",
        "lat": -7.150975,
        "lng": 110.1402594
      },
      "country": {
        "id": 228,
        "name": "INDONESIA",
        "code": "ID"
      },
      "id": 19011,
      "name": "Karangreja",
      "postcode": "53272",
      "lat": -7.6237664,
      "lng": 109.1419244
    },
    {
      "suburb": {
        "id": 1727,
        "name": "Maos",
        "lat": -7.6010706,
        "lng": 109.158275
      },
      "city": {
        "id": 102,
        "name": "Cilacap",
        "lat": -7.6178096,
        "lng": 108.902683
      },
      "province": {
        "id": 10,
        "name": "Jawa Tengah",
        "lat": -7.150975,
        "lng": 110.1402594
      },
      "country": {
        "id": 228,
        "name": "INDONESIA",
        "code": "ID"
      },
      "id": 19012,
      "name": "Karangrena",
      "postcode": "53272",
      "lat": -7.6100357,
      "lng": 109.1315198
    },
    {
      "suburb": {
        "id": 1727,
        "name": "Maos",
        "lat": -7.6010706,
        "lng": 109.158275
      },
      "city": {
        "id": 102,
        "name": "Cilacap",
        "lat": -7.6178096,
        "lng": 108.902683
      },
      "province": {
        "id": 10,
        "name": "Jawa Tengah",
        "lat": -7.150975,
        "lng": 110.1402594
      },
      "country": {
        "id": 228,
        "name": "INDONESIA",
        "code": "ID"
      },
      "id": 19013,
      "name": "Glempang",
      "postcode": "53272",
      "lat": -7.5823245,
      "lng": 109.1731396
    },
    {
      "suburb": {
        "id": 1727,
        "name": "Maos",
        "lat": -7.6010706,
        "lng": 109.158275
      },
      "city": {
        "id": 102,
        "name": "Cilacap",
        "lat": -7.6178096,
        "lng": 108.902683
      },
      "province": {
        "id": 10,
        "name": "Jawa Tengah",
        "lat": -7.150975,
        "lng": 110.1402594
      },
      "country": {
        "id": 228,
        "name": "INDONESIA",
        "code": "ID"
      },
      "id": 19014,
      "name": "Kalijaran",
      "postcode": "53272",
      "lat": -7.6094973,
      "lng": 109.1716531
    },
    {
      "suburb": {
        "id": 1727,
        "name": "Maos",
        "lat": -7.6010706,
        "lng": 109.158275
      },
      "city": {
        "id": 102,
        "name": "Cilacap",
        "lat": -7.6178096,
        "lng": 108.902683
      },
      "province": {
        "id": 10,
        "name": "Jawa Tengah",
        "lat": -7.150975,
        "lng": 110.1402594
      },
      "country": {
        "id": 228,
        "name": "INDONESIA",
        "code": "ID"
      },
      "id": 19015,
      "name": "Karangkemiri",
      "postcode": "53272",
      "lat": -7.6255327,
      "lng": 109.1315198
    },
    {
      "suburb": {
        "id": 1728,
        "name": "Adipala",
        "lat": -7.667959,
        "lng": 109.1642208
      },
      "city": {
        "id": 102,
        "name": "Cilacap",
        "lat": -7.6178096,
        "lng": 108.902683
      },
      "province": {
        "id": 10,
        "name": "Jawa Tengah",
        "lat": -7.150975,
        "lng": 110.1402594
      },
      "country": {
        "id": 228,
        "name": "INDONESIA",
        "code": "ID"
      },
      "id": 19016,
      "name": "Wlahar",
      "postcode": "53271",
      "lat": -7.6668758,
      "lng": 109.1315198
    },
    {
      "suburb": {
        "id": 1728,
        "name": "Adipala",
        "lat": -7.667959,
        "lng": 109.1642208
      },
      "city": {
        "id": 102,
        "name": "Cilacap",
        "lat": -7.6178096,
        "lng": 108.902683
      },
      "province": {
        "id": 10,
        "name": "Jawa Tengah",
        "lat": -7.150975,
        "lng": 110.1402594
      },
      "country": {
        "id": 228,
        "name": "INDONESIA",
        "code": "ID"
      },
      "id": 19017,
      "name": "Penggalang",
      "postcode": "53271",
      "lat": -7.6513691,
      "lng": 109.1315198
    },
    {
      "suburb": {
        "id": 1728,
        "name": "Adipala",
        "lat": -7.667959,
        "lng": 109.1642208
      },
      "city": {
        "id": 102,
        "name": "Cilacap",
        "lat": -7.6178096,
        "lng": 108.902683
      },
      "province": {
        "id": 10,
        "name": "Jawa Tengah",
        "lat": -7.150975,
        "lng": 110.1402594
      },
      "country": {
        "id": 228,
        "name": "INDONESIA",
        "code": "ID"
      },
      "id": 19018,
      "name": "Welahan Wetan",
      "postcode": "53271",
      "lat": -7.6831715,
      "lng": 109.2266564
    },
    {
      "suburb": {
        "id": 1728,
        "name": "Adipala",
        "lat": -7.667959,
        "lng": 109.1642208
      },
      "city": {
        "id": 102,
        "name": "Cilacap",
        "lat": -7.6178096,
        "lng": 108.902683
      },
      "province": {
        "id": 10,
        "name": "Jawa Tengah",
        "lat": -7.150975,
        "lng": 110.1402594
      },
      "country": {
        "id": 228,
        "name": "INDONESIA",
        "code": "ID"
      },
      "id": 19019,
      "name": "Karangsari",
      "postcode": "53271",
      "lat": -7.6355944,
      "lng": 109.1374653
    },
    {
      "suburb": {
        "id": 1728,
        "name": "Adipala",
        "lat": -7.667959,
        "lng": 109.1642208
      },
      "city": {
        "id": 102,
        "name": "Cilacap",
        "lat": -7.6178096,
        "lng": 108.902683
      },
      "province": {
        "id": 10,
        "name": "Jawa Tengah",
        "lat": -7.150975,
        "lng": 110.1402594
      },
      "country": {
        "id": 228,
        "name": "INDONESIA",
        "code": "ID"
      },
      "id": 19020,
      "name": "Pedasong",
      "postcode": "53271",
      "lat": -7.6680889,
      "lng": 109.1894913
    },
    {
      "suburb": {
        "id": 1728,
        "name": "Adipala",
        "lat": -7.667959,
        "lng": 109.1642208
      },
      "city": {
        "id": 102,
        "name": "Cilacap",
        "lat": -7.6178096,
        "lng": 108.902683
      },
      "province": {
        "id": 10,
        "name": "Jawa Tengah",
        "lat": -7.150975,
        "lng": 110.1402594
      },
      "country": {
        "id": 228,
        "name": "INDONESIA",
        "code": "ID"
      },
      "id": 19021,
      "name": "Kalikudi",
      "postcode": "53271",
      "lat": -7.6320598,
      "lng": 109.158275
    },
    {
      "suburb": {
        "id": 1728,
        "name": "Adipala",
        "lat": -7.667959,
        "lng": 109.1642208
      },
      "city": {
        "id": 102,
        "name": "Cilacap",
        "lat": -7.6178096,
        "lng": 108.902683
      },
      "province": {
        "id": 10,
        "name": "Jawa Tengah",
        "lat": -7.150975,
        "lng": 110.1402594
      },
      "country": {
        "id": 228,
        "name": "INDONESIA",
        "code": "ID"
      },
      "id": 19022,
      "name": "Karanganyar",
      "postcode": "53271",
      "lat": -7.671904,
      "lng": 109.1627343
    },
    {
      "suburb": {
        "id": 1728,
        "name": "Adipala",
        "lat": -7.667959,
        "lng": 109.1642208
      },
      "city": {
        "id": 102,
        "name": "Cilacap",
        "lat": -7.6178096,
        "lng": 108.902683
      },
      "province": {
        "id": 10,
        "name": "Jawa Tengah",
        "lat": -7.150975,
        "lng": 110.1402594
      },
      "country": {
        "id": 228,
        "name": "INDONESIA",
        "code": "ID"
      },
      "id": 19023,
      "name": "Karangbenda",
      "postcode": "53271",
      "lat": -7.6826452,
      "lng": 109.1820586
    },
    {
      "suburb": {
        "id": 1728,
        "name": "Adipala",
        "lat": -7.667959,
        "lng": 109.1642208
      },
      "city": {
        "id": 102,
        "name": "Cilacap",
        "lat": -7.6178096,
        "lng": 108.902683
      },
      "province": {
        "id": 10,
        "name": "Jawa Tengah",
        "lat": -7.150975,
        "lng": 110.1402594
      },
      "country": {
        "id": 228,
        "name": "INDONESIA",
        "code": "ID"
      },
      "id": 19024,
      "name": "Gombolharjo",
      "postcode": "53271",
      "lat": -7.6676936,
      "lng": 109.113684
    },
    {
      "suburb": {
        "id": 1728,
        "name": "Adipala",
        "lat": -7.667959,
        "lng": 109.1642208
      },
      "city": {
        "id": 102,
        "name": "Cilacap",
        "lat": -7.6178096,
        "lng": 108.902683
      },
      "province": {
        "id": 10,
        "name": "Jawa Tengah",
        "lat": -7.150975,
        "lng": 110.1402594
      },
      "country": {
        "id": 228,
        "name": "INDONESIA",
        "code": "ID"
      },
      "id": 19025,
      "name": "Bunton",
      "postcode": "53271",
      "lat": -7.684288,
      "lng": 109.1463836
    },
    {
      "suburb": {
        "id": 1728,
        "name": "Adipala",
        "lat": -7.667959,
        "lng": 109.1642208
      },
      "city": {
        "id": 102,
        "name": "Cilacap",
        "lat": -7.6178096,
        "lng": 108.902683
      },
      "province": {
        "id": 10,
        "name": "Jawa Tengah",
        "lat": -7.150975,
        "lng": 110.1402594
      },
      "country": {
        "id": 228,
        "name": "INDONESIA",
        "code": "ID"
      },
      "id": 19026,
      "name": "Doplang",
      "postcode": "53271",
      "lat": -7.6336904,
      "lng": 109.1790856
    },
    {
      "suburb": {
        "id": 1728,
        "name": "Adipala",
        "lat": -7.667959,
        "lng": 109.1642208
      },
      "city": {
        "id": 102,
        "name": "Cilacap",
        "lat": -7.6178096,
        "lng": 108.902683
      },
      "province": {
        "id": 10,
        "name": "Jawa Tengah",
        "lat": -7.150975,
        "lng": 110.1402594
      },
      "country": {
        "id": 228,
        "name": "INDONESIA",
        "code": "ID"
      },
      "id": 19027,
      "name": "Glempangpasir",
      "postcode": "53271",
      "lat": -7.6815483,
      "lng": 109.2058436
    },
    {
      "suburb": {
        "id": 1728,
        "name": "Adipala",
        "lat": -7.667959,
        "lng": 109.1642208
      },
      "city": {
        "id": 102,
        "name": "Cilacap",
        "lat": -7.6178096,
        "lng": 108.902683
      },
      "province": {
        "id": 10,
        "name": "Jawa Tengah",
        "lat": -7.150975,
        "lng": 110.1402594
      },
      "country": {
        "id": 228,
        "name": "INDONESIA",
        "code": "ID"
      },
      "id": 19028,
      "name": "Adireja Wetan",
      "postcode": "53271",
      "lat": -7.6509583,
      "lng": 109.1686802
    },
    {
      "suburb": {
        "id": 1728,
        "name": "Adipala",
        "lat": -7.667959,
        "lng": 109.1642208
      },
      "city": {
        "id": 102,
        "name": "Cilacap",
        "lat": -7.6178096,
        "lng": 108.902683
      },
      "province": {
        "id": 10,
        "name": "Jawa Tengah",
        "lat": -7.150975,
        "lng": 110.1402594
      },
      "country": {
        "id": 228,
        "name": "INDONESIA",
        "code": "ID"
      },
      "id": 19029,
      "name": "Adiraja",
      "postcode": "53271",
      "lat": -7.6543562,
      "lng": 109.1790856
    },
    {
      "suburb": {
        "id": 1728,
        "name": "Adipala",
        "lat": -7.667959,
        "lng": 109.1642208
      },
      "city": {
        "id": 102,
        "name": "Cilacap",
        "lat": -7.6178096,
        "lng": 108.902683
      },
      "province": {
        "id": 10,
        "name": "Jawa Tengah",
        "lat": -7.150975,
        "lng": 110.1402594
      },
      "country": {
        "id": 228,
        "name": "INDONESIA",
        "code": "ID"
      },
      "id": 19030,
      "name": "Adireja Kulon",
      "postcode": "53271",
      "lat": -7.6451124,
      "lng": 109.1553021
    },
    {
      "suburb": {
        "id": 1728,
        "name": "Adipala",
        "lat": -7.667959,
        "lng": 109.1642208
      },
      "city": {
        "id": 102,
        "name": "Cilacap",
        "lat": -7.6178096,
        "lng": 108.902683
      },
      "province": {
        "id": 10,
        "name": "Jawa Tengah",
        "lat": -7.150975,
        "lng": 110.1402594
      },
      "country": {
        "id": 228,
        "name": "INDONESIA",
        "code": "ID"
      },
      "id": 19031,
      "name": "Adipala",
      "postcode": "53271",
      "lat": -7.6608886,
      "lng": 109.1493564
    },
    {
      "suburb": {
        "id": 1729,
        "name": "Dayeuhluhur",
        "lat": -7.2282295,
        "lng": 108.6056873
      },
      "city": {
        "id": 102,
        "name": "Cilacap",
        "lat": -7.6178096,
        "lng": 108.902683
      },
      "province": {
        "id": 10,
        "name": "Jawa Tengah",
        "lat": -7.150975,
        "lng": 110.1402594
      },
      "country": {
        "id": 228,
        "name": "INDONESIA",
        "code": "ID"
      },
      "id": 19032,
      "name": "Panulisan Barat",
      "postcode": "53266",
      "lat": -7.3045643,
      "lng": 108.5670952
    },
    {
      "suburb": {
        "id": 1729,
        "name": "Dayeuhluhur",
        "lat": -7.2282295,
        "lng": 108.6056873
      },
      "city": {
        "id": 102,
        "name": "Cilacap",
        "lat": -7.6178096,
        "lng": 108.902683
      },
      "province": {
        "id": 10,
        "name": "Jawa Tengah",
        "lat": -7.150975,
        "lng": 110.1402594
      },
      "country": {
        "id": 228,
        "name": "INDONESIA",
        "code": "ID"
      },
      "id": 19033,
      "name": "Panulisan Timur",
      "postcode": "53266",
      "lat": -7.3160681,
      "lng": 108.5997498
    },
    {
      "suburb": {
        "id": 1729,
        "name": "Dayeuhluhur",
        "lat": -7.2282295,
        "lng": 108.6056873
      },
      "city": {
        "id": 102,
        "name": "Cilacap",
        "lat": -7.6178096,
        "lng": 108.902683
      },
      "province": {
        "id": 10,
        "name": "Jawa Tengah",
        "lat": -7.150975,
        "lng": 110.1402594
      },
      "country": {
        "id": 228,
        "name": "INDONESIA",
        "code": "ID"
      },
      "id": 19034,
      "name": "Sumpinghayu",
      "postcode": "53266",
      "lat": -7.1791764,
      "lng": 108.6710064
    },
    {
      "suburb": {
        "id": 1729,
        "name": "Dayeuhluhur",
        "lat": -7.2282295,
        "lng": 108.6056873
      },
      "city": {
        "id": 102,
        "name": "Cilacap",
        "lat": -7.6178096,
        "lng": 108.902683
      },
      "province": {
        "id": 10,
        "name": "Jawa Tengah",
        "lat": -7.150975,
        "lng": 110.1402594
      },
      "country": {
        "id": 228,
        "name": "INDONESIA",
        "code": "ID"
      },
      "id": 19035,
      "name": "Matenggeng",
      "postcode": "53266",
      "lat": -7.2753366,
      "lng": 108.587875
    },
    {
      "suburb": {
        "id": 1729,
        "name": "Dayeuhluhur",
        "lat": -7.2282295,
        "lng": 108.6056873
      },
      "city": {
        "id": 102,
        "name": "Cilacap",
        "lat": -7.6178096,
        "lng": 108.902683
      },
      "province": {
        "id": 10,
        "name": "Jawa Tengah",
        "lat": -7.150975,
        "lng": 110.1402594
      },
      "country": {
        "id": 228,
        "name": "INDONESIA",
        "code": "ID"
      },
      "id": 19036,
      "name": "Panulisan",
      "postcode": "53266",
      "lat": -7.3195292,
      "lng": 108.5789692
    },
    {
      "suburb": {
        "id": 1729,
        "name": "Dayeuhluhur",
        "lat": -7.2282295,
        "lng": 108.6056873
      },
      "city": {
        "id": 102,
        "name": "Cilacap",
        "lat": -7.6178096,
        "lng": 108.902683
      },
      "province": {
        "id": 10,
        "name": "Jawa Tengah",
        "lat": -7.150975,
        "lng": 110.1402594
      },
      "country": {
        "id": 228,
        "name": "INDONESIA",
        "code": "ID"
      },
      "id": 19037,
      "name": "Hanum",
      "postcode": "53266",
      "lat": -7.2321289,
      "lng": 108.6353764
    },
    {
      "suburb": {
        "id": 1729,
        "name": "Dayeuhluhur",
        "lat": -7.2282295,
        "lng": 108.6056873
      },
      "city": {
        "id": 102,
        "name": "Cilacap",
        "lat": -7.6178096,
        "lng": 108.902683
      },
      "province": {
        "id": 10,
        "name": "Jawa Tengah",
        "lat": -7.150975,
        "lng": 110.1402594
      },
      "country": {
        "id": 228,
        "name": "INDONESIA",
        "code": "ID"
      },
      "id": 19038,
      "name": "Kutaagung",
      "postcode": "53266",
      "lat": -7.1831473,
      "lng": 108.5760007
    },
    {
      "suburb": {
        "id": 1729,
        "name": "Dayeuhluhur",
        "lat": -7.2282295,
        "lng": 108.6056873
      },
      "city": {
        "id": 102,
        "name": "Cilacap",
        "lat": -7.6178096,
        "lng": 108.902683
      },
      "province": {
        "id": 10,
        "name": "Jawa Tengah",
        "lat": -7.150975,
        "lng": 110.1402594
      },
      "country": {
        "id": 228,
        "name": "INDONESIA",
        "code": "ID"
      },
      "id": 19039,
      "name": "Ciwalen",
      "postcode": "53266",
      "lat": -7.2846378,
      "lng": 108.6116249
    },
    {
      "suburb": {
        "id": 1729,
        "name": "Dayeuhluhur",
        "lat": -7.2282295,
        "lng": 108.6056873
      },
      "city": {
        "id": 102,
        "name": "Cilacap",
        "lat": -7.6178096,
        "lng": 108.902683
      },
      "province": {
        "id": 10,
        "name": "Jawa Tengah",
        "lat": -7.150975,
        "lng": 110.1402594
      },
      "country": {
        "id": 228,
        "name": "INDONESIA",
        "code": "ID"
      },
      "id": 19040,
      "name": "Datar",
      "postcode": "53266",
      "lat": -7.2115396,
      "lng": 108.6353764
    },
    {
      "suburb": {
        "id": 1729,
        "name": "Dayeuhluhur",
        "lat": -7.2282295,
        "lng": 108.6056873
      },
      "city": {
        "id": 102,
        "name": "Cilacap",
        "lat": -7.6178096,
        "lng": 108.902683
      },
      "province": {
        "id": 10,
        "name": "Jawa Tengah",
        "lat": -7.150975,
        "lng": 110.1402594
      },
      "country": {
        "id": 228,
        "name": "INDONESIA",
        "code": "ID"
      },
      "id": 19041,
      "name": "Dayeuhluhur",
      "postcode": "53266",
      "lat": -7.2512773,
      "lng": 108.6086561
    },
    {
      "suburb": {
        "id": 1729,
        "name": "Dayeuhluhur",
        "lat": -7.2282295,
        "lng": 108.6056873
      },
      "city": {
        "id": 102,
        "name": "Cilacap",
        "lat": -7.6178096,
        "lng": 108.902683
      },
      "province": {
        "id": 10,
        "name": "Jawa Tengah",
        "lat": -7.150975,
        "lng": 110.1402594
      },
      "country": {
        "id": 228,
        "name": "INDONESIA",
        "code": "ID"
      },
      "id": 19042,
      "name": "Cijeruk",
      "postcode": "53266",
      "lat": -7.1718672,
      "lng": 108.5997498
    },
    {
      "suburb": {
        "id": 1729,
        "name": "Dayeuhluhur",
        "lat": -7.2282295,
        "lng": 108.6056873
      },
      "city": {
        "id": 102,
        "name": "Cilacap",
        "lat": -7.6178096,
        "lng": 108.902683
      },
      "province": {
        "id": 10,
        "name": "Jawa Tengah",
        "lat": -7.150975,
        "lng": 110.1402594
      },
      "country": {
        "id": 228,
        "name": "INDONESIA",
        "code": "ID"
      },
      "id": 19043,
      "name": "Cilumping",
      "postcode": "53266",
      "lat": -7.1703807,
      "lng": 108.6353764
    },
    {
      "suburb": {
        "id": 1729,
        "name": "Dayeuhluhur",
        "lat": -7.2282295,
        "lng": 108.6056873
      },
      "city": {
        "id": 102,
        "name": "Cilacap",
        "lat": -7.6178096,
        "lng": 108.902683
      },
      "province": {
        "id": 10,
        "name": "Jawa Tengah",
        "lat": -7.150975,
        "lng": 110.1402594
      },
      "country": {
        "id": 228,
        "name": "INDONESIA",
        "code": "ID"
      },
      "id": 19044,
      "name": "Bolang",
      "postcode": "53266",
      "lat": -7.2032371,
      "lng": 108.587875
    },
    {
      "suburb": {
        "id": 1729,
        "name": "Dayeuhluhur",
        "lat": -7.2282295,
        "lng": 108.6056873
      },
      "city": {
        "id": 102,
        "name": "Cilacap",
        "lat": -7.6178096,
        "lng": 108.902683
      },
      "province": {
        "id": 10,
        "name": "Jawa Tengah",
        "lat": -7.150975,
        "lng": 110.1402594
      },
      "country": {
        "id": 228,
        "name": "INDONESIA",
        "code": "ID"
      },
      "id": 19045,
      "name": "Bingkeng",
      "postcode": "53266",
      "lat": -7.2314276,
      "lng": 108.5908437
    },
    {
      "suburb": {
        "id": 1730,
        "name": "Wanareja",
        "lat": -7.3076269,
        "lng": 108.6769451
      },
      "city": {
        "id": 102,
        "name": "Cilacap",
        "lat": -7.6178096,
        "lng": 108.902683
      },
      "province": {
        "id": 10,
        "name": "Jawa Tengah",
        "lat": -7.150975,
        "lng": 110.1402594
      },
      "country": {
        "id": 228,
        "name": "INDONESIA",
        "code": "ID"
      },
      "id": 19046,
      "name": "Tarisi",
      "postcode": "53265",
      "lat": -7.3940073,
      "lng": 108.7066398
    },
    {
      "suburb": {
        "id": 1730,
        "name": "Wanareja",
        "lat": -7.3076269,
        "lng": 108.6769451
      },
      "city": {
        "id": 102,
        "name": "Cilacap",
        "lat": -7.6178096,
        "lng": 108.902683
      },
      "province": {
        "id": 10,
        "name": "Jawa Tengah",
        "lat": -7.150975,
        "lng": 110.1402594
      },
      "country": {
        "id": 228,
        "name": "INDONESIA",
        "code": "ID"
      },
      "id": 19047,
      "name": "Wanareja",
      "postcode": "53265",
      "lat": -7.3306931,
      "lng": 108.6799144
    },
    {
      "suburb": {
        "id": 1730,
        "name": "Wanareja",
        "lat": -7.3076269,
        "lng": 108.6769451
      },
      "city": {
        "id": 102,
        "name": "Cilacap",
        "lat": -7.6178096,
        "lng": 108.902683
      },
      "province": {
        "id": 10,
        "name": "Jawa Tengah",
        "lat": -7.150975,
        "lng": 110.1402594
      },
      "country": {
        "id": 228,
        "name": "INDONESIA",
        "code": "ID"
      },
      "id": 19048,
      "name": "Tambaksari",
      "postcode": "53265",
      "lat": -7.2831274,
      "lng": 108.6472527
    },
    {
      "suburb": {
        "id": 1730,
        "name": "Wanareja",
        "lat": -7.3076269,
        "lng": 108.6769451
      },
      "city": {
        "id": 102,
        "name": "Cilacap",
        "lat": -7.6178096,
        "lng": 108.902683
      },
      "province": {
        "id": 10,
        "name": "Jawa Tengah",
        "lat": -7.150975,
        "lng": 110.1402594
      },
      "country": {
        "id": 228,
        "name": "INDONESIA",
        "code": "ID"
      },
      "id": 19049,
      "name": "Purwasari",
      "postcode": "53265",
      "lat": -7.4418752,
      "lng": 108.7333671
    },
    {
      "suburb": {
        "id": 1730,
        "name": "Wanareja",
        "lat": -7.3076269,
        "lng": 108.6769451
      },
      "city": {
        "id": 102,
        "name": "Cilacap",
        "lat": -7.6178096,
        "lng": 108.902683
      },
      "province": {
        "id": 10,
        "name": "Jawa Tengah",
        "lat": -7.150975,
        "lng": 110.1402594
      },
      "country": {
        "id": 228,
        "name": "INDONESIA",
        "code": "ID"
      },
      "id": 19050,
      "name": "Sidamulya",
      "postcode": "53265",
      "lat": -7.3564728,
      "lng": 108.6799144
    },
    {
      "suburb": {
        "id": 1730,
        "name": "Wanareja",
        "lat": -7.3076269,
        "lng": 108.6769451
      },
      "city": {
        "id": 102,
        "name": "Cilacap",
        "lat": -7.6178096,
        "lng": 108.902683
      },
      "province": {
        "id": 10,
        "name": "Jawa Tengah",
        "lat": -7.150975,
        "lng": 110.1402594
      },
      "country": {
        "id": 228,
        "name": "INDONESIA",
        "code": "ID"
      },
      "id": 19051,
      "name": "Majingklak",
      "postcode": "53265",
      "lat": -7.3032329,
      "lng": 108.6591293
    },
    {
      "suburb": {
        "id": 1730,
        "name": "Wanareja",
        "lat": -7.3076269,
        "lng": 108.6769451
      },
      "city": {
        "id": 102,
        "name": "Cilacap",
        "lat": -7.6178096,
        "lng": 108.902683
      },
      "province": {
        "id": 10,
        "name": "Jawa Tengah",
        "lat": -7.150975,
        "lng": 110.1402594
      },
      "country": {
        "id": 228,
        "name": "INDONESIA",
        "code": "ID"
      },
      "id": 19052,
      "name": "Malabar",
      "postcode": "53265",
      "lat": -7.294619,
      "lng": 108.6799144
    },
    {
      "suburb": {
        "id": 1730,
        "name": "Wanareja",
        "lat": -7.3076269,
        "lng": 108.6769451
      },
      "city": {
        "id": 102,
        "name": "Cilacap",
        "lat": -7.6178096,
        "lng": 108.902683
      },
      "province": {
        "id": 10,
        "name": "Jawa Tengah",
        "lat": -7.150975,
        "lng": 110.1402594
      },
      "country": {
        "id": 228,
        "name": "INDONESIA",
        "code": "ID"
      },
      "id": 19053,
      "name": "Palugon",
      "postcode": "53265",
      "lat": -7.2306269,
      "lng": 108.6710064
    },
    {
      "suburb": {
        "id": 1730,
        "name": "Wanareja",
        "lat": -7.3076269,
        "lng": 108.6769451
      },
      "city": {
        "id": 102,
        "name": "Cilacap",
        "lat": -7.6178096,
        "lng": 108.902683
      },
      "province": {
        "id": 10,
        "name": "Jawa Tengah",
        "lat": -7.150975,
        "lng": 110.1402594
      },
      "country": {
        "id": 228,
        "name": "INDONESIA",
        "code": "ID"
      },
      "id": 19054,
      "name": "Madura",
      "postcode": "53265",
      "lat": -7.3351747,
      "lng": 108.6353764
    },
    {
      "suburb": {
        "id": 1730,
        "name": "Wanareja",
        "lat": -7.3076269,
        "lng": 108.6769451
      },
      "city": {
        "id": 102,
        "name": "Cilacap",
        "lat": -7.6178096,
        "lng": 108.902683
      },
      "province": {
        "id": 10,
        "name": "Jawa Tengah",
        "lat": -7.150975,
        "lng": 110.1402594
      },
      "country": {
        "id": 228,
        "name": "INDONESIA",
        "code": "ID"
      },
      "id": 19055,
      "name": "Madusari",
      "postcode": "53265",
      "lat": -7.3118486,
      "lng": 108.6383454
    },
    {
      "suburb": {
        "id": 1730,
        "name": "Wanareja",
        "lat": -7.3076269,
        "lng": 108.6769451
      },
      "city": {
        "id": 102,
        "name": "Cilacap",
        "lat": -7.6178096,
        "lng": 108.902683
      },
      "province": {
        "id": 10,
        "name": "Jawa Tengah",
        "lat": -7.150975,
        "lng": 110.1402594
      },
      "country": {
        "id": 228,
        "name": "INDONESIA",
        "code": "ID"
      },
      "id": 19056,
      "name": "Cilongkrang",
      "postcode": "53265",
      "lat": -7.4141326,
      "lng": 108.7185184
    },
    {
      "suburb": {
        "id": 1730,
        "name": "Wanareja",
        "lat": -7.3076269,
        "lng": 108.6769451
      },
      "city": {
        "id": 102,
        "name": "Cilacap",
        "lat": -7.6178096,
        "lng": 108.902683
      },
      "province": {
        "id": 10,
        "name": "Jawa Tengah",
        "lat": -7.150975,
        "lng": 110.1402594
      },
      "country": {
        "id": 228,
        "name": "INDONESIA",
        "code": "ID"
      },
      "id": 19057,
      "name": "Jambu",
      "postcode": "53265",
      "lat": -7.1987529,
      "lng": 108.6947617
    },
    {
      "suburb": {
        "id": 1730,
        "name": "Wanareja",
        "lat": -7.3076269,
        "lng": 108.6769451
      },
      "city": {
        "id": 102,
        "name": "Cilacap",
        "lat": -7.6178096,
        "lng": 108.902683
      },
      "province": {
        "id": 10,
        "name": "Jawa Tengah",
        "lat": -7.150975,
        "lng": 110.1402594
      },
      "country": {
        "id": 228,
        "name": "INDONESIA",
        "code": "ID"
      },
      "id": 19058,
      "name": "Adimulya",
      "postcode": "53265",
      "lat": -7.3424354,
      "lng": 108.7066398
    },
    {
      "suburb": {
        "id": 1730,
        "name": "Wanareja",
        "lat": -7.3076269,
        "lng": 108.6769451
      },
      "city": {
        "id": 102,
        "name": "Cilacap",
        "lat": -7.6178096,
        "lng": 108.902683
      },
      "province": {
        "id": 10,
        "name": "Jawa Tengah",
        "lat": -7.150975,
        "lng": 110.1402594
      },
      "country": {
        "id": 228,
        "name": "INDONESIA",
        "code": "ID"
      },
      "id": 19059,
      "name": "Bantar",
      "postcode": "53265",
      "lat": -7.3630592,
      "lng": 108.7066398
    },
    {
      "suburb": {
        "id": 1731,
        "name": "Patimuan",
        "lat": -7.6024418,
        "lng": 108.7838572
      },
      "city": {
        "id": 102,
        "name": "Cilacap",
        "lat": -7.6178096,
        "lng": 108.902683
      },
      "province": {
        "id": 10,
        "name": "Jawa Tengah",
        "lat": -7.150975,
        "lng": 110.1402594
      },
      "country": {
        "id": 228,
        "name": "INDONESIA",
        "code": "ID"
      },
      "id": 19060,
      "name": "Purwodadi",
      "postcode": "53264",
      "lat": -7.605691,
      "lng": 108.7690065
    },
    {
      "suburb": {
        "id": 1731,
        "name": "Patimuan",
        "lat": -7.6024418,
        "lng": 108.7838572
      },
      "city": {
        "id": 102,
        "name": "Cilacap",
        "lat": -7.6178096,
        "lng": 108.902683
      },
      "province": {
        "id": 10,
        "name": "Jawa Tengah",
        "lat": -7.150975,
        "lng": 110.1402594
      },
      "country": {
        "id": 228,
        "name": "INDONESIA",
        "code": "ID"
      },
      "id": 19061,
      "name": "Rawaapu",
      "postcode": "53264",
      "lat": -7.6487545,
      "lng": 108.7897976
    },
    {
      "suburb": {
        "id": 1731,
        "name": "Patimuan",
        "lat": -7.6024418,
        "lng": 108.7838572
      },
      "city": {
        "id": 102,
        "name": "Cilacap",
        "lat": -7.6178096,
        "lng": 108.902683
      },
      "province": {
        "id": 10,
        "name": "Jawa Tengah",
        "lat": -7.150975,
        "lng": 110.1402594
      },
      "country": {
        "id": 228,
        "name": "INDONESIA",
        "code": "ID"
      },
      "id": 19062,
      "name": "Sidamukti",
      "postcode": "53264",
      "lat": -7.6192909,
      "lng": 108.7541564
    },
    {
      "suburb": {
        "id": 1731,
        "name": "Patimuan",
        "lat": -7.6024418,
        "lng": 108.7838572
      },
      "city": {
        "id": 102,
        "name": "Cilacap",
        "lat": -7.6178096,
        "lng": 108.902683
      },
      "province": {
        "id": 10,
        "name": "Jawa Tengah",
        "lat": -7.150975,
        "lng": 110.1402594
      },
      "country": {
        "id": 228,
        "name": "INDONESIA",
        "code": "ID"
      },
      "id": 19063,
      "name": "Patimuan",
      "postcode": "53264",
      "lat": -7.5904342,
      "lng": 108.7630664
    },
    {
      "suburb": {
        "id": 1731,
        "name": "Patimuan",
        "lat": -7.6024418,
        "lng": 108.7838572
      },
      "city": {
        "id": 102,
        "name": "Cilacap",
        "lat": -7.6178096,
        "lng": 108.902683
      },
      "province": {
        "id": 10,
        "name": "Jawa Tengah",
        "lat": -7.150975,
        "lng": 110.1402594
      },
      "country": {
        "id": 228,
        "name": "INDONESIA",
        "code": "ID"
      },
      "id": 19064,
      "name": "Cimrutu",
      "postcode": "53264",
      "lat": -7.6275173,
      "lng": 108.8016788
    },
    {
      "suburb": {
        "id": 1731,
        "name": "Patimuan",
        "lat": -7.6024418,
        "lng": 108.7838572
      },
      "city": {
        "id": 102,
        "name": "Cilacap",
        "lat": -7.6178096,
        "lng": 108.902683
      },
      "province": {
        "id": 10,
        "name": "Jawa Tengah",
        "lat": -7.150975,
        "lng": 110.1402594
      },
      "country": {
        "id": 228,
        "name": "INDONESIA",
        "code": "ID"
      },
      "id": 19065,
      "name": "Cinyawang",
      "postcode": "53264",
      "lat": -7.5746526,
      "lng": 108.7690065
    },
    {
      "suburb": {
        "id": 1732,
        "name": "Kedungreja",
        "lat": -7.5099052,
        "lng": 108.7719766
      },
      "city": {
        "id": 102,
        "name": "Cilacap",
        "lat": -7.6178096,
        "lng": 108.902683
      },
      "province": {
        "id": 10,
        "name": "Jawa Tengah",
        "lat": -7.150975,
        "lng": 110.1402594
      },
      "country": {
        "id": 228,
        "name": "INDONESIA",
        "code": "ID"
      },
      "id": 19066,
      "name": "Tambaksari",
      "postcode": "53263",
      "lat": -7.5084979,
      "lng": 108.7452466
    },
    {
      "suburb": {
        "id": 1731,
        "name": "Patimuan",
        "lat": -7.6024418,
        "lng": 108.7838572
      },
      "city": {
        "id": 102,
        "name": "Cilacap",
        "lat": -7.6178096,
        "lng": 108.902683
      },
      "province": {
        "id": 10,
        "name": "Jawa Tengah",
        "lat": -7.150975,
        "lng": 110.1402594
      },
      "country": {
        "id": 228,
        "name": "INDONESIA",
        "code": "ID"
      },
      "id": 19067,
      "name": "Bulupayung",
      "postcode": "53264",
      "lat": -7.5861291,
      "lng": 108.8016788
    },
    {
      "suburb": {
        "id": 1732,
        "name": "Kedungreja",
        "lat": -7.5099052,
        "lng": 108.7719766
      },
      "city": {
        "id": 102,
        "name": "Cilacap",
        "lat": -7.6178096,
        "lng": 108.902683
      },
      "province": {
        "id": 10,
        "name": "Jawa Tengah",
        "lat": -7.150975,
        "lng": 110.1402594
      },
      "country": {
        "id": 228,
        "name": "INDONESIA",
        "code": "ID"
      },
      "id": 19068,
      "name": "Sidanegara",
      "postcode": "53263",
      "lat": -7.544154,
      "lng": 108.7571263
    },
    {
      "suburb": {
        "id": 1732,
        "name": "Kedungreja",
        "lat": -7.5099052,
        "lng": 108.7719766
      },
      "city": {
        "id": 102,
        "name": "Cilacap",
        "lat": -7.6178096,
        "lng": 108.902683
      },
      "province": {
        "id": 10,
        "name": "Jawa Tengah",
        "lat": -7.150975,
        "lng": 110.1402594
      },
      "country": {
        "id": 228,
        "name": "INDONESIA",
        "code": "ID"
      },
      "id": 19069,
      "name": "Tambakreja",
      "postcode": "53263",
      "lat": -7.5485354,
      "lng": 108.7749467
    },
    {
      "suburb": {
        "id": 1732,
        "name": "Kedungreja",
        "lat": -7.5099052,
        "lng": 108.7719766
      },
      "city": {
        "id": 102,
        "name": "Cilacap",
        "lat": -7.6178096,
        "lng": 108.902683
      },
      "province": {
        "id": 10,
        "name": "Jawa Tengah",
        "lat": -7.150975,
        "lng": 110.1402594
      },
      "country": {
        "id": 228,
        "name": "INDONESIA",
        "code": "ID"
      },
      "id": 19070,
      "name": "Kaliwungu",
      "postcode": "53263",
      "lat": -7.5654447,
      "lng": 108.8016788
    },
    {
      "suburb": {
        "id": 1732,
        "name": "Kedungreja",
        "lat": -7.5099052,
        "lng": 108.7719766
      },
      "city": {
        "id": 102,
        "name": "Cilacap",
        "lat": -7.6178096,
        "lng": 108.902683
      },
      "province": {
        "id": 10,
        "name": "Jawa Tengah",
        "lat": -7.150975,
        "lng": 110.1402594
      },
      "country": {
        "id": 228,
        "name": "INDONESIA",
        "code": "ID"
      },
      "id": 19071,
      "name": "Kedungreja",
      "postcode": "53263",
      "lat": -7.5153339,
      "lng": 108.7660364
    },
    {
      "suburb": {
        "id": 1732,
        "name": "Kedungreja",
        "lat": -7.5099052,
        "lng": 108.7719766
      },
      "city": {
        "id": 102,
        "name": "Cilacap",
        "lat": -7.6178096,
        "lng": 108.902683
      },
      "province": {
        "id": 10,
        "name": "Jawa Tengah",
        "lat": -7.150975,
        "lng": 110.1402594
      },
      "country": {
        "id": 228,
        "name": "INDONESIA",
        "code": "ID"
      },
      "id": 19072,
      "name": "Rejamulya",
      "postcode": "53263",
      "lat": -7.4880924,
      "lng": 108.7393068
    },
    {
      "suburb": {
        "id": 1732,
        "name": "Kedungreja",
        "lat": -7.5099052,
        "lng": 108.7719766
      },
      "city": {
        "id": 102,
        "name": "Cilacap",
        "lat": -7.6178096,
        "lng": 108.902683
      },
      "province": {
        "id": 10,
        "name": "Jawa Tengah",
        "lat": -7.150975,
        "lng": 110.1402594
      },
      "country": {
        "id": 228,
        "name": "INDONESIA",
        "code": "ID"
      },
      "id": 19073,
      "name": "Ciklapa",
      "postcode": "53263",
      "lat": -7.5009787,
      "lng": 108.7987084
    },
    {
      "suburb": {
        "id": 1732,
        "name": "Kedungreja",
        "lat": -7.5099052,
        "lng": 108.7719766
      },
      "city": {
        "id": 102,
        "name": "Cilacap",
        "lat": -7.6178096,
        "lng": 108.902683
      },
      "province": {
        "id": 10,
        "name": "Jawa Tengah",
        "lat": -7.150975,
        "lng": 110.1402594
      },
      "country": {
        "id": 228,
        "name": "INDONESIA",
        "code": "ID"
      },
      "id": 19074,
      "name": "Jatisari",
      "postcode": "53263",
      "lat": -7.5240954,
      "lng": 108.8016788
    },
    {
      "suburb": {
        "id": 1732,
        "name": "Kedungreja",
        "lat": -7.5099052,
        "lng": 108.7719766
      },
      "city": {
        "id": 102,
        "name": "Cilacap",
        "lat": -7.6178096,
        "lng": 108.902683
      },
      "province": {
        "id": 10,
        "name": "Jawa Tengah",
        "lat": -7.150975,
        "lng": 110.1402594
      },
      "country": {
        "id": 228,
        "name": "INDONESIA",
        "code": "ID"
      },
      "id": 19075,
      "name": "Bumireja",
      "postcode": "53263",
      "lat": -7.5452932,
      "lng": 108.7897976
    },
    {
      "suburb": {
        "id": 1732,
        "name": "Kedungreja",
        "lat": -7.5099052,
        "lng": 108.7719766
      },
      "city": {
        "id": 102,
        "name": "Cilacap",
        "lat": -7.6178096,
        "lng": 108.902683
      },
      "province": {
        "id": 10,
        "name": "Jawa Tengah",
        "lat": -7.150975,
        "lng": 110.1402594
      },
      "country": {
        "id": 228,
        "name": "INDONESIA",
        "code": "ID"
      },
      "id": 19076,
      "name": "Bangunreja",
      "postcode": "53263",
      "lat": -7.4971203,
      "lng": 108.7690065
    },
    {
      "suburb": {
        "id": 1732,
        "name": "Kedungreja",
        "lat": -7.5099052,
        "lng": 108.7719766
      },
      "city": {
        "id": 102,
        "name": "Cilacap",
        "lat": -7.6178096,
        "lng": 108.902683
      },
      "province": {
        "id": 10,
        "name": "Jawa Tengah",
        "lat": -7.150975,
        "lng": 110.1402594
      },
      "country": {
        "id": 228,
        "name": "INDONESIA",
        "code": "ID"
      },
      "id": 19077,
      "name": "Bojongsari",
      "postcode": "53263",
      "lat": -7.4652396,
      "lng": 108.7303974
    },
    {
      "suburb": {
        "id": 1733,
        "name": "Cipari",
        "lat": -7.4066528,
        "lng": 108.7719766
      },
      "city": {
        "id": 102,
        "name": "Cilacap",
        "lat": -7.6178096,
        "lng": 108.902683
      },
      "province": {
        "id": 10,
        "name": "Jawa Tengah",
        "lat": -7.150975,
        "lng": 110.1402594
      },
      "country": {
        "id": 228,
        "name": "INDONESIA",
        "code": "ID"
      },
      "id": 19078,
      "name": "Segaralangu",
      "postcode": "53262",
      "lat": -7.4316733,
      "lng": 108.7897976
    },
    {
      "suburb": {
        "id": 1733,
        "name": "Cipari",
        "lat": -7.4066528,
        "lng": 108.7719766
      },
      "city": {
        "id": 102,
        "name": "Cilacap",
        "lat": -7.6178096,
        "lng": 108.902683
      },
      "province": {
        "id": 10,
        "name": "Jawa Tengah",
        "lat": -7.150975,
        "lng": 110.1402594
      },
      "country": {
        "id": 228,
        "name": "INDONESIA",
        "code": "ID"
      },
      "id": 19079,
      "name": "Serang",
      "postcode": "53262",
      "lat": -7.4563265,
      "lng": 108.7571263
    },
    {
      "suburb": {
        "id": 1733,
        "name": "Cipari",
        "lat": -7.4066528,
        "lng": 108.7719766
      },
      "city": {
        "id": 102,
        "name": "Cilacap",
        "lat": -7.6178096,
        "lng": 108.902683
      },
      "province": {
        "id": 10,
        "name": "Jawa Tengah",
        "lat": -7.150975,
        "lng": 110.1402594
      },
      "country": {
        "id": 228,
        "name": "INDONESIA",
        "code": "ID"
      },
      "id": 19080,
      "name": "Sidasari",
      "postcode": "53262",
      "lat": -7.3830575,
      "lng": 108.780887
    },
    {
      "suburb": {
        "id": 1733,
        "name": "Cipari",
        "lat": -7.4066528,
        "lng": 108.7719766
      },
      "city": {
        "id": 102,
        "name": "Cilacap",
        "lat": -7.6178096,
        "lng": 108.902683
      },
      "province": {
        "id": 10,
        "name": "Jawa Tengah",
        "lat": -7.150975,
        "lng": 110.1402594
      },
      "country": {
        "id": 228,
        "name": "INDONESIA",
        "code": "ID"
      },
      "id": 19081,
      "name": "Mulyadadi",
      "postcode": "53262",
      "lat": -7.4234223,
      "lng": 108.7422767
    },
    {
      "suburb": {
        "id": 1733,
        "name": "Cipari",
        "lat": -7.4066528,
        "lng": 108.7719766
      },
      "city": {
        "id": 102,
        "name": "Cilacap",
        "lat": -7.6178096,
        "lng": 108.902683
      },
      "province": {
        "id": 10,
        "name": "Jawa Tengah",
        "lat": -7.150975,
        "lng": 110.1402594
      },
      "country": {
        "id": 228,
        "name": "INDONESIA",
        "code": "ID"
      },
      "id": 19082,
      "name": "Pegadingan",
      "postcode": "53262",
      "lat": -7.4017524,
      "lng": 108.7660364
    },
    {
      "suburb": {
        "id": 1733,
        "name": "Cipari",
        "lat": -7.4066528,
        "lng": 108.7719766
      },
      "city": {
        "id": 102,
        "name": "Cilacap",
        "lat": -7.6178096,
        "lng": 108.902683
      },
      "province": {
        "id": 10,
        "name": "Jawa Tengah",
        "lat": -7.150975,
        "lng": 110.1402594
      },
      "country": {
        "id": 228,
        "name": "INDONESIA",
        "code": "ID"
      },
      "id": 19083,
      "name": "Cisuru",
      "postcode": "53262",
      "lat": -7.3826638,
      "lng": 108.7303974
    },
    {
      "suburb": {
        "id": 1733,
        "name": "Cipari",
        "lat": -7.4066528,
        "lng": 108.7719766
      },
      "city": {
        "id": 102,
        "name": "Cilacap",
        "lat": -7.6178096,
        "lng": 108.902683
      },
      "province": {
        "id": 10,
        "name": "Jawa Tengah",
        "lat": -7.150975,
        "lng": 110.1402594
      },
      "country": {
        "id": 228,
        "name": "INDONESIA",
        "code": "ID"
      },
      "id": 19084,
      "name": "Karangreja",
      "postcode": "53262",
      "lat": -7.4100016,
      "lng": 108.8135603
    },
    {
      "suburb": {
        "id": 1733,
        "name": "Cipari",
        "lat": -7.4066528,
        "lng": 108.7719766
      },
      "city": {
        "id": 102,
        "name": "Cilacap",
        "lat": -7.6178096,
        "lng": 108.902683
      },
      "province": {
        "id": 10,
        "name": "Jawa Tengah",
        "lat": -7.150975,
        "lng": 110.1402594
      },
      "country": {
        "id": 228,
        "name": "INDONESIA",
        "code": "ID"
      },
      "id": 19085,
      "name": "Kutasari",
      "postcode": "53262",
      "lat": -7.386667,
      "lng": 108.8165307
    },
    {
      "suburb": {
        "id": 1733,
        "name": "Cipari",
        "lat": -7.4066528,
        "lng": 108.7719766
      },
      "city": {
        "id": 102,
        "name": "Cilacap",
        "lat": -7.6178096,
        "lng": 108.902683
      },
      "province": {
        "id": 10,
        "name": "Jawa Tengah",
        "lat": -7.150975,
        "lng": 110.1402594
      },
      "country": {
        "id": 228,
        "name": "INDONESIA",
        "code": "ID"
      },
      "id": 19086,
      "name": "Mekarsari",
      "postcode": "53262",
      "lat": -7.3713233,
      "lng": 108.7541564
    },
    {
      "suburb": {
        "id": 1733,
        "name": "Cipari",
        "lat": -7.4066528,
        "lng": 108.7719766
      },
      "city": {
        "id": 102,
        "name": "Cilacap",
        "lat": -7.6178096,
        "lng": 108.902683
      },
      "province": {
        "id": 10,
        "name": "Jawa Tengah",
        "lat": -7.150975,
        "lng": 110.1402594
      },
      "country": {
        "id": 228,
        "name": "INDONESIA",
        "code": "ID"
      },
      "id": 19087,
      "name": "Caruy",
      "postcode": "53262",
      "lat": -7.3768716,
      "lng": 108.8046491
    },
    {
      "suburb": {
        "id": 1733,
        "name": "Cipari",
        "lat": -7.4066528,
        "lng": 108.7719766
      },
      "city": {
        "id": 102,
        "name": "Cilacap",
        "lat": -7.6178096,
        "lng": 108.902683
      },
      "province": {
        "id": 10,
        "name": "Jawa Tengah",
        "lat": -7.150975,
        "lng": 110.1402594
      },
      "country": {
        "id": 228,
        "name": "INDONESIA",
        "code": "ID"
      },
      "id": 19088,
      "name": "Cipari",
      "postcode": "53262",
      "lat": -7.4405807,
      "lng": 108.7630664
    },
    {
      "suburb": {
        "id": 1734,
        "name": "Sidareja",
        "lat": -7.4846821,
        "lng": 108.7833982
      },
      "city": {
        "id": 102,
        "name": "Cilacap",
        "lat": -7.6178096,
        "lng": 108.902683
      },
      "province": {
        "id": 10,
        "name": "Jawa Tengah",
        "lat": -7.150975,
        "lng": 110.1402594
      },
      "country": {
        "id": 228,
        "name": "INDONESIA",
        "code": "ID"
      },
      "id": 19089,
      "name": "Tegalsari",
      "postcode": "53261",
      "lat": -7.4867896,
      "lng": 108.7690065
    },
    {
      "suburb": {
        "id": 1734,
        "name": "Sidareja",
        "lat": -7.4846821,
        "lng": 108.7833982
      },
      "city": {
        "id": 102,
        "name": "Cilacap",
        "lat": -7.6178096,
        "lng": 108.902683
      },
      "province": {
        "id": 10,
        "name": "Jawa Tengah",
        "lat": -7.150975,
        "lng": 110.1402594
      },
      "country": {
        "id": 228,
        "name": "INDONESIA",
        "code": "ID"
      },
      "id": 19090,
      "name": "Tinggarjaya",
      "postcode": "53261",
      "lat": -7.4712966,
      "lng": 108.7690065
    },
    {
      "suburb": {
        "id": 1734,
        "name": "Sidareja",
        "lat": -7.4846821,
        "lng": 108.7833982
      },
      "city": {
        "id": 102,
        "name": "Cilacap",
        "lat": -7.6178096,
        "lng": 108.902683
      },
      "province": {
        "id": 10,
        "name": "Jawa Tengah",
        "lat": -7.150975,
        "lng": 110.1402594
      },
      "country": {
        "id": 228,
        "name": "INDONESIA",
        "code": "ID"
      },
      "id": 19091,
      "name": "Sudagaran",
      "postcode": "53261",
      "lat": -7.490126,
      "lng": 108.8105899
    },
    {
      "suburb": {
        "id": 1734,
        "name": "Sidareja",
        "lat": -7.4846821,
        "lng": 108.7833982
      },
      "city": {
        "id": 102,
        "name": "Cilacap",
        "lat": -7.6178096,
        "lng": 108.902683
      },
      "province": {
        "id": 10,
        "name": "Jawa Tengah",
        "lat": -7.150975,
        "lng": 110.1402594
      },
      "country": {
        "id": 228,
        "name": "INDONESIA",
        "code": "ID"
      },
      "id": 19092,
      "name": "Sidamulya",
      "postcode": "53261",
      "lat": -7.4800597,
      "lng": 108.8046491
    },
    {
      "suburb": {
        "id": 1734,
        "name": "Sidareja",
        "lat": -7.4846821,
        "lng": 108.7833982
      },
      "city": {
        "id": 102,
        "name": "Cilacap",
        "lat": -7.6178096,
        "lng": 108.902683
      },
      "province": {
        "id": 10,
        "name": "Jawa Tengah",
        "lat": -7.150975,
        "lng": 110.1402594
      },
      "country": {
        "id": 228,
        "name": "INDONESIA",
        "code": "ID"
      },
      "id": 19093,
      "name": "Sidareja",
      "postcode": "53261",
      "lat": -7.4853947,
      "lng": 108.7948932
    },
    {
      "suburb": {
        "id": 1734,
        "name": "Sidareja",
        "lat": -7.4846821,
        "lng": 108.7833982
      },
      "city": {
        "id": 102,
        "name": "Cilacap",
        "lat": -7.6178096,
        "lng": 108.902683
      },
      "province": {
        "id": 10,
        "name": "Jawa Tengah",
        "lat": -7.150975,
        "lng": 110.1402594
      },
      "country": {
        "id": 228,
        "name": "INDONESIA",
        "code": "ID"
      },
      "id": 19094,
      "name": "Margasari",
      "postcode": "53261",
      "lat": -7.4671727,
      "lng": 108.7452466
    },
    {
      "suburb": {
        "id": 1734,
        "name": "Sidareja",
        "lat": -7.4846821,
        "lng": 108.7833982
      },
      "city": {
        "id": 102,
        "name": "Cilacap",
        "lat": -7.6178096,
        "lng": 108.902683
      },
      "province": {
        "id": 10,
        "name": "Jawa Tengah",
        "lat": -7.150975,
        "lng": 110.1402594
      },
      "country": {
        "id": 228,
        "name": "INDONESIA",
        "code": "ID"
      },
      "id": 19095,
      "name": "Penyarang",
      "postcode": "53261",
      "lat": -7.4404353,
      "lng": 108.8254421
    },
    {
      "suburb": {
        "id": 1734,
        "name": "Sidareja",
        "lat": -7.4846821,
        "lng": 108.7833982
      },
      "city": {
        "id": 102,
        "name": "Cilacap",
        "lat": -7.6178096,
        "lng": 108.902683
      },
      "province": {
        "id": 10,
        "name": "Jawa Tengah",
        "lat": -7.150975,
        "lng": 110.1402594
      },
      "country": {
        "id": 228,
        "name": "INDONESIA",
        "code": "ID"
      },
      "id": 19096,
      "name": "Kunci",
      "postcode": "53261",
      "lat": -7.4621203,
      "lng": 108.8016788
    },
    {
      "suburb": {
        "id": 1734,
        "name": "Sidareja",
        "lat": -7.4846821,
        "lng": 108.7833982
      },
      "city": {
        "id": 102,
        "name": "Cilacap",
        "lat": -7.6178096,
        "lng": 108.902683
      },
      "province": {
        "id": 10,
        "name": "Jawa Tengah",
        "lat": -7.150975,
        "lng": 110.1402594
      },
      "country": {
        "id": 228,
        "name": "INDONESIA",
        "code": "ID"
      },
      "id": 19097,
      "name": "Gunungreja",
      "postcode": "53261",
      "lat": -7.4720017,
      "lng": 108.7823721
    },
    {
      "suburb": {
        "id": 1734,
        "name": "Sidareja",
        "lat": -7.4846821,
        "lng": 108.7833982
      },
      "city": {
        "id": 102,
        "name": "Cilacap",
        "lat": -7.6178096,
        "lng": 108.902683
      },
      "province": {
        "id": 10,
        "name": "Jawa Tengah",
        "lat": -7.150975,
        "lng": 110.1402594
      },
      "country": {
        "id": 228,
        "name": "INDONESIA",
        "code": "ID"
      },
      "id": 19098,
      "name": "Karanggedang",
      "postcode": "53261",
      "lat": -7.4529452,
      "lng": 108.8343538
    },
    {
      "suburb": {
        "id": 1735,
        "name": "Majenang",
        "lat": -7.2330112,
        "lng": 108.736337
      },
      "city": {
        "id": 102,
        "name": "Cilacap",
        "lat": -7.6178096,
        "lng": 108.902683
      },
      "province": {
        "id": 10,
        "name": "Jawa Tengah",
        "lat": -7.150975,
        "lng": 110.1402594
      },
      "country": {
        "id": 228,
        "name": "INDONESIA",
        "code": "ID"
      },
      "id": 19099,
      "name": "Sindangsari",
      "postcode": "53257",
      "lat": -7.2959662,
      "lng": 108.7690065
    },
    {
      "suburb": {
        "id": 1735,
        "name": "Majenang",
        "lat": -7.2330112,
        "lng": 108.736337
      },
      "city": {
        "id": 102,
        "name": "Cilacap",
        "lat": -7.6178096,
        "lng": 108.902683
      },
      "province": {
        "id": 10,
        "name": "Jawa Tengah",
        "lat": -7.150975,
        "lng": 110.1402594
      },
      "country": {
        "id": 228,
        "name": "INDONESIA",
        "code": "ID"
      },
      "id": 19100,
      "name": "Ujungbarang",
      "postcode": "53257",
      "lat": -7.2250948,
      "lng": 108.8016788
    },
    {
      "suburb": {
        "id": 1735,
        "name": "Majenang",
        "lat": -7.2330112,
        "lng": 108.736337
      },
      "city": {
        "id": 102,
        "name": "Cilacap",
        "lat": -7.6178096,
        "lng": 108.902683
      },
      "province": {
        "id": 10,
        "name": "Jawa Tengah",
        "lat": -7.150975,
        "lng": 110.1402594
      },
      "country": {
        "id": 228,
        "name": "INDONESIA",
        "code": "ID"
      },
      "id": 19101,
      "name": "Sadahayu",
      "postcode": "53257",
      "lat": -7.2080402,
      "lng": 108.7185184
    },
    {
      "suburb": {
        "id": 1735,
        "name": "Majenang",
        "lat": -7.2330112,
        "lng": 108.736337
      },
      "city": {
        "id": 102,
        "name": "Cilacap",
        "lat": -7.6178096,
        "lng": 108.902683
      },
      "province": {
        "id": 10,
        "name": "Jawa Tengah",
        "lat": -7.150975,
        "lng": 110.1402594
      },
      "country": {
        "id": 228,
        "name": "INDONESIA",
        "code": "ID"
      },
      "id": 19102,
      "name": "Salebu",
      "postcode": "53257",
      "lat": -7.2773963,
      "lng": 108.7214881
    },
    {
      "suburb": {
        "id": 1735,
        "name": "Majenang",
        "lat": -7.2330112,
        "lng": 108.736337
      },
      "city": {
        "id": 102,
        "name": "Cilacap",
        "lat": -7.6178096,
        "lng": 108.902683
      },
      "province": {
        "id": 10,
        "name": "Jawa Tengah",
        "lat": -7.150975,
        "lng": 110.1402594
      },
      "country": {
        "id": 228,
        "name": "INDONESIA",
        "code": "ID"
      },
      "id": 19103,
      "name": "Sepatnunggal",
      "postcode": "53257",
      "lat": -7.2406041,
      "lng": 108.7393068
    },
    {
      "suburb": {
        "id": 1735,
        "name": "Majenang",
        "lat": -7.2330112,
        "lng": 108.736337
      },
      "city": {
        "id": 102,
        "name": "Cilacap",
        "lat": -7.6178096,
        "lng": 108.902683
      },
      "province": {
        "id": 10,
        "name": "Jawa Tengah",
        "lat": -7.150975,
        "lng": 110.1402594
      },
      "country": {
        "id": 228,
        "name": "INDONESIA",
        "code": "ID"
      },
      "id": 19104,
      "name": "Pahonjean",
      "postcode": "53257",
      "lat": -7.3305972,
      "lng": 108.7422767
    },
    {
      "suburb": {
        "id": 1735,
        "name": "Majenang",
        "lat": -7.2330112,
        "lng": 108.736337
      },
      "city": {
        "id": 102,
        "name": "Cilacap",
        "lat": -7.6178096,
        "lng": 108.902683
      },
      "province": {
        "id": 10,
        "name": "Jawa Tengah",
        "lat": -7.150975,
        "lng": 110.1402594
      },
      "country": {
        "id": 228,
        "name": "INDONESIA",
        "code": "ID"
      },
      "id": 19105,
      "name": "Pengadegan",
      "postcode": "53257",
      "lat": -7.2368969,
      "lng": 108.7660364
    },
    {
      "suburb": {
        "id": 1735,
        "name": "Majenang",
        "lat": -7.2330112,
        "lng": 108.736337
      },
      "city": {
        "id": 102,
        "name": "Cilacap",
        "lat": -7.6178096,
        "lng": 108.902683
      },
      "province": {
        "id": 10,
        "name": "Jawa Tengah",
        "lat": -7.150975,
        "lng": 110.1402594
      },
      "country": {
        "id": 228,
        "name": "INDONESIA",
        "code": "ID"
      },
      "id": 19106,
      "name": "Sadabumi",
      "postcode": "53257",
      "lat": -7.2065356,
      "lng": 108.7541564
    },
    {
      "suburb": {
        "id": 1735,
        "name": "Majenang",
        "lat": -7.2330112,
        "lng": 108.736337
      },
      "city": {
        "id": 102,
        "name": "Cilacap",
        "lat": -7.6178096,
        "lng": 108.902683
      },
      "province": {
        "id": 10,
        "name": "Jawa Tengah",
        "lat": -7.150975,
        "lng": 110.1402594
      },
      "country": {
        "id": 228,
        "name": "INDONESIA",
        "code": "ID"
      },
      "id": 19107,
      "name": "Padangjaya",
      "postcode": "53257",
      "lat": -7.3006072,
      "lng": 108.780887
    },
    {
      "suburb": {
        "id": 1735,
        "name": "Majenang",
        "lat": -7.2330112,
        "lng": 108.736337
      },
      "city": {
        "id": 102,
        "name": "Cilacap",
        "lat": -7.6178096,
        "lng": 108.902683
      },
      "province": {
        "id": 10,
        "name": "Jawa Tengah",
        "lat": -7.150975,
        "lng": 110.1402594
      },
      "country": {
        "id": 228,
        "name": "INDONESIA",
        "code": "ID"
      },
      "id": 19108,
      "name": "Padangsari",
      "postcode": "53257",
      "lat": -7.3366662,
      "lng": 108.780887
    },
    {
      "suburb": {
        "id": 1735,
        "name": "Majenang",
        "lat": -7.2330112,
        "lng": 108.736337
      },
      "city": {
        "id": 102,
        "name": "Cilacap",
        "lat": -7.6178096,
        "lng": 108.902683
      },
      "province": {
        "id": 10,
        "name": "Jawa Tengah",
        "lat": -7.150975,
        "lng": 110.1402594
      },
      "country": {
        "id": 228,
        "name": "INDONESIA",
        "code": "ID"
      },
      "id": 19109,
      "name": "Mulyadadi",
      "postcode": "53257",
      "lat": -7.3261586,
      "lng": 108.7556413
    },
    {
      "suburb": {
        "id": 1735,
        "name": "Majenang",
        "lat": -7.2330112,
        "lng": 108.736337
      },
      "city": {
        "id": 102,
        "name": "Cilacap",
        "lat": -7.6178096,
        "lng": 108.902683
      },
      "province": {
        "id": 10,
        "name": "Jawa Tengah",
        "lat": -7.150975,
        "lng": 110.1402594
      },
      "country": {
        "id": 228,
        "name": "INDONESIA",
        "code": "ID"
      },
      "id": 19110,
      "name": "Mulyasari",
      "postcode": "53257",
      "lat": -7.3271277,
      "lng": 108.7630664
    },
    {
      "suburb": {
        "id": 1735,
        "name": "Majenang",
        "lat": -7.2330112,
        "lng": 108.736337
      },
      "city": {
        "id": 102,
        "name": "Cilacap",
        "lat": -7.6178096,
        "lng": 108.902683
      },
      "province": {
        "id": 10,
        "name": "Jawa Tengah",
        "lat": -7.150975,
        "lng": 110.1402594
      },
      "country": {
        "id": 228,
        "name": "INDONESIA",
        "code": "ID"
      },
      "id": 19111,
      "name": "Cilopadang",
      "postcode": "53257",
      "lat": -7.3000978,
      "lng": 108.7927679
    },
    {
      "suburb": {
        "id": 1735,
        "name": "Majenang",
        "lat": -7.2330112,
        "lng": 108.736337
      },
      "city": {
        "id": 102,
        "name": "Cilacap",
        "lat": -7.6178096,
        "lng": 108.902683
      },
      "province": {
        "id": 10,
        "name": "Jawa Tengah",
        "lat": -7.150975,
        "lng": 110.1402594
      },
      "country": {
        "id": 228,
        "name": "INDONESIA",
        "code": "ID"
      },
      "id": 19112,
      "name": "Jenang",
      "postcode": "53257",
      "lat": -7.2964746,
      "lng": 108.7571263
    },
    {
      "suburb": {
        "id": 1735,
        "name": "Majenang",
        "lat": -7.2330112,
        "lng": 108.736337
      },
      "city": {
        "id": 102,
        "name": "Cilacap",
        "lat": -7.6178096,
        "lng": 108.902683
      },
      "province": {
        "id": 10,
        "name": "Jawa Tengah",
        "lat": -7.150975,
        "lng": 110.1402594
      },
      "country": {
        "id": 228,
        "name": "INDONESIA",
        "code": "ID"
      },
      "id": 19113,
      "name": "Bener",
      "postcode": "53257",
      "lat": -7.2579865,
      "lng": 108.7541564
    },
    {
      "suburb": {
        "id": 1735,
        "name": "Majenang",
        "lat": -7.2330112,
        "lng": 108.736337
      },
      "city": {
        "id": 102,
        "name": "Cilacap",
        "lat": -7.6178096,
        "lng": 108.902683
      },
      "province": {
        "id": 10,
        "name": "Jawa Tengah",
        "lat": -7.150975,
        "lng": 110.1402594
      },
      "country": {
        "id": 228,
        "name": "INDONESIA",
        "code": "ID"
      },
      "id": 19114,
      "name": "Boja",
      "postcode": "53257",
      "lat": -7.2564685,
      "lng": 108.7897976
    },
    {
      "suburb": {
        "id": 1735,
        "name": "Majenang",
        "lat": -7.2330112,
        "lng": 108.736337
      },
      "city": {
        "id": 102,
        "name": "Cilacap",
        "lat": -7.6178096,
        "lng": 108.902683
      },
      "province": {
        "id": 10,
        "name": "Jawa Tengah",
        "lat": -7.150975,
        "lng": 110.1402594
      },
      "country": {
        "id": 228,
        "name": "INDONESIA",
        "code": "ID"
      },
      "id": 19115,
      "name": "Cibeunying",
      "postcode": "53257",
      "lat": -7.2790851,
      "lng": 108.7422767
    },
    {
      "suburb": {
        "id": 1736,
        "name": "Cimanggu",
        "lat": -7.3113122,
        "lng": 108.8313832
      },
      "city": {
        "id": 102,
        "name": "Cilacap",
        "lat": -7.6178096,
        "lng": 108.902683
      },
      "province": {
        "id": 10,
        "name": "Jawa Tengah",
        "lat": -7.150975,
        "lng": 110.1402594
      },
      "country": {
        "id": 228,
        "name": "INDONESIA",
        "code": "ID"
      },
      "id": 19116,
      "name": "Pesahangan",
      "postcode": "53256",
      "lat": -7.2441513,
      "lng": 108.8373244
    },
    {
      "suburb": {
        "id": 1736,
        "name": "Cimanggu",
        "lat": -7.3113122,
        "lng": 108.8313832
      },
      "city": {
        "id": 102,
        "name": "Cilacap",
        "lat": -7.6178096,
        "lng": 108.902683
      },
      "province": {
        "id": 10,
        "name": "Jawa Tengah",
        "lat": -7.150975,
        "lng": 110.1402594
      },
      "country": {
        "id": 228,
        "name": "INDONESIA",
        "code": "ID"
      },
      "id": 19117,
      "name": "Rejodadi",
      "postcode": "53256",
      "lat": -7.3201879,
      "lng": 108.8046491
    },
    {
      "suburb": {
        "id": 1736,
        "name": "Cimanggu",
        "lat": -7.3113122,
        "lng": 108.8313832
      },
      "city": {
        "id": 102,
        "name": "Cilacap",
        "lat": -7.6178096,
        "lng": 108.902683
      },
      "province": {
        "id": 10,
        "name": "Jawa Tengah",
        "lat": -7.150975,
        "lng": 110.1402594
      },
      "country": {
        "id": 228,
        "name": "INDONESIA",
        "code": "ID"
      },
      "id": 19118,
      "name": "Negarajati",
      "postcode": "53256",
      "lat": -7.296121,
      "lng": 108.8254421
    },
    {
      "suburb": {
        "id": 1736,
        "name": "Cimanggu",
        "lat": -7.3113122,
        "lng": 108.8313832
      },
      "city": {
        "id": 102,
        "name": "Cilacap",
        "lat": -7.6178096,
        "lng": 108.902683
      },
      "province": {
        "id": 10,
        "name": "Jawa Tengah",
        "lat": -7.150975,
        "lng": 110.1402594
      },
      "country": {
        "id": 228,
        "name": "INDONESIA",
        "code": "ID"
      },
      "id": 19119,
      "name": "Panimbang",
      "postcode": "53256",
      "lat": -7.3637273,
      "lng": 108.8700024
    },
    {
      "suburb": {
        "id": 1736,
        "name": "Cimanggu",
        "lat": -7.3113122,
        "lng": 108.8313832
      },
      "city": {
        "id": 102,
        "name": "Cilacap",
        "lat": -7.6178096,
        "lng": 108.902683
      },
      "province": {
        "id": 10,
        "name": "Jawa Tengah",
        "lat": -7.150975,
        "lng": 110.1402594
      },
      "country": {
        "id": 228,
        "name": "INDONESIA",
        "code": "ID"
      },
      "id": 19120,
      "name": "Mandala",
      "postcode": "53256",
      "lat": -7.347756,
      "lng": 108.8818859
    },
    {
      "suburb": {
        "id": 1736,
        "name": "Cimanggu",
        "lat": -7.3113122,
        "lng": 108.8313832
      },
      "city": {
        "id": 102,
        "name": "Cilacap",
        "lat": -7.6178096,
        "lng": 108.902683
      },
      "province": {
        "id": 10,
        "name": "Jawa Tengah",
        "lat": -7.150975,
        "lng": 110.1402594
      },
      "country": {
        "id": 228,
        "name": "INDONESIA",
        "code": "ID"
      },
      "id": 19121,
      "name": "Karangsari",
      "postcode": "53256",
      "lat": -7.2930534,
      "lng": 108.8967409
    },
    {
      "suburb": {
        "id": 1736,
        "name": "Cimanggu",
        "lat": -7.3113122,
        "lng": 108.8313832
      },
      "city": {
        "id": 102,
        "name": "Cilacap",
        "lat": -7.6178096,
        "lng": 108.902683
      },
      "province": {
        "id": 10,
        "name": "Jawa Tengah",
        "lat": -7.150975,
        "lng": 110.1402594
      },
      "country": {
        "id": 228,
        "name": "INDONESIA",
        "code": "ID"
      },
      "id": 19122,
      "name": "Kutabima",
      "postcode": "53256",
      "lat": -7.2837842,
      "lng": 108.8729732
    },
    {
      "suburb": {
        "id": 1736,
        "name": "Cimanggu",
        "lat": -7.3113122,
        "lng": 108.8313832
      },
      "city": {
        "id": 102,
        "name": "Cilacap",
        "lat": -7.6178096,
        "lng": 108.902683
      },
      "province": {
        "id": 10,
        "name": "Jawa Tengah",
        "lat": -7.150975,
        "lng": 110.1402594
      },
      "country": {
        "id": 228,
        "name": "INDONESIA",
        "code": "ID"
      },
      "id": 19123,
      "name": "Cisalak",
      "postcode": "53256",
      "lat": -7.3053959,
      "lng": 108.849207
    },
    {
      "suburb": {
        "id": 1736,
        "name": "Cimanggu",
        "lat": -7.3113122,
        "lng": 108.8313832
      },
      "city": {
        "id": 102,
        "name": "Cilacap",
        "lat": -7.6178096,
        "lng": 108.902683
      },
      "province": {
        "id": 10,
        "name": "Jawa Tengah",
        "lat": -7.150975,
        "lng": 110.1402594
      },
      "country": {
        "id": 228,
        "name": "INDONESIA",
        "code": "ID"
      },
      "id": 19124,
      "name": "Karangreja",
      "postcode": "53256",
      "lat": -7.3594727,
      "lng": 108.7897976
    },
    {
      "suburb": {
        "id": 1736,
        "name": "Cimanggu",
        "lat": -7.3113122,
        "lng": 108.8313832
      },
      "city": {
        "id": 102,
        "name": "Cilacap",
        "lat": -7.6178096,
        "lng": 108.902683
      },
      "province": {
        "id": 10,
        "name": "Jawa Tengah",
        "lat": -7.150975,
        "lng": 110.1402594
      },
      "country": {
        "id": 228,
        "name": "INDONESIA",
        "code": "ID"
      },
      "id": 19125,
      "name": "Cilempuyang",
      "postcode": "53256",
      "lat": -7.3270184,
      "lng": 108.8254421
    },
    {
      "suburb": {
        "id": 1736,
        "name": "Cimanggu",
        "lat": -7.3113122,
        "lng": 108.8313832
      },
      "city": {
        "id": 102,
        "name": "Cilacap",
        "lat": -7.6178096,
        "lng": 108.902683
      },
      "province": {
        "id": 10,
        "name": "Jawa Tengah",
        "lat": -7.150975,
        "lng": 110.1402594
      },
      "country": {
        "id": 228,
        "name": "INDONESIA",
        "code": "ID"
      },
      "id": 19126,
      "name": "Cimanggu",
      "postcode": "53256",
      "lat": -7.3579306,
      "lng": 108.8254421
    },
    {
      "suburb": {
        "id": 1736,
        "name": "Cimanggu",
        "lat": -7.3113122,
        "lng": 108.8313832
      },
      "city": {
        "id": 102,
        "name": "Cilacap",
        "lat": -7.6178096,
        "lng": 108.902683
      },
      "province": {
        "id": 10,
        "name": "Jawa Tengah",
        "lat": -7.150975,
        "lng": 110.1402594
      },
      "country": {
        "id": 228,
        "name": "INDONESIA",
        "code": "ID"
      },
      "id": 19127,
      "name": "Cibalung",
      "postcode": "53256",
      "lat": -7.3146682,
      "lng": 108.8729732
    },
    {
      "suburb": {
        "id": 1736,
        "name": "Cimanggu",
        "lat": -7.3113122,
        "lng": 108.8313832
      },
      "city": {
        "id": 102,
        "name": "Cilacap",
        "lat": -7.6178096,
        "lng": 108.902683
      },
      "province": {
        "id": 10,
        "name": "Jawa Tengah",
        "lat": -7.150975,
        "lng": 110.1402594
      },
      "country": {
        "id": 228,
        "name": "INDONESIA",
        "code": "ID"
      },
      "id": 19128,
      "name": "Cijati",
      "postcode": "53256",
      "lat": -7.2451649,
      "lng": 108.8135603
    },
    {
      "suburb": {
        "id": 1736,
        "name": "Cimanggu",
        "lat": -7.3113122,
        "lng": 108.8313832
      },
      "city": {
        "id": 102,
        "name": "Cilacap",
        "lat": -7.6178096,
        "lng": 108.902683
      },
      "province": {
        "id": 10,
        "name": "Jawa Tengah",
        "lat": -7.150975,
        "lng": 110.1402594
      },
      "country": {
        "id": 228,
        "name": "INDONESIA",
        "code": "ID"
      },
      "id": 19129,
      "name": "Bantarmangu",
      "postcode": "53256",
      "lat": -7.3384839,
      "lng": 108.8581191
    },
    {
      "suburb": {
        "id": 1736,
        "name": "Cimanggu",
        "lat": -7.3113122,
        "lng": 108.8313832
      },
      "city": {
        "id": 102,
        "name": "Cilacap",
        "lat": -7.6178096,
        "lng": 108.902683
      },
      "province": {
        "id": 10,
        "name": "Jawa Tengah",
        "lat": -7.150975,
        "lng": 110.1402594
      },
      "country": {
        "id": 228,
        "name": "INDONESIA",
        "code": "ID"
      },
      "id": 19130,
      "name": "Bantarpanjang",
      "postcode": "53256",
      "lat": -7.3645013,
      "lng": 108.8521777
    },
    {
      "suburb": {
        "id": 1737,
        "name": "Karangpucung",
        "lat": -7.3798207,
        "lng": 108.9145675
      },
      "city": {
        "id": 102,
        "name": "Cilacap",
        "lat": -7.6178096,
        "lng": 108.902683
      },
      "province": {
        "id": 10,
        "name": "Jawa Tengah",
        "lat": -7.150975,
        "lng": 110.1402594
      },
      "country": {
        "id": 228,
        "name": "INDONESIA",
        "code": "ID"
      },
      "id": 19131,
      "name": "Tayem",
      "postcode": "53255",
      "lat": -7.3930933,
      "lng": 108.9056541
    },
    {
      "suburb": {
        "id": 1737,
        "name": "Karangpucung",
        "lat": -7.3798207,
        "lng": 108.9145675
      },
      "city": {
        "id": 102,
        "name": "Cilacap",
        "lat": -7.6178096,
        "lng": 108.902683
      },
      "province": {
        "id": 10,
        "name": "Jawa Tengah",
        "lat": -7.150975,
        "lng": 110.1402594
      },
      "country": {
        "id": 228,
        "name": "INDONESIA",
        "code": "ID"
      },
      "id": 19132,
      "name": "Tayemtimur",
      "postcode": "53255",
      "lat": -7.4156387,
      "lng": 108.9205099
    },
    {
      "suburb": {
        "id": 1737,
        "name": "Karangpucung",
        "lat": -7.3798207,
        "lng": 108.9145675
      },
      "city": {
        "id": 102,
        "name": "Cilacap",
        "lat": -7.6178096,
        "lng": 108.902683
      },
      "province": {
        "id": 10,
        "name": "Jawa Tengah",
        "lat": -7.150975,
        "lng": 110.1402594
      },
      "country": {
        "id": 228,
        "name": "INDONESIA",
        "code": "ID"
      },
      "id": 19133,
      "name": "Sindangbarang",
      "postcode": "53255",
      "lat": -7.4367861,
      "lng": 108.9086252
    },
    {
      "suburb": {
        "id": 1737,
        "name": "Karangpucung",
        "lat": -7.3798207,
        "lng": 108.9145675
      },
      "city": {
        "id": 102,
        "name": "Cilacap",
        "lat": -7.6178096,
        "lng": 108.902683
      },
      "province": {
        "id": 10,
        "name": "Jawa Tengah",
        "lat": -7.150975,
        "lng": 110.1402594
      },
      "country": {
        "id": 228,
        "name": "INDONESIA",
        "code": "ID"
      },
      "id": 19134,
      "name": "Surusunda",
      "postcode": "53255",
      "lat": -7.3646234,
      "lng": 108.9086252
    },
    {
      "suburb": {
        "id": 1737,
        "name": "Karangpucung",
        "lat": -7.3798207,
        "lng": 108.9145675
      },
      "city": {
        "id": 102,
        "name": "Cilacap",
        "lat": -7.6178096,
        "lng": 108.902683
      },
      "province": {
        "id": 10,
        "name": "Jawa Tengah",
        "lat": -7.150975,
        "lng": 110.1402594
      },
      "country": {
        "id": 228,
        "name": "INDONESIA",
        "code": "ID"
      },
      "id": 19135,
      "name": "Pengawaren",
      "postcode": "53255",
      "lat": -7.3897541,
      "lng": 108.8640607
    },
    {
      "suburb": {
        "id": 1737,
        "name": "Karangpucung",
        "lat": -7.3798207,
        "lng": 108.9145675
      },
      "city": {
        "id": 102,
        "name": "Cilacap",
        "lat": -7.6178096,
        "lng": 108.902683
      },
      "province": {
        "id": 10,
        "name": "Jawa Tengah",
        "lat": -7.150975,
        "lng": 110.1402594
      },
      "country": {
        "id": 228,
        "name": "INDONESIA",
        "code": "ID"
      },
      "id": 19136,
      "name": "Sidamulya",
      "postcode": "53255",
      "lat": -7.3446568,
      "lng": 108.9531947
    },
    {
      "suburb": {
        "id": 1737,
        "name": "Karangpucung",
        "lat": -7.3798207,
        "lng": 108.9145675
      },
      "city": {
        "id": 102,
        "name": "Cilacap",
        "lat": -7.6178096,
        "lng": 108.902683
      },
      "province": {
        "id": 10,
        "name": "Jawa Tengah",
        "lat": -7.150975,
        "lng": 110.1402594
      },
      "country": {
        "id": 228,
        "name": "INDONESIA",
        "code": "ID"
      },
      "id": 19137,
      "name": "Karangpucung",
      "postcode": "53255",
      "lat": -7.4090773,
      "lng": 108.8937698
    },
    {
      "suburb": {
        "id": 1737,
        "name": "Karangpucung",
        "lat": -7.3798207,
        "lng": 108.9145675
      },
      "city": {
        "id": 102,
        "name": "Cilacap",
        "lat": -7.6178096,
        "lng": 108.902683
      },
      "province": {
        "id": 10,
        "name": "Jawa Tengah",
        "lat": -7.150975,
        "lng": 110.1402594
      },
      "country": {
        "id": 228,
        "name": "INDONESIA",
        "code": "ID"
      },
      "id": 19138,
      "name": "Pamulihan",
      "postcode": "53255",
      "lat": -7.3250963,
      "lng": 108.9294237
    },
    {
      "suburb": {
        "id": 1737,
        "name": "Karangpucung",
        "lat": -7.3798207,
        "lng": 108.9145675
      },
      "city": {
        "id": 102,
        "name": "Cilacap",
        "lat": -7.6178096,
        "lng": 108.902683
      },
      "province": {
        "id": 10,
        "name": "Jawa Tengah",
        "lat": -7.150975,
        "lng": 110.1402594
      },
      "country": {
        "id": 228,
        "name": "INDONESIA",
        "code": "ID"
      },
      "id": 19139,
      "name": "Gunungtelu",
      "postcode": "53255",
      "lat": -7.4177217,
      "lng": 108.8729732
    },
    {
      "suburb": {
        "id": 1737,
        "name": "Karangpucung",
        "lat": -7.3798207,
        "lng": 108.9145675
      },
      "city": {
        "id": 102,
        "name": "Cilacap",
        "lat": -7.6178096,
        "lng": 108.902683
      },
      "province": {
        "id": 10,
        "name": "Jawa Tengah",
        "lat": -7.150975,
        "lng": 110.1402594
      },
      "country": {
        "id": 228,
        "name": "INDONESIA",
        "code": "ID"
      },
      "id": 19140,
      "name": "Cidadap",
      "postcode": "53255",
      "lat": -7.4059984,
      "lng": 108.8462363
    },
    {
      "suburb": {
        "id": 1737,
        "name": "Karangpucung",
        "lat": -7.3798207,
        "lng": 108.9145675
      },
      "city": {
        "id": 102,
        "name": "Cilacap",
        "lat": -7.6178096,
        "lng": 108.902683
      },
      "province": {
        "id": 10,
        "name": "Jawa Tengah",
        "lat": -7.150975,
        "lng": 110.1402594
      },
      "country": {
        "id": 228,
        "name": "INDONESIA",
        "code": "ID"
      },
      "id": 19141,
      "name": "Ciporos",
      "postcode": "53255",
      "lat": -7.3789281,
      "lng": 108.8759441
    },
    {
      "suburb": {
        "id": 1737,
        "name": "Karangpucung",
        "lat": -7.3798207,
        "lng": 108.9145675
      },
      "city": {
        "id": 102,
        "name": "Cilacap",
        "lat": -7.6178096,
        "lng": 108.902683
      },
      "province": {
        "id": 10,
        "name": "Jawa Tengah",
        "lat": -7.150975,
        "lng": 110.1402594
      },
      "country": {
        "id": 228,
        "name": "INDONESIA",
        "code": "ID"
      },
      "id": 19142,
      "name": "Ciruyung",
      "postcode": "53255",
      "lat": -7.3532867,
      "lng": 108.932395
    },
    {
      "suburb": {
        "id": 1737,
        "name": "Karangpucung",
        "lat": -7.3798207,
        "lng": 108.9145675
      },
      "city": {
        "id": 102,
        "name": "Cilacap",
        "lat": -7.6178096,
        "lng": 108.902683
      },
      "province": {
        "id": 10,
        "name": "Jawa Tengah",
        "lat": -7.150975,
        "lng": 110.1402594
      },
      "country": {
        "id": 228,
        "name": "INDONESIA",
        "code": "ID"
      },
      "id": 19143,
      "name": "Babakan",
      "postcode": "53255",
      "lat": -7.3342363,
      "lng": 108.8967409
    },
    {
      "suburb": {
        "id": 1737,
        "name": "Karangpucung",
        "lat": -7.3798207,
        "lng": 108.9145675
      },
      "city": {
        "id": 102,
        "name": "Cilacap",
        "lat": -7.6178096,
        "lng": 108.902683
      },
      "province": {
        "id": 10,
        "name": "Jawa Tengah",
        "lat": -7.150975,
        "lng": 110.1402594
      },
      "country": {
        "id": 228,
        "name": "INDONESIA",
        "code": "ID"
      },
      "id": 19144,
      "name": "Bengbulang",
      "postcode": "53255",
      "lat": -7.3733712,
      "lng": 108.9442804
    },
    {
      "suburb": {
        "id": 1738,
        "name": "Gandrungmangu",
        "lat": -7.5067598,
        "lng": 108.8432656
      },
      "city": {
        "id": 102,
        "name": "Cilacap",
        "lat": -7.6178096,
        "lng": 108.902683
      },
      "province": {
        "id": 10,
        "name": "Jawa Tengah",
        "lat": -7.150975,
        "lng": 110.1402594
      },
      "country": {
        "id": 228,
        "name": "INDONESIA",
        "code": "ID"
      },
      "id": 19145,
      "name": "Sidaurip",
      "postcode": "53254",
      "lat": -7.5741986,
      "lng": 108.8373244
    },
    {
      "suburb": {
        "id": 1738,
        "name": "Gandrungmangu",
        "lat": -7.5067598,
        "lng": 108.8432656
      },
      "city": {
        "id": 102,
        "name": "Cilacap",
        "lat": -7.6178096,
        "lng": 108.902683
      },
      "province": {
        "id": 10,
        "name": "Jawa Tengah",
        "lat": -7.150975,
        "lng": 110.1402594
      },
      "country": {
        "id": 228,
        "name": "INDONESIA",
        "code": "ID"
      },
      "id": 19146,
      "name": "Wringinharjo",
      "postcode": "53254",
      "lat": -7.4844392,
      "lng": 108.8224716
    },
    {
      "suburb": {
        "id": 1738,
        "name": "Gandrungmangu",
        "lat": -7.5067598,
        "lng": 108.8432656
      },
      "city": {
        "id": 102,
        "name": "Cilacap",
        "lat": -7.6178096,
        "lng": 108.902683
      },
      "province": {
        "id": 10,
        "name": "Jawa Tengah",
        "lat": -7.150975,
        "lng": 110.1402594
      },
      "country": {
        "id": 228,
        "name": "INDONESIA",
        "code": "ID"
      },
      "id": 19147,
      "name": "Muktisari",
      "postcode": "53254",
      "lat": -7.4899564,
      "lng": 108.8729732
    },
    {
      "suburb": {
        "id": 1738,
        "name": "Gandrungmangu",
        "lat": -7.5067598,
        "lng": 108.8432656
      },
      "city": {
        "id": 102,
        "name": "Cilacap",
        "lat": -7.6178096,
        "lng": 108.902683
      },
      "province": {
        "id": 10,
        "name": "Jawa Tengah",
        "lat": -7.150975,
        "lng": 110.1402594
      },
      "country": {
        "id": 228,
        "name": "INDONESIA",
        "code": "ID"
      },
      "id": 19148,
      "name": "Rungkang",
      "postcode": "53254",
      "lat": -7.4312658,
      "lng": 108.8581191
    },
    {
      "suburb": {
        "id": 1738,
        "name": "Gandrungmangu",
        "lat": -7.5067598,
        "lng": 108.8432656
      },
      "city": {
        "id": 102,
        "name": "Cilacap",
        "lat": -7.6178096,
        "lng": 108.902683
      },
      "province": {
        "id": 10,
        "name": "Jawa Tengah",
        "lat": -7.150975,
        "lng": 110.1402594
      },
      "country": {
        "id": 228,
        "name": "INDONESIA",
        "code": "ID"
      },
      "id": 19149,
      "name": "Layansari",
      "postcode": "53254",
      "lat": -7.5524645,
      "lng": 108.8610899
    },
    {
      "suburb": {
        "id": 1738,
        "name": "Gandrungmangu",
        "lat": -7.5067598,
        "lng": 108.8432656
      },
      "city": {
        "id": 102,
        "name": "Cilacap",
        "lat": -7.6178096,
        "lng": 108.902683
      },
      "province": {
        "id": 10,
        "name": "Jawa Tengah",
        "lat": -7.150975,
        "lng": 110.1402594
      },
      "country": {
        "id": 228,
        "name": "INDONESIA",
        "code": "ID"
      },
      "id": 19150,
      "name": "Karanggintung",
      "postcode": "53254",
      "lat": -7.4486696,
      "lng": 108.8729732
    },
    {
      "suburb": {
        "id": 1738,
        "name": "Gandrungmangu",
        "lat": -7.5067598,
        "lng": 108.8432656
      },
      "city": {
        "id": 102,
        "name": "Cilacap",
        "lat": -7.6178096,
        "lng": 108.902683
      },
      "province": {
        "id": 10,
        "name": "Jawa Tengah",
        "lat": -7.150975,
        "lng": 110.1402594
      },
      "country": {
        "id": 228,
        "name": "INDONESIA",
        "code": "ID"
      },
      "id": 19151,
      "name": "Kertajaya",
      "postcode": "53254",
      "lat": -7.4810322,
      "lng": 108.8997119
    },
    {
      "suburb": {
        "id": 1738,
        "name": "Gandrungmangu",
        "lat": -7.5067598,
        "lng": 108.8432656
      },
      "city": {
        "id": 102,
        "name": "Cilacap",
        "lat": -7.6178096,
        "lng": 108.902683
      },
      "province": {
        "id": 10,
        "name": "Jawa Tengah",
        "lat": -7.150975,
        "lng": 110.1402594
      },
      "country": {
        "id": 228,
        "name": "INDONESIA",
        "code": "ID"
      },
      "id": 19152,
      "name": "Gintungreja",
      "postcode": "53254",
      "lat": -7.5812911,
      "lng": 108.8521777
    },
    {
      "suburb": {
        "id": 1738,
        "name": "Gandrungmangu",
        "lat": -7.5067598,
        "lng": 108.8432656
      },
      "city": {
        "id": 102,
        "name": "Cilacap",
        "lat": -7.6178096,
        "lng": 108.902683
      },
      "province": {
        "id": 10,
        "name": "Jawa Tengah",
        "lat": -7.150975,
        "lng": 110.1402594
      },
      "country": {
        "id": 228,
        "name": "INDONESIA",
        "code": "ID"
      },
      "id": 19153,
      "name": "Karanganyar",
      "postcode": "53254",
      "lat": -7.4806802,
      "lng": 108.849207
    },
    {
      "suburb": {
        "id": 1738,
        "name": "Gandrungmangu",
        "lat": -7.5067598,
        "lng": 108.8432656
      },
      "city": {
        "id": 102,
        "name": "Cilacap",
        "lat": -7.6178096,
        "lng": 108.902683
      },
      "province": {
        "id": 10,
        "name": "Jawa Tengah",
        "lat": -7.150975,
        "lng": 110.1402594
      },
      "country": {
        "id": 228,
        "name": "INDONESIA",
        "code": "ID"
      },
      "id": 19154,
      "name": "Gandrungmanis",
      "postcode": "53254",
      "lat": -7.5347757,
      "lng": 108.8521777
    },
    {
      "suburb": {
        "id": 1738,
        "name": "Gandrungmangu",
        "lat": -7.5067598,
        "lng": 108.8432656
      },
      "city": {
        "id": 102,
        "name": "Cilacap",
        "lat": -7.6178096,
        "lng": 108.902683
      },
      "province": {
        "id": 10,
        "name": "Jawa Tengah",
        "lat": -7.150975,
        "lng": 110.1402594
      },
      "country": {
        "id": 228,
        "name": "INDONESIA",
        "code": "ID"
      },
      "id": 19155,
      "name": "Gandrungmangu",
      "postcode": "53254",
      "lat": -7.5092108,
      "lng": 108.8462363
    },
    {
      "suburb": {
        "id": 1738,
        "name": "Gandrungmangu",
        "lat": -7.5067598,
        "lng": 108.8432656
      },
      "city": {
        "id": 102,
        "name": "Cilacap",
        "lat": -7.6178096,
        "lng": 108.902683
      },
      "province": {
        "id": 10,
        "name": "Jawa Tengah",
        "lat": -7.150975,
        "lng": 110.1402594
      },
      "country": {
        "id": 228,
        "name": "INDONESIA",
        "code": "ID"
      },
      "id": 19156,
      "name": "Cinangsi",
      "postcode": "53254",
      "lat": -7.4611765,
      "lng": 108.8818859
    },
    {
      "suburb": {
        "id": 1738,
        "name": "Gandrungmangu",
        "lat": -7.5067598,
        "lng": 108.8432656
      },
      "city": {
        "id": 102,
        "name": "Cilacap",
        "lat": -7.6178096,
        "lng": 108.902683
      },
      "province": {
        "id": 10,
        "name": "Jawa Tengah",
        "lat": -7.150975,
        "lng": 110.1402594
      },
      "country": {
        "id": 228,
        "name": "INDONESIA",
        "code": "ID"
      },
      "id": 19157,
      "name": "Cisumur",
      "postcode": "53254",
      "lat": -7.533378,
      "lng": 108.8254421
    },
    {
      "suburb": {
        "id": 1738,
        "name": "Gandrungmangu",
        "lat": -7.5067598,
        "lng": 108.8432656
      },
      "city": {
        "id": 102,
        "name": "Cilacap",
        "lat": -7.6178096,
        "lng": 108.902683
      },
      "province": {
        "id": 10,
        "name": "Jawa Tengah",
        "lat": -7.150975,
        "lng": 110.1402594
      },
      "country": {
        "id": 228,
        "name": "INDONESIA",
        "code": "ID"
      },
      "id": 19158,
      "name": "Bulusari",
      "postcode": "53254",
      "lat": -7.5198041,
      "lng": 108.840295
    },
    {
      "suburb": {
        "id": 1739,
        "name": "Kawunganten",
        "lat": -7.5960586,
        "lng": 108.9264524
      },
      "city": {
        "id": 102,
        "name": "Cilacap",
        "lat": -7.6178096,
        "lng": 108.902683
      },
      "province": {
        "id": 10,
        "name": "Jawa Tengah",
        "lat": -7.150975,
        "lng": 110.1402594
      },
      "country": {
        "id": 228,
        "name": "INDONESIA",
        "code": "ID"
      },
      "id": 19159,
      "name": "Ujungmanik",
      "postcode": "53253",
      "lat": -7.6439763,
      "lng": 108.9531947
    },
    {
      "suburb": {
        "id": 1740,
        "name": "Kampung Laut",
        "lat": -7.6711603,
        "lng": 108.8670315
      },
      "city": {
        "id": 102,
        "name": "Cilacap",
        "lat": -7.6178096,
        "lng": 108.902683
      },
      "province": {
        "id": 10,
        "name": "Jawa Tengah",
        "lat": -7.150975,
        "lng": 110.1402594
      },
      "country": {
        "id": 228,
        "name": "INDONESIA",
        "code": "ID"
      },
      "id": 19160,
      "name": "Ujungalang",
      "postcode": "53253",
      "lat": -7.6957009,
      "lng": 108.8967409
    },
    {
      "suburb": {
        "id": 1740,
        "name": "Kampung Laut",
        "lat": -7.6711603,
        "lng": 108.8670315
      },
      "city": {
        "id": 102,
        "name": "Cilacap",
        "lat": -7.6178096,
        "lng": 108.902683
      },
      "province": {
        "id": 10,
        "name": "Jawa Tengah",
        "lat": -7.150975,
        "lng": 110.1402594
      },
      "country": {
        "id": 228,
        "name": "INDONESIA",
        "code": "ID"
      },
      "id": 19161,
      "name": "Ujunggagak",
      "postcode": "53253",
      "lat": -7.6362682,
      "lng": 108.8373244
    },
    {
      "suburb": {
        "id": 1739,
        "name": "Kawunganten",
        "lat": -7.5960586,
        "lng": 108.9264524
      },
      "city": {
        "id": 102,
        "name": "Cilacap",
        "lat": -7.6178096,
        "lng": 108.902683
      },
      "province": {
        "id": 10,
        "name": "Jawa Tengah",
        "lat": -7.150975,
        "lng": 110.1402594
      },