{
  "metadata": {
    "path": "/v3/location/areas?limit=1000&page=65",
    "http_status_code": 200,
    "http_status": "OK",
    "timestamp": 1647340079
  },
  "data": [
    {
      "suburb": {
        "id": 5490,
        "name": "Kesu",
        "lat": -2.9959627,
        "lng": 119.898875
      },
      "city": {
        "id": 359,
        "name": "Toraja Utara",
        "lat": -2.8621942,
        "lng": 119.8352303
      },
      "province": {
        "id": 28,
        "name": "Sulawesi Selatan",
        "lat": -3.6687994,
        "lng": 119.9740534
      },
      "country": {
        "id": 228,
        "name": "INDONESIA",
        "code": "ID"
      },
      "id": 64018,
      "name": "Tadongkon",
      "postcode": "91852",
      "lat": -3.0206774,
      "lng": 119.8786276
    },
    {
      "suburb": {
        "id": 5490,
        "name": "Kesu",
        "lat": -2.9959627,
        "lng": 119.898875
      },
      "city": {
        "id": 359,
        "name": "Toraja Utara",
        "lat": -2.8621942,
        "lng": 119.8352303
      },
      "province": {
        "id": 28,
        "name": "Sulawesi Selatan",
        "lat": -3.6687994,
        "lng": 119.9740534
      },
      "country": {
        "id": 228,
        "name": "INDONESIA",
        "code": "ID"
      },
      "id": 64019,
      "name": "Tallulolo",
      "postcode": "91852",
      "lat": -2.9985875,
      "lng": 119.8844129
    },
    {
      "suburb": {
        "id": 5423,
        "name": "Sopai",
        "lat": -2.9973508,
        "lng": 119.8525909
      },
      "city": {
        "id": 359,
        "name": "Toraja Utara",
        "lat": -2.8621942,
        "lng": 119.8352303
      },
      "province": {
        "id": 28,
        "name": "Sulawesi Selatan",
        "lat": -3.6687994,
        "lng": 119.9740534
      },
      "country": {
        "id": 228,
        "name": "INDONESIA",
        "code": "ID"
      },
      "id": 64020,
      "name": "Salu",
      "postcode": "91852",
      "lat": -2.9689568,
      "lng": 119.8496976
    },
    {
      "suburb": {
        "id": 5423,
        "name": "Sopai",
        "lat": -2.9973508,
        "lng": 119.8525909
      },
      "city": {
        "id": 359,
        "name": "Toraja Utara",
        "lat": -2.8621942,
        "lng": 119.8352303
      },
      "province": {
        "id": 28,
        "name": "Sulawesi Selatan",
        "lat": -3.6687994,
        "lng": 119.9740534
      },
      "country": {
        "id": 228,
        "name": "INDONESIA",
        "code": "ID"
      },
      "id": 64021,
      "name": "Salu Rante",
      "postcode": "91852",
      "lat": -2.9973508,
      "lng": 119.8525909
    },
    {
      "suburb": {
        "id": 5490,
        "name": "Kesu",
        "lat": -2.9959627,
        "lng": 119.898875
      },
      "city": {
        "id": 359,
        "name": "Toraja Utara",
        "lat": -2.8621942,
        "lng": 119.8352303
      },
      "province": {
        "id": 28,
        "name": "Sulawesi Selatan",
        "lat": -3.6687994,
        "lng": 119.9740534
      },
      "country": {
        "id": 228,
        "name": "INDONESIA",
        "code": "ID"
      },
      "id": 64022,
      "name": "Rinding Batu",
      "postcode": "91852",
      "lat": -2.9863229,
      "lng": 119.8916441
    },
    {
      "suburb": {
        "id": 5489,
        "name": "Sanggalangi",
        "lat": -3.0078867,
        "lng": 119.9393608
      },
      "city": {
        "id": 359,
        "name": "Toraja Utara",
        "lat": -2.8621942,
        "lng": 119.8352303
      },
      "province": {
        "id": 28,
        "name": "Sulawesi Selatan",
        "lat": -3.6687994,
        "lng": 119.9740534
      },
      "country": {
        "id": 228,
        "name": "INDONESIA",
        "code": "ID"
      },
      "id": 64023,
      "name": "Pata Padang",
      "postcode": "91852",
      "lat": -3.0283942,
      "lng": 119.9133356
    },
    {
      "suburb": {
        "id": 5490,
        "name": "Kesu",
        "lat": -2.9959627,
        "lng": 119.898875
      },
      "city": {
        "id": 359,
        "name": "Toraja Utara",
        "lat": -2.8621942,
        "lng": 119.8352303
      },
      "province": {
        "id": 28,
        "name": "Sulawesi Selatan",
        "lat": -3.6687994,
        "lng": 119.9740534
      },
      "country": {
        "id": 228,
        "name": "INDONESIA",
        "code": "ID"
      },
      "id": 64024,
      "name": "Pantanakan Lolo",
      "postcode": "91852",
      "lat": -2.9887853,
      "lng": 119.9191194
    },
    {
      "suburb": {
        "id": 5489,
        "name": "Sanggalangi",
        "lat": -3.0078867,
        "lng": 119.9393608
      },
      "city": {
        "id": 359,
        "name": "Toraja Utara",
        "lat": -2.8621942,
        "lng": 119.8352303
      },
      "province": {
        "id": 28,
        "name": "Sulawesi Selatan",
        "lat": -3.6687994,
        "lng": 119.9740534
      },
      "country": {
        "id": 228,
        "name": "INDONESIA",
        "code": "ID"
      },
      "id": 64025,
      "name": "LaBo",
      "postcode": "91852",
      "lat": -3.004029,
      "lng": 119.9220112
    },
    {
      "suburb": {
        "id": 5489,
        "name": "Sanggalangi",
        "lat": -3.0078867,
        "lng": 119.9393608
      },
      "city": {
        "id": 359,
        "name": "Toraja Utara",
        "lat": -2.8621942,
        "lng": 119.8352303
      },
      "province": {
        "id": 28,
        "name": "Sulawesi Selatan",
        "lat": -3.6687994,
        "lng": 119.9740534
      },
      "country": {
        "id": 228,
        "name": "INDONESIA",
        "code": "ID"
      },
      "id": 64026,
      "name": "Paepalean",
      "postcode": "91852",
      "lat": -3.0154197,
      "lng": 119.9075516
    },
    {
      "suburb": {
        "id": 5490,
        "name": "Kesu",
        "lat": -2.9959627,
        "lng": 119.898875
      },
      "city": {
        "id": 359,
        "name": "Toraja Utara",
        "lat": -2.8621942,
        "lng": 119.8352303
      },
      "province": {
        "id": 28,
        "name": "Sulawesi Selatan",
        "lat": -3.6687994,
        "lng": 119.9740534
      },
      "country": {
        "id": 228,
        "name": "INDONESIA",
        "code": "ID"
      },
      "id": 64027,
      "name": "Batan",
      "postcode": "91852",
      "lat": -2.9893052,
      "lng": 119.9017673
    },
    {
      "suburb": {
        "id": 5489,
        "name": "Sanggalangi",
        "lat": -3.0078867,
        "lng": 119.9393608
      },
      "city": {
        "id": 359,
        "name": "Toraja Utara",
        "lat": -2.8621942,
        "lng": 119.8352303
      },
      "province": {
        "id": 28,
        "name": "Sulawesi Selatan",
        "lat": -3.6687994,
        "lng": 119.9740534
      },
      "country": {
        "id": 228,
        "name": "INDONESIA",
        "code": "ID"
      },
      "id": 64028,
      "name": "Buntu LaBo",
      "postcode": "91852",
      "lat": -3.0212057,
      "lng": 119.9335779
    },
    {
      "suburb": {
        "id": 5490,
        "name": "Kesu",
        "lat": -2.9959627,
        "lng": 119.898875
      },
      "city": {
        "id": 359,
        "name": "Toraja Utara",
        "lat": -2.8621942,
        "lng": 119.8352303
      },
      "province": {
        "id": 28,
        "name": "Sulawesi Selatan",
        "lat": -3.6687994,
        "lng": 119.9740534
      },
      "country": {
        "id": 228,
        "name": "INDONESIA",
        "code": "ID"
      },
      "id": 64029,
      "name": "Angin Angin",
      "postcode": "91852",
      "lat": -3.0070038,
      "lng": 119.8959827
    },
    {
      "suburb": {
        "id": 5491,
        "name": "Rantepao",
        "lat": -2.9703732,
        "lng": 119.8757349
      },
      "city": {
        "id": 359,
        "name": "Toraja Utara",
        "lat": -2.8621942,
        "lng": 119.8352303
      },
      "province": {
        "id": 28,
        "name": "Sulawesi Selatan",
        "lat": -3.6687994,
        "lng": 119.9740534
      },
      "country": {
        "id": 228,
        "name": "INDONESIA",
        "code": "ID"
      },
      "id": 64030,
      "name": "Singki",
      "postcode": "91835",
      "lat": -2.9725292,
      "lng": 119.8952596
    },
    {
      "suburb": {
        "id": 5491,
        "name": "Rantepao",
        "lat": -2.9703732,
        "lng": 119.8757349
      },
      "city": {
        "id": 359,
        "name": "Toraja Utara",
        "lat": -2.8621942,
        "lng": 119.8352303
      },
      "province": {
        "id": 28,
        "name": "Sulawesi Selatan",
        "lat": -3.6687994,
        "lng": 119.9740534
      },
      "country": {
        "id": 228,
        "name": "INDONESIA",
        "code": "ID"
      },
      "id": 64031,
      "name": "Rante Pasele",
      "postcode": "91835",
      "lat": -2.9745031,
      "lng": 119.9024903
    },
    {
      "suburb": {
        "id": 5491,
        "name": "Rantepao",
        "lat": -2.9703732,
        "lng": 119.8757349
      },
      "city": {
        "id": 359,
        "name": "Toraja Utara",
        "lat": -2.8621942,
        "lng": 119.8352303
      },
      "province": {
        "id": 28,
        "name": "Sulawesi Selatan",
        "lat": -3.6687994,
        "lng": 119.9740534
      },
      "country": {
        "id": 228,
        "name": "INDONESIA",
        "code": "ID"
      },
      "id": 64032,
      "name": "Saloso",
      "postcode": "91835",
      "lat": -2.9682696,
      "lng": 119.8728421
    },
    {
      "suburb": {
        "id": 5491,
        "name": "Rantepao",
        "lat": -2.9703732,
        "lng": 119.8757349
      },
      "city": {
        "id": 359,
        "name": "Toraja Utara",
        "lat": -2.8621942,
        "lng": 119.8352303
      },
      "province": {
        "id": 28,
        "name": "Sulawesi Selatan",
        "lat": -3.6687994,
        "lng": 119.9740534
      },
      "country": {
        "id": 228,
        "name": "INDONESIA",
        "code": "ID"
      },
      "id": 64033,
      "name": "Penanian",
      "postcode": "91835",
      "lat": -2.9694221,
      "lng": 119.8985135
    },
    {
      "suburb": {
        "id": 5491,
        "name": "Rantepao",
        "lat": -2.9703732,
        "lng": 119.8757349
      },
      "city": {
        "id": 359,
        "name": "Toraja Utara",
        "lat": -2.8621942,
        "lng": 119.8352303
      },
      "province": {
        "id": 28,
        "name": "Sulawesi Selatan",
        "lat": -3.6687994,
        "lng": 119.9740534
      },
      "country": {
        "id": 228,
        "name": "INDONESIA",
        "code": "ID"
      },
      "id": 64034,
      "name": "Karassik",
      "postcode": "91835",
      "lat": -2.9796667,
      "lng": 119.8945365
    },
    {
      "suburb": {
        "id": 5491,
        "name": "Rantepao",
        "lat": -2.9703732,
        "lng": 119.8757349
      },
      "city": {
        "id": 359,
        "name": "Toraja Utara",
        "lat": -2.8621942,
        "lng": 119.8352303
      },
      "province": {
        "id": 28,
        "name": "Sulawesi Selatan",
        "lat": -3.6687994,
        "lng": 119.9740534
      },
      "country": {
        "id": 228,
        "name": "INDONESIA",
        "code": "ID"
      },
      "id": 64035,
      "name": "Limbong",
      "postcode": "91835",
      "lat": -2.954168,
      "lng": 119.8685028
    },
    {
      "suburb": {
        "id": 5491,
        "name": "Rantepao",
        "lat": -2.9703732,
        "lng": 119.8757349
      },
      "city": {
        "id": 359,
        "name": "Toraja Utara",
        "lat": -2.8621942,
        "lng": 119.8352303
      },
      "province": {
        "id": 28,
        "name": "Sulawesi Selatan",
        "lat": -3.6687994,
        "lng": 119.9740534
      },
      "country": {
        "id": 228,
        "name": "INDONESIA",
        "code": "ID"
      },
      "id": 64036,
      "name": "Laang Tanduk",
      "postcode": "91834",
      "lat": -2.976684,
      "lng": 119.8844129
    },
    {
      "suburb": {
        "id": 5491,
        "name": "Rantepao",
        "lat": -2.9703732,
        "lng": 119.8757349
      },
      "city": {
        "id": 359,
        "name": "Toraja Utara",
        "lat": -2.8621942,
        "lng": 119.8352303
      },
      "province": {
        "id": 28,
        "name": "Sulawesi Selatan",
        "lat": -3.6687994,
        "lng": 119.9740534
      },
      "country": {
        "id": 228,
        "name": "INDONESIA",
        "code": "ID"
      },
      "id": 64037,
      "name": "Mentiro Tiku",
      "postcode": "91834",
      "lat": -2.9633757,
      "lng": 119.8901979
    },
    {
      "suburb": {
        "id": 5492,
        "name": "Tikala",
        "lat": -2.9441059,
        "lng": 119.8757349
      },
      "city": {
        "id": 359,
        "name": "Toraja Utara",
        "lat": -2.8621942,
        "lng": 119.8352303
      },
      "province": {
        "id": 28,
        "name": "Sulawesi Selatan",
        "lat": -3.6687994,
        "lng": 119.9740534
      },
      "country": {
        "id": 228,
        "name": "INDONESIA",
        "code": "ID"
      },
      "id": 64038,
      "name": "Tikala",
      "postcode": "91833",
      "lat": -2.9462089,
      "lng": 119.8786276
    },
    {
      "suburb": {
        "id": 5492,
        "name": "Tikala",
        "lat": -2.9441059,
        "lng": 119.8757349
      },
      "city": {
        "id": 359,
        "name": "Toraja Utara",
        "lat": -2.8621942,
        "lng": 119.8352303
      },
      "province": {
        "id": 28,
        "name": "Sulawesi Selatan",
        "lat": -3.6687994,
        "lng": 119.9740534
      },
      "country": {
        "id": 228,
        "name": "INDONESIA",
        "code": "ID"
      },
      "id": 64039,
      "name": "Pangden",
      "postcode": "91833",
      "lat": -2.9285365,
      "lng": 119.8844129
    },
    {
      "suburb": {
        "id": 5492,
        "name": "Tikala",
        "lat": -2.9441059,
        "lng": 119.8757349
      },
      "city": {
        "id": 359,
        "name": "Toraja Utara",
        "lat": -2.8621942,
        "lng": 119.8352303
      },
      "province": {
        "id": 28,
        "name": "Sulawesi Selatan",
        "lat": -3.6687994,
        "lng": 119.9740534
      },
      "country": {
        "id": 228,
        "name": "INDONESIA",
        "code": "ID"
      },
      "id": 64040,
      "name": "Sereale",
      "postcode": "91833",
      "lat": -2.9518082,
      "lng": 119.8742885
    },
    {
      "suburb": {
        "id": 5492,
        "name": "Tikala",
        "lat": -2.9441059,
        "lng": 119.8757349
      },
      "city": {
        "id": 359,
        "name": "Toraja Utara",
        "lat": -2.8621942,
        "lng": 119.8352303
      },
      "province": {
        "id": 28,
        "name": "Sulawesi Selatan",
        "lat": -3.6687994,
        "lng": 119.9740534
      },
      "country": {
        "id": 228,
        "name": "INDONESIA",
        "code": "ID"
      },
      "id": 64041,
      "name": "Buntu Batu",
      "postcode": "91833",
      "lat": -2.9384229,
      "lng": 119.8829666
    },
    {
      "suburb": {
        "id": 5492,
        "name": "Tikala",
        "lat": -2.9441059,
        "lng": 119.8757349
      },
      "city": {
        "id": 359,
        "name": "Toraja Utara",
        "lat": -2.8621942,
        "lng": 119.8352303
      },
      "province": {
        "id": 28,
        "name": "Sulawesi Selatan",
        "lat": -3.6687994,
        "lng": 119.9740534
      },
      "country": {
        "id": 228,
        "name": "INDONESIA",
        "code": "ID"
      },
      "id": 64042,
      "name": "Embatau",
      "postcode": "91833",
      "lat": -2.9386782,
      "lng": 119.8742885
    },
    {
      "suburb": {
        "id": 5492,
        "name": "Tikala",
        "lat": -2.9441059,
        "lng": 119.8757349
      },
      "city": {
        "id": 359,
        "name": "Toraja Utara",
        "lat": -2.8621942,
        "lng": 119.8352303
      },
      "province": {
        "id": 28,
        "name": "Sulawesi Selatan",
        "lat": -3.6687994,
        "lng": 119.9740534
      },
      "country": {
        "id": 228,
        "name": "INDONESIA",
        "code": "ID"
      },
      "id": 64043,
      "name": "Buntu Barana",
      "postcode": "91833",
      "lat": -2.946919,
      "lng": 119.8916441
    },
    {
      "suburb": {
        "id": 5493,
        "name": "Tallunglipu",
        "lat": -2.9518335,
        "lng": 119.9104436
      },
      "city": {
        "id": 359,
        "name": "Toraja Utara",
        "lat": -2.8621942,
        "lng": 119.8352303
      },
      "province": {
        "id": 28,
        "name": "Sulawesi Selatan",
        "lat": -3.6687994,
        "lng": 119.9740534
      },
      "country": {
        "id": 228,
        "name": "INDONESIA",
        "code": "ID"
      },
      "id": 64044,
      "name": "Tantanan Tallunglipu",
      "postcode": "91832",
      "lat": -2.9455263,
      "lng": 119.9017673
    },
    {
      "suburb": {
        "id": 5492,
        "name": "Tikala",
        "lat": -2.9441059,
        "lng": 119.8757349
      },
      "city": {
        "id": 359,
        "name": "Toraja Utara",
        "lat": -2.8621942,
        "lng": 119.8352303
      },
      "province": {
        "id": 28,
        "name": "Sulawesi Selatan",
        "lat": -3.6687994,
        "lng": 119.9740534
      },
      "country": {
        "id": 228,
        "name": "INDONESIA",
        "code": "ID"
      },
      "id": 64045,
      "name": "Benteng Kado Toria",
      "postcode": "91833",
      "lat": -2.9389334,
      "lng": 119.8656099
    },
    {
      "suburb": {
        "id": 5493,
        "name": "Tallunglipu",
        "lat": -2.9518335,
        "lng": 119.9104436
      },
      "city": {
        "id": 359,
        "name": "Toraja Utara",
        "lat": -2.8621942,
        "lng": 119.8352303
      },
      "province": {
        "id": 28,
        "name": "Sulawesi Selatan",
        "lat": -3.6687994,
        "lng": 119.9740534
      },
      "country": {
        "id": 228,
        "name": "INDONESIA",
        "code": "ID"
      },
      "id": 64046,
      "name": "Tallunglipu Matallo",
      "postcode": "91832",
      "lat": -2.9518335,
      "lng": 119.9104436
    },
    {
      "suburb": {
        "id": 5493,
        "name": "Tallunglipu",
        "lat": -2.9518335,
        "lng": 119.9104436
      },
      "city": {
        "id": 359,
        "name": "Toraja Utara",
        "lat": -2.8621942,
        "lng": 119.8352303
      },
      "province": {
        "id": 28,
        "name": "Sulawesi Selatan",
        "lat": -3.6687994,
        "lng": 119.9740534
      },
      "country": {
        "id": 228,
        "name": "INDONESIA",
        "code": "ID"
      },
      "id": 64047,
      "name": "Tampo Tallunglipu",
      "postcode": "91832",
      "lat": -2.9619809,
      "lng": 119.9003211
    },
    {
      "suburb": {
        "id": 5493,
        "name": "Tallunglipu",
        "lat": -2.9518335,
        "lng": 119.9104436
      },
      "city": {
        "id": 359,
        "name": "Toraja Utara",
        "lat": -2.8621942,
        "lng": 119.8352303
      },
      "province": {
        "id": 28,
        "name": "Sulawesi Selatan",
        "lat": -3.6687994,
        "lng": 119.9740534
      },
      "country": {
        "id": 228,
        "name": "INDONESIA",
        "code": "ID"
      },
      "id": 64048,
      "name": "Rantepaku Tallunglipu",
      "postcode": "91832",
      "lat": -2.9541071,
      "lng": 119.9075516
    },
    {
      "suburb": {
        "id": 5493,
        "name": "Tallunglipu",
        "lat": -2.9518335,
        "lng": 119.9104436
      },
      "city": {
        "id": 359,
        "name": "Toraja Utara",
        "lat": -2.8621942,
        "lng": 119.8352303
      },
      "province": {
        "id": 28,
        "name": "Sulawesi Selatan",
        "lat": -3.6687994,
        "lng": 119.9740534
      },
      "country": {
        "id": 228,
        "name": "INDONESIA",
        "code": "ID"
      },
      "id": 64049,
      "name": "Tagari Tallunglipu",
      "postcode": "91832",
      "lat": -2.9639979,
      "lng": 119.9061055
    },
    {
      "suburb": {
        "id": 5493,
        "name": "Tallunglipu",
        "lat": -2.9518335,
        "lng": 119.9104436
      },
      "city": {
        "id": 359,
        "name": "Toraja Utara",
        "lat": -2.8621942,
        "lng": 119.8352303
      },
      "province": {
        "id": 28,
        "name": "Sulawesi Selatan",
        "lat": -3.6687994,
        "lng": 119.9740534
      },
      "country": {
        "id": 228,
        "name": "INDONESIA",
        "code": "ID"
      },
      "id": 64050,
      "name": "Tallunglipu",
      "postcode": "91832",
      "lat": -2.9541071,
      "lng": 119.9075516
    },
    {
      "suburb": {
        "id": 5493,
        "name": "Tallunglipu",
        "lat": -2.9518335,
        "lng": 119.9104436
      },
      "city": {
        "id": 359,
        "name": "Toraja Utara",
        "lat": -2.8621942,
        "lng": 119.8352303
      },
      "province": {
        "id": 28,
        "name": "Sulawesi Selatan",
        "lat": -3.6687994,
        "lng": 119.9740534
      },
      "country": {
        "id": 228,
        "name": "INDONESIA",
        "code": "ID"
      },
      "id": 64051,
      "name": "Buntu Tallunglipu",
      "postcode": "91832",
      "lat": -2.9493891,
      "lng": 119.9191194
    },
    {
      "suburb": {
        "id": 5491,
        "name": "Rantepao",
        "lat": -2.9703732,
        "lng": 119.8757349
      },
      "city": {
        "id": 359,
        "name": "Toraja Utara",
        "lat": -2.8621942,
        "lng": 119.8352303
      },
      "province": {
        "id": 28,
        "name": "Sulawesi Selatan",
        "lat": -3.6687994,
        "lng": 119.9740534
      },
      "country": {
        "id": 228,
        "name": "INDONESIA",
        "code": "ID"
      },
      "id": 64052,
      "name": "Pasele",
      "postcode": "91831",
      "lat": -2.9727535,
      "lng": 119.9061055
    },
    {
      "suburb": {
        "id": 5491,
        "name": "Rantepao",
        "lat": -2.9703732,
        "lng": 119.8757349
      },
      "city": {
        "id": 359,
        "name": "Toraja Utara",
        "lat": -2.8621942,
        "lng": 119.8352303
      },
      "province": {
        "id": 28,
        "name": "Sulawesi Selatan",
        "lat": -3.6687994,
        "lng": 119.9740534
      },
      "country": {
        "id": 228,
        "name": "INDONESIA",
        "code": "ID"
      },
      "id": 64053,
      "name": "Rantepao",
      "postcode": "91831",
      "lat": -2.9773045,
      "lng": 119.9003211
    },
    {
      "suburb": {
        "id": 5491,
        "name": "Rantepao",
        "lat": -2.9703732,
        "lng": 119.8757349
      },
      "city": {
        "id": 359,
        "name": "Toraja Utara",
        "lat": -2.8621942,
        "lng": 119.8352303
      },
      "province": {
        "id": 28,
        "name": "Sulawesi Selatan",
        "lat": -3.6687994,
        "lng": 119.9740534
      },
      "country": {
        "id": 228,
        "name": "INDONESIA",
        "code": "ID"
      },
      "id": 64054,
      "name": "Malango",
      "postcode": "91831",
      "lat": -2.9679787,
      "lng": 119.9010442
    },
    {
      "suburb": {
        "id": 5494,
        "name": "Makale",
        "lat": -3.1045962,
        "lng": 119.8524988
      },
      "city": {
        "id": 362,
        "name": "Tana Toraja",
        "lat": -3.0753003,
        "lng": 119.742604
      },
      "province": {
        "id": 28,
        "name": "Sulawesi Selatan",
        "lat": -3.6687994,
        "lng": 119.9740534
      },
      "country": {
        "id": 228,
        "name": "INDONESIA",
        "code": "ID"
      },
      "id": 64055,
      "name": "Tampo Makale",
      "postcode": "91817",
      "lat": -3.0965319,
      "lng": 119.8381239
    },
    {
      "suburb": {
        "id": 5494,
        "name": "Makale",
        "lat": -3.1045962,
        "lng": 119.8524988
      },
      "city": {
        "id": 362,
        "name": "Tana Toraja",
        "lat": -3.0753003,
        "lng": 119.742604
      },
      "province": {
        "id": 28,
        "name": "Sulawesi Selatan",
        "lat": -3.6687994,
        "lng": 119.9740534
      },
      "country": {
        "id": 228,
        "name": "INDONESIA",
        "code": "ID"
      },
      "id": 64056,
      "name": "Tondon Mamullu",
      "postcode": "91817",
      "lat": -3.1002086,
      "lng": 119.8612703
    },
    {
      "suburb": {
        "id": 5494,
        "name": "Makale",
        "lat": -3.1045962,
        "lng": 119.8524988
      },
      "city": {
        "id": 362,
        "name": "Tana Toraja",
        "lat": -3.0753003,
        "lng": 119.742604
      },
      "province": {
        "id": 28,
        "name": "Sulawesi Selatan",
        "lat": -3.6687994,
        "lng": 119.9740534
      },
      "country": {
        "id": 228,
        "name": "INDONESIA",
        "code": "ID"
      },
      "id": 64057,
      "name": "Rante",
      "postcode": "91817",
      "lat": -3.0882805,
      "lng": 119.8207615
    },
    {
      "suburb": {
        "id": 5495,
        "name": "Makale Utara",
        "lat": -3.0626157,
        "lng": 119.8699493
      },
      "city": {
        "id": 362,
        "name": "Tana Toraja",
        "lat": -3.0753003,
        "lng": 119.742604
      },
      "province": {
        "id": 28,
        "name": "Sulawesi Selatan",
        "lat": -3.6687994,
        "lng": 119.9740534
      },
      "country": {
        "id": 228,
        "name": "INDONESIA",
        "code": "ID"
      },
      "id": 64058,
      "name": "Sarira",
      "postcode": "91817",
      "lat": -3.0292717,
      "lng": 119.8844129
    },
    {
      "suburb": {
        "id": 5495,
        "name": "Makale Utara",
        "lat": -3.0626157,
        "lng": 119.8699493
      },
      "city": {
        "id": 362,
        "name": "Tana Toraja",
        "lat": -3.0753003,
        "lng": 119.742604
      },
      "province": {
        "id": 28,
        "name": "Sulawesi Selatan",
        "lat": -3.6687994,
        "lng": 119.9740534
      },
      "country": {
        "id": 228,
        "name": "INDONESIA",
        "code": "ID"
      },
      "id": 64059,
      "name": "Tambunan",
      "postcode": "91817",
      "lat": -3.0735009,
      "lng": 119.8728421
    },
    {
      "suburb": {
        "id": 5495,
        "name": "Makale Utara",
        "lat": -3.0626157,
        "lng": 119.8699493
      },
      "city": {
        "id": 362,
        "name": "Tana Toraja",
        "lat": -3.0753003,
        "lng": 119.742604
      },
      "province": {
        "id": 28,
        "name": "Sulawesi Selatan",
        "lat": -3.6687994,
        "lng": 119.9740534
      },
      "country": {
        "id": 228,
        "name": "INDONESIA",
        "code": "ID"
      },
      "id": 64060,
      "name": "Lemo",
      "postcode": "91817",
      "lat": -3.0489207,
      "lng": 119.8873054
    },
    {
      "suburb": {
        "id": 5495,
        "name": "Makale Utara",
        "lat": -3.0626157,
        "lng": 119.8699493
      },
      "city": {
        "id": 362,
        "name": "Tana Toraja",
        "lat": -3.0753003,
        "lng": 119.742604
      },
      "province": {
        "id": 28,
        "name": "Sulawesi Selatan",
        "lat": -3.6687994,
        "lng": 119.9740534
      },
      "country": {
        "id": 228,
        "name": "INDONESIA",
        "code": "ID"
      },
      "id": 64061,
      "name": "Lion Tondok Iring",
      "postcode": "91817",
      "lat": -3.0601554,
      "lng": 119.8786276
    },
    {
      "suburb": {
        "id": 5494,
        "name": "Makale",
        "lat": -3.1045962,
        "lng": 119.8524988
      },
      "city": {
        "id": 362,
        "name": "Tana Toraja",
        "lat": -3.0753003,
        "lng": 119.742604
      },
      "province": {
        "id": 28,
        "name": "Sulawesi Selatan",
        "lat": -3.6687994,
        "lng": 119.9740534
      },
      "country": {
        "id": 228,
        "name": "INDONESIA",
        "code": "ID"
      },
      "id": 64062,
      "name": "Kamali Pentalluan",
      "postcode": "91817",
      "lat": -3.0884413,
      "lng": 119.8511443
    },
    {
      "suburb": {
        "id": 5494,
        "name": "Makale",
        "lat": -3.1045962,
        "lng": 119.8524988
      },
      "city": {
        "id": 362,
        "name": "Tana Toraja",
        "lat": -3.0753003,
        "lng": 119.742604
      },
      "province": {
        "id": 28,
        "name": "Sulawesi Selatan",
        "lat": -3.6687994,
        "lng": 119.9740534
      },
      "country": {
        "id": 228,
        "name": "INDONESIA",
        "code": "ID"
      },
      "id": 64063,
      "name": "Lapandan",
      "postcode": "91817",
      "lat": -3.0815855,
      "lng": 119.8598238
    },
    {
      "suburb": {
        "id": 5494,
        "name": "Makale",
        "lat": -3.1045962,
        "lng": 119.8524988
      },
      "city": {
        "id": 362,
        "name": "Tana Toraja",
        "lat": -3.0753003,
        "lng": 119.742604
      },
      "province": {
        "id": 28,
        "name": "Sulawesi Selatan",
        "lat": -3.6687994,
        "lng": 119.9740534
      },
      "country": {
        "id": 228,
        "name": "INDONESIA",
        "code": "ID"
      },
      "id": 64064,
      "name": "Lea",
      "postcode": "91817",
      "lat": -3.090886,
      "lng": 119.8786276
    },
    {
      "suburb": {
        "id": 5494,
        "name": "Makale",
        "lat": -3.1045962,
        "lng": 119.8524988
      },
      "city": {
        "id": 362,
        "name": "Tana Toraja",
        "lat": -3.0753003,
        "lng": 119.742604
      },
      "province": {
        "id": 28,
        "name": "Sulawesi Selatan",
        "lat": -3.6687994,
        "lng": 119.9740534
      },
      "country": {
        "id": 228,
        "name": "INDONESIA",
        "code": "ID"
      },
      "id": 64065,
      "name": "Buntu Burake",
      "postcode": "91817",
      "lat": -3.0944934,
      "lng": 119.8685028
    },
    {
      "suburb": {
        "id": 5494,
        "name": "Makale",
        "lat": -3.1045962,
        "lng": 119.8524988
      },
      "city": {
        "id": 362,
        "name": "Tana Toraja",
        "lat": -3.0753003,
        "lng": 119.742604
      },
      "province": {
        "id": 28,
        "name": "Sulawesi Selatan",
        "lat": -3.6687994,
        "lng": 119.9740534
      },
      "country": {
        "id": 228,
        "name": "INDONESIA",
        "code": "ID"
      },
      "id": 64066,
      "name": "Botang",
      "postcode": "91817",
      "lat": -3.1223618,
      "lng": 119.8554841
    },
    {
      "suburb": {
        "id": 5496,
        "name": "Makale Selatan",
        "lat": -3.1526753,
        "lng": 119.8005027
      },
      "city": {
        "id": 362,
        "name": "Tana Toraja",
        "lat": -3.0753003,
        "lng": 119.742604
      },
      "province": {
        "id": 28,
        "name": "Sulawesi Selatan",
        "lat": -3.6687994,
        "lng": 119.9740534
      },
      "country": {
        "id": 228,
        "name": "INDONESIA",
        "code": "ID"
      },
      "id": 64067,
      "name": "To Sapan",
      "postcode": "91869",
      "lat": -3.1526753,
      "lng": 119.8005027
    },
    {
      "suburb": {
        "id": 5496,
        "name": "Makale Selatan",
        "lat": -3.1526753,
        "lng": 119.8005027
      },
      "city": {
        "id": 362,
        "name": "Tana Toraja",
        "lat": -3.0753003,
        "lng": 119.742604
      },
      "province": {
        "id": 28,
        "name": "Sulawesi Selatan",
        "lat": -3.6687994,
        "lng": 119.9740534
      },
      "country": {
        "id": 228,
        "name": "INDONESIA",
        "code": "ID"
      },
      "id": 64068,
      "name": "Sandabilik",
      "postcode": "91815",
      "lat": -3.1304939,
      "lng": 119.8062912
    },
    {
      "suburb": {
        "id": 5496,
        "name": "Makale Selatan",
        "lat": -3.1526753,
        "lng": 119.8005027
      },
      "city": {
        "id": 362,
        "name": "Tana Toraja",
        "lat": -3.0753003,
        "lng": 119.742604
      },
      "province": {
        "id": 28,
        "name": "Sulawesi Selatan",
        "lat": -3.6687994,
        "lng": 119.9740534
      },
      "country": {
        "id": 228,
        "name": "INDONESIA",
        "code": "ID"
      },
      "id": 64069,
      "name": "Tiromanda",
      "postcode": "91815",
      "lat": -3.112543,
      "lng": 119.8178676
    },
    {
      "suburb": {
        "id": 5496,
        "name": "Makale Selatan",
        "lat": -3.1526753,
        "lng": 119.8005027
      },
      "city": {
        "id": 362,
        "name": "Tana Toraja",
        "lat": -3.0753003,
        "lng": 119.742604
      },
      "province": {
        "id": 28,
        "name": "Sulawesi Selatan",
        "lat": -3.6687994,
        "lng": 119.9740534
      },
      "country": {
        "id": 228,
        "name": "INDONESIA",
        "code": "ID"
      },
      "id": 64070,
      "name": "Pateke",
      "postcode": "91815",
      "lat": -3.184414,
      "lng": 119.7715563
    },
    {
      "suburb": {
        "id": 5496,
        "name": "Makale Selatan",
        "lat": -3.1526753,
        "lng": 119.8005027
      },
      "city": {
        "id": 362,
        "name": "Tana Toraja",
        "lat": -3.0753003,
        "lng": 119.742604
      },
      "province": {
        "id": 28,
        "name": "Sulawesi Selatan",
        "lat": -3.6687994,
        "lng": 119.9740534
      },
      "country": {
        "id": 228,
        "name": "INDONESIA",
        "code": "ID"
      },
      "id": 64071,
      "name": "Randan Batu",
      "postcode": "91815",
      "lat": -3.157259,
      "lng": 119.7947139
    },
    {
      "suburb": {
        "id": 5496,
        "name": "Makale Selatan",
        "lat": -3.1526753,
        "lng": 119.8005027
      },
      "city": {
        "id": 362,
        "name": "Tana Toraja",
        "lat": -3.0753003,
        "lng": 119.742604
      },
      "province": {
        "id": 28,
        "name": "Sulawesi Selatan",
        "lat": -3.6687994,
        "lng": 119.9740534
      },
      "country": {
        "id": 228,
        "name": "INDONESIA",
        "code": "ID"
      },
      "id": 64072,
      "name": "Pasang",
      "postcode": "91815",
      "lat": -3.1477287,
      "lng": 119.8178676
    },
    {
      "suburb": {
        "id": 5496,
        "name": "Makale Selatan",
        "lat": -3.1526753,
        "lng": 119.8005027
      },
      "city": {
        "id": 362,
        "name": "Tana Toraja",
        "lat": -3.0753003,
        "lng": 119.742604
      },
      "province": {
        "id": 28,
        "name": "Sulawesi Selatan",
        "lat": -3.6687994,
        "lng": 119.9740534
      },
      "country": {
        "id": 228,
        "name": "INDONESIA",
        "code": "ID"
      },
      "id": 64073,
      "name": "Bone Buntu Sisong",
      "postcode": "91815",
      "lat": -3.2013014,
      "lng": 119.7947139
    },
    {
      "suburb": {
        "id": 5496,
        "name": "Makale Selatan",
        "lat": -3.1526753,
        "lng": 119.8005027
      },
      "city": {
        "id": 362,
        "name": "Tana Toraja",
        "lat": -3.0753003,
        "lng": 119.742604
      },
      "province": {
        "id": 28,
        "name": "Sulawesi Selatan",
        "lat": -3.6687994,
        "lng": 119.9740534
      },
      "country": {
        "id": 228,
        "name": "INDONESIA",
        "code": "ID"
      },
      "id": 64074,
      "name": "Pabuaran",
      "postcode": "91815",
      "lat": -3.1810175,
      "lng": 119.8091854
    },
    {
      "suburb": {
        "id": 5494,
        "name": "Makale",
        "lat": -3.1045962,
        "lng": 119.8524988
      },
      "city": {
        "id": 362,
        "name": "Tana Toraja",
        "lat": -3.0753003,
        "lng": 119.742604
      },
      "province": {
        "id": 28,
        "name": "Sulawesi Selatan",
        "lat": -3.6687994,
        "lng": 119.9740534
      },
      "country": {
        "id": 228,
        "name": "INDONESIA",
        "code": "ID"
      },
      "id": 64075,
      "name": "Manggau",
      "postcode": "91814",
      "lat": -3.1137122,
      "lng": 119.8532621
    },
    {
      "suburb": {
        "id": 5495,
        "name": "Makale Utara",
        "lat": -3.0626157,
        "lng": 119.8699493
      },
      "city": {
        "id": 362,
        "name": "Tana Toraja",
        "lat": -3.0753003,
        "lng": 119.742604
      },
      "province": {
        "id": 28,
        "name": "Sulawesi Selatan",
        "lat": -3.6687994,
        "lng": 119.9740534
      },
      "country": {
        "id": 228,
        "name": "INDONESIA",
        "code": "ID"
      },
      "id": 64076,
      "name": "Bungin",
      "postcode": "91812",
      "lat": -3.0587578,
      "lng": 119.8525909
    },
    {
      "suburb": {
        "id": 5494,
        "name": "Makale",
        "lat": -3.1045962,
        "lng": 119.8524988
      },
      "city": {
        "id": 362,
        "name": "Tana Toraja",
        "lat": -3.0753003,
        "lng": 119.742604
      },
      "province": {
        "id": 28,
        "name": "Sulawesi Selatan",
        "lat": -3.6687994,
        "lng": 119.9740534
      },
      "country": {
        "id": 228,
        "name": "INDONESIA",
        "code": "ID"
      },
      "id": 64077,
      "name": "Batu Papan",
      "postcode": "91813",
      "lat": -3.0747458,
      "lng": 119.8323367
    },
    {
      "suburb": {
        "id": 5494,
        "name": "Makale",
        "lat": -3.1045962,
        "lng": 119.8524988
      },
      "city": {
        "id": 362,
        "name": "Tana Toraja",
        "lat": -3.0753003,
        "lng": 119.742604
      },
      "province": {
        "id": 28,
        "name": "Sulawesi Selatan",
        "lat": -3.6687994,
        "lng": 119.9740534
      },
      "country": {
        "id": 228,
        "name": "INDONESIA",
        "code": "ID"
      },
      "id": 64078,
      "name": "Pantan",
      "postcode": "91811",
      "lat": -3.0881733,
      "lng": 119.8598238
    },
    {
      "suburb": {
        "id": 5494,
        "name": "Makale",
        "lat": -3.1045962,
        "lng": 119.8524988
      },
      "city": {
        "id": 362,
        "name": "Tana Toraja",
        "lat": -3.0753003,
        "lng": 119.742604
      },
      "province": {
        "id": 28,
        "name": "Sulawesi Selatan",
        "lat": -3.6687994,
        "lng": 119.9740534
      },
      "country": {
        "id": 228,
        "name": "INDONESIA",
        "code": "ID"
      },
      "id": 64079,
      "name": "Tarongko",
      "postcode": "91811",
      "lat": -3.0698215,
      "lng": 119.8496976
    },
    {
      "suburb": {
        "id": 5494,
        "name": "Makale",
        "lat": -3.1045962,
        "lng": 119.8524988
      },
      "city": {
        "id": 362,
        "name": "Tana Toraja",
        "lat": -3.0753003,
        "lng": 119.742604
      },
      "province": {
        "id": 28,
        "name": "Sulawesi Selatan",
        "lat": -3.6687994,
        "lng": 119.9740534
      },
      "country": {
        "id": 228,
        "name": "INDONESIA",
        "code": "ID"
      },
      "id": 64080,
      "name": "Bombongan",
      "postcode": "91811",
      "lat": -3.101621,
      "lng": 119.8511443
    },
    {
      "suburb": {
        "id": 5494,
        "name": "Makale",
        "lat": -3.1045962,
        "lng": 119.8524988
      },
      "city": {
        "id": 362,
        "name": "Tana Toraja",
        "lat": -3.0753003,
        "lng": 119.742604
      },
      "province": {
        "id": 28,
        "name": "Sulawesi Selatan",
        "lat": -3.6687994,
        "lng": 119.9740534
      },
      "country": {
        "id": 228,
        "name": "INDONESIA",
        "code": "ID"
      },
      "id": 64081,
      "name": "Lamunan",
      "postcode": "91811",
      "lat": -3.1062846,
      "lng": 119.8424642
    },
    {
      "suburb": {
        "id": 5494,
        "name": "Makale",
        "lat": -3.1045962,
        "lng": 119.8524988
      },
      "city": {
        "id": 362,
        "name": "Tana Toraja",
        "lat": -3.0753003,
        "lng": 119.742604
      },
      "province": {
        "id": 28,
        "name": "Sulawesi Selatan",
        "lat": -3.6687994,
        "lng": 119.9740534
      },
      "country": {
        "id": 228,
        "name": "INDONESIA",
        "code": "ID"
      },
      "id": 64082,
      "name": "Ariang",
      "postcode": "91811",
      "lat": -3.1132106,
      "lng": 119.8670563
    },
    {
      "suburb": {
        "id": 5497,
        "name": "Maiwa",
        "lat": -3.6908636,
        "lng": 119.8583772
      },
      "city": {
        "id": 363,
        "name": "Enrekang",
        "lat": -3.4590744,
        "lng": 119.8815203
      },
      "province": {
        "id": 28,
        "name": "Sulawesi Selatan",
        "lat": -3.6687994,
        "lng": 119.9740534
      },
      "country": {
        "id": 228,
        "name": "INDONESIA",
        "code": "ID"
      },
      "id": 64083,
      "name": "Tuncung",
      "postcode": "91761",
      "lat": -3.7196821,
      "lng": 119.9220112
    },
    {
      "suburb": {
        "id": 5498,
        "name": "Bungin",
        "lat": -3.5436405,
        "lng": 119.9971769
      },
      "city": {
        "id": 363,
        "name": "Enrekang",
        "lat": -3.4590744,
        "lng": 119.8815203
      },
      "province": {
        "id": 28,
        "name": "Sulawesi Selatan",
        "lat": -3.6687994,
        "lng": 119.9740534
      },
      "country": {
        "id": 228,
        "name": "INDONESIA",
        "code": "ID"
      },
      "id": 64084,
      "name": "Wira Karya",
      "postcode": "91761",
      "lat": -3.5436405,
      "lng": 119.9971769
    },
    {
      "suburb": {
        "id": 5497,
        "name": "Maiwa",
        "lat": -3.6908636,
        "lng": 119.8583772
      },
      "city": {
        "id": 363,
        "name": "Enrekang",
        "lat": -3.4590744,
        "lng": 119.8815203
      },
      "province": {
        "id": 28,
        "name": "Sulawesi Selatan",
        "lat": -3.6687994,
        "lng": 119.9740534
      },
      "country": {
        "id": 228,
        "name": "INDONESIA",
        "code": "ID"
      },
      "id": 64085,
      "name": "Tanete",
      "postcode": "91761",
      "lat": -3.6061447,
      "lng": 119.924903
    },
    {
      "suburb": {
        "id": 5497,
        "name": "Maiwa",
        "lat": -3.6908636,
        "lng": 119.8583772
      },
      "city": {
        "id": 363,
        "name": "Enrekang",
        "lat": -3.4590744,
        "lng": 119.8815203
      },
      "province": {
        "id": 28,
        "name": "Sulawesi Selatan",
        "lat": -3.6687994,
        "lng": 119.9740534
      },
      "country": {
        "id": 228,
        "name": "INDONESIA",
        "code": "ID"
      },
      "id": 64086,
      "name": "Tapong",
      "postcode": "91761",
      "lat": -3.6671151,
      "lng": 119.898875
    },
    {
      "suburb": {
        "id": 5497,
        "name": "Maiwa",
        "lat": -3.6908636,
        "lng": 119.8583772
      },
      "city": {
        "id": 363,
        "name": "Enrekang",
        "lat": -3.4590744,
        "lng": 119.8815203
      },
      "province": {
        "id": 28,
        "name": "Sulawesi Selatan",
        "lat": -3.6687994,
        "lng": 119.9740534
      },
      "country": {
        "id": 228,
        "name": "INDONESIA",
        "code": "ID"
      },
      "id": 64087,
      "name": "Salo Dua",
      "postcode": "91761",
      "lat": -3.8003673,
      "lng": 119.9104436
    },
    {
      "suburb": {
        "id": 5498,
        "name": "Bungin",
        "lat": -3.5436405,
        "lng": 119.9971769
      },
      "city": {
        "id": 363,
        "name": "Enrekang",
        "lat": -3.4590744,
        "lng": 119.8815203
      },
      "province": {
        "id": 28,
        "name": "Sulawesi Selatan",
        "lat": -3.6687994,
        "lng": 119.9740534
      },
      "country": {
        "id": 228,
        "name": "INDONESIA",
        "code": "ID"
      },
      "id": 64088,
      "name": "Sawito",
      "postcode": "91761",
      "lat": -3.5065574,
      "lng": 120.043412
    },
    {
      "suburb": {
        "id": 5498,
        "name": "Bungin",
        "lat": -3.5436405,
        "lng": 119.9971769
      },
      "city": {
        "id": 363,
        "name": "Enrekang",
        "lat": -3.4590744,
        "lng": 119.8815203
      },
      "province": {
        "id": 28,
        "name": "Sulawesi Selatan",
        "lat": -3.6687994,
        "lng": 119.9740534
      },
      "country": {
        "id": 228,
        "name": "INDONESIA",
        "code": "ID"
      },
      "id": 64089,
      "name": "Tallang Rilau",
      "postcode": "91761",
      "lat": -3.6061689,
      "lng": 119.9856157
    },
    {
      "suburb": {
        "id": 5497,
        "name": "Maiwa",
        "lat": -3.6908636,
        "lng": 119.8583772
      },
      "city": {
        "id": 363,
        "name": "Enrekang",
        "lat": -3.4590744,
        "lng": 119.8815203
      },
      "province": {
        "id": 28,
        "name": "Sulawesi Selatan",
        "lat": -3.6687994,
        "lng": 119.9740534
      },
      "country": {
        "id": 228,
        "name": "INDONESIA",
        "code": "ID"
      },
      "id": 64090,
      "name": "Patondon Salu",
      "postcode": "91761",
      "lat": -3.7885159,
      "lng": 119.8699493
    },
    {
      "suburb": {
        "id": 5497,
        "name": "Maiwa",
        "lat": -3.6908636,
        "lng": 119.8583772
      },
      "city": {
        "id": 363,
        "name": "Enrekang",
        "lat": -3.4590744,
        "lng": 119.8815203
      },
      "province": {
        "id": 28,
        "name": "Sulawesi Selatan",
        "lat": -3.6687994,
        "lng": 119.9740534
      },
      "country": {
        "id": 228,
        "name": "INDONESIA",
        "code": "ID"
      },
      "id": 64091,
      "name": "Puncak Harapan",
      "postcode": "91761",
      "lat": -3.6923431,
      "lng": 119.8786276
    },
    {
      "suburb": {
        "id": 5497,
        "name": "Maiwa",
        "lat": -3.6908636,
        "lng": 119.8583772
      },
      "city": {
        "id": 363,
        "name": "Enrekang",
        "lat": -3.4590744,
        "lng": 119.8815203
      },
      "province": {
        "id": 28,
        "name": "Sulawesi Selatan",
        "lat": -3.6687994,
        "lng": 119.9740534
      },
      "country": {
        "id": 228,
        "name": "INDONESIA",
        "code": "ID"
      },
      "id": 64092,
      "name": "Palakka",
      "postcode": "91761",
      "lat": -3.6251552,
      "lng": 119.829443
    },
    {
      "suburb": {
        "id": 5497,
        "name": "Maiwa",
        "lat": -3.6908636,
        "lng": 119.8583772
      },
      "city": {
        "id": 363,
        "name": "Enrekang",
        "lat": -3.4590744,
        "lng": 119.8815203
      },
      "province": {
        "id": 28,
        "name": "Sulawesi Selatan",
        "lat": -3.6687994,
        "lng": 119.9740534
      },
      "country": {
        "id": 228,
        "name": "INDONESIA",
        "code": "ID"
      },
      "id": 64093,
      "name": "Pariwang",
      "postcode": "91761",
      "lat": -3.6696607,
      "lng": 119.829443
    },
    {
      "suburb": {
        "id": 5497,
        "name": "Maiwa",
        "lat": -3.6908636,
        "lng": 119.8583772
      },
      "city": {
        "id": 363,
        "name": "Enrekang",
        "lat": -3.4590744,
        "lng": 119.8815203
      },
      "province": {
        "id": 28,
        "name": "Sulawesi Selatan",
        "lat": -3.6687994,
        "lng": 119.9740534
      },
      "country": {
        "id": 228,
        "name": "INDONESIA",
        "code": "ID"
      },
      "id": 64094,
      "name": "Pasang",
      "postcode": "91761",
      "lat": -3.6069487,
      "lng": 119.8410174
    },
    {
      "suburb": {
        "id": 5497,
        "name": "Maiwa",
        "lat": -3.6908636,
        "lng": 119.8583772
      },
      "city": {
        "id": 363,
        "name": "Enrekang",
        "lat": -3.4590744,
        "lng": 119.8815203
      },
      "province": {
        "id": 28,
        "name": "Sulawesi Selatan",
        "lat": -3.6687994,
        "lng": 119.9740534
      },
      "country": {
        "id": 228,
        "name": "INDONESIA",
        "code": "ID"
      },
      "id": 64095,
      "name": "Ongko",
      "postcode": "91761",
      "lat": -3.7557638,
      "lng": 119.9104436
    },
    {
      "suburb": {
        "id": 5497,
        "name": "Maiwa",
        "lat": -3.6908636,
        "lng": 119.8583772
      },
      "city": {
        "id": 363,
        "name": "Enrekang",
        "lat": -3.4590744,
        "lng": 119.8815203
      },
      "province": {
        "id": 28,
        "name": "Sulawesi Selatan",
        "lat": -3.6687994,
        "lng": 119.9740534
      },
      "country": {
        "id": 228,
        "name": "INDONESIA",
        "code": "ID"
      },
      "id": 64096,
      "name": "Paladang",
      "postcode": "91761",
      "lat": -3.6327927,
      "lng": 119.8641634
    },
    {
      "suburb": {
        "id": 5497,
        "name": "Maiwa",
        "lat": -3.6908636,
        "lng": 119.8583772
      },
      "city": {
        "id": 363,
        "name": "Enrekang",
        "lat": -3.4590744,
        "lng": 119.8815203
      },
      "province": {
        "id": 28,
        "name": "Sulawesi Selatan",
        "lat": -3.6687994,
        "lng": 119.9740534
      },
      "country": {
        "id": 228,
        "name": "INDONESIA",
        "code": "ID"
      },
      "id": 64097,
      "name": "Mangkawani (Mengkawani)",
      "postcode": "91761",
      "lat": -3.7209745,
      "lng": 119.8873054
    },
    {
      "suburb": {
        "id": 5497,
        "name": "Maiwa",
        "lat": -3.6908636,
        "lng": 119.8583772
      },
      "city": {
        "id": 363,
        "name": "Enrekang",
        "lat": -3.4590744,
        "lng": 119.8815203
      },
      "province": {
        "id": 28,
        "name": "Sulawesi Selatan",
        "lat": -3.6687994,
        "lng": 119.9740534
      },
      "country": {
        "id": 228,
        "name": "INDONESIA",
        "code": "ID"
      },
      "id": 64098,
      "name": "Matajang",
      "postcode": "91761",
      "lat": -3.5968096,
      "lng": 119.8757349
    },
    {
      "suburb": {
        "id": 5497,
        "name": "Maiwa",
        "lat": -3.6908636,
        "lng": 119.8583772
      },
      "city": {
        "id": 363,
        "name": "Enrekang",
        "lat": -3.4590744,
        "lng": 119.8815203
      },
      "province": {
        "id": 28,
        "name": "Sulawesi Selatan",
        "lat": -3.6687994,
        "lng": 119.9740534
      },
      "country": {
        "id": 228,
        "name": "INDONESIA",
        "code": "ID"
      },
      "id": 64099,
      "name": "Lebani",
      "postcode": "91761",
      "lat": -3.6488972,
      "lng": 119.9104436
    },
    {
      "suburb": {
        "id": 5497,
        "name": "Maiwa",
        "lat": -3.6908636,
        "lng": 119.8583772
      },
      "city": {
        "id": 363,
        "name": "Enrekang",
        "lat": -3.4590744,
        "lng": 119.8815203
      },
      "province": {
        "id": 28,
        "name": "Sulawesi Selatan",
        "lat": -3.6687994,
        "lng": 119.9740534
      },
      "country": {
        "id": 228,
        "name": "INDONESIA",
        "code": "ID"
      },
      "id": 64100,
      "name": "Limbuang",
      "postcode": "91761",
      "lat": -3.65991,
      "lng": 119.8525909
    },
    {
      "suburb": {
        "id": 5497,
        "name": "Maiwa",
        "lat": -3.6908636,
        "lng": 119.8583772
      },
      "city": {
        "id": 363,
        "name": "Enrekang",
        "lat": -3.4590744,
        "lng": 119.8815203
      },
      "province": {
        "id": 28,
        "name": "Sulawesi Selatan",
        "lat": -3.6687994,
        "lng": 119.9740534
      },
      "country": {
        "id": 228,
        "name": "INDONESIA",
        "code": "ID"
      },
      "id": 64101,
      "name": "Kaluppang",
      "postcode": "91761",
      "lat": -3.6772918,
      "lng": 119.8641634
    },
    {
      "suburb": {
        "id": 5497,
        "name": "Maiwa",
        "lat": -3.6908636,
        "lng": 119.8583772
      },
      "city": {
        "id": 363,
        "name": "Enrekang",
        "lat": -3.4590744,
        "lng": 119.8815203
      },
      "province": {
        "id": 28,
        "name": "Sulawesi Selatan",
        "lat": -3.6687994,
        "lng": 119.9740534
      },
      "country": {
        "id": 228,
        "name": "INDONESIA",
        "code": "ID"
      },
      "id": 64102,
      "name": "Labuku",
      "postcode": "91761",
      "lat": -3.6391598,
      "lng": 119.9335779
    },
    {
      "suburb": {
        "id": 5498,
        "name": "Bungin",
        "lat": -3.5436405,
        "lng": 119.9971769
      },
      "city": {
        "id": 363,
        "name": "Enrekang",
        "lat": -3.4590744,
        "lng": 119.8815203
      },
      "province": {
        "id": 28,
        "name": "Sulawesi Selatan",
        "lat": -3.6687994,
        "lng": 119.9740534
      },
      "country": {
        "id": 228,
        "name": "INDONESIA",
        "code": "ID"
      },
      "id": 64103,
      "name": "Bungin",
      "postcode": "91761",
      "lat": -3.571492,
      "lng": 119.9624902
    },
    {
      "suburb": {
        "id": 5497,
        "name": "Maiwa",
        "lat": -3.6908636,
        "lng": 119.8583772
      },
      "city": {
        "id": 363,
        "name": "Enrekang",
        "lat": -3.4590744,
        "lng": 119.8815203
      },
      "province": {
        "id": 28,
        "name": "Sulawesi Selatan",
        "lat": -3.6687994,
        "lng": 119.9740534
      },
      "country": {
        "id": 228,
        "name": "INDONESIA",
        "code": "ID"
      },
      "id": 64104,
      "name": "Boto Malangga",
      "postcode": "91761",
      "lat": -3.7222659,
      "lng": 119.8525909
    },
    {
      "suburb": {
        "id": 5498,
        "name": "Bungin",
        "lat": -3.5436405,
        "lng": 119.9971769
      },
      "city": {
        "id": 363,
        "name": "Enrekang",
        "lat": -3.4590744,
        "lng": 119.8815203
      },
      "province": {
        "id": 28,
        "name": "Sulawesi Selatan",
        "lat": -3.6687994,
        "lng": 119.9740534
      },
      "country": {
        "id": 228,
        "name": "INDONESIA",
        "code": "ID"
      },
      "id": 64105,
      "name": "Bulo",
      "postcode": "91761",
      "lat": -3.5600386,
      "lng": 119.9104436
    },
    {
      "suburb": {
        "id": 5497,
        "name": "Maiwa",
        "lat": -3.6908636,
        "lng": 119.8583772
      },
      "city": {
        "id": 363,
        "name": "Enrekang",
        "lat": -3.4590744,
        "lng": 119.8815203
      },
      "province": {
        "id": 28,
        "name": "Sulawesi Selatan",
        "lat": -3.6687994,
        "lng": 119.9740534
      },
      "country": {
        "id": 228,
        "name": "INDONESIA",
        "code": "ID"
      },
      "id": 64106,
      "name": "Batu Mila",
      "postcode": "91761",
      "lat": -3.7146399,
      "lng": 119.8178676
    },
    {
      "suburb": {
        "id": 5497,
        "name": "Maiwa",
        "lat": -3.6908636,
        "lng": 119.8583772
      },
      "city": {
        "id": 363,
        "name": "Enrekang",
        "lat": -3.4590744,
        "lng": 119.8815203
      },
      "province": {
        "id": 28,
        "name": "Sulawesi Selatan",
        "lat": -3.6687994,
        "lng": 119.9740534
      },
      "country": {
        "id": 228,
        "name": "INDONESIA",
        "code": "ID"
      },
      "id": 64107,
      "name": "Boiya",
      "postcode": "91761",
      "lat": -3.7901253,
      "lng": 119.9451436
    },
    {
      "suburb": {
        "id": 5498,
        "name": "Bungin",
        "lat": -3.5436405,
        "lng": 119.9971769
      },
      "city": {
        "id": 363,
        "name": "Enrekang",
        "lat": -3.4590744,
        "lng": 119.8815203
      },
      "province": {
        "id": 28,
        "name": "Sulawesi Selatan",
        "lat": -3.6687994,
        "lng": 119.9740534
      },
      "country": {
        "id": 228,
        "name": "INDONESIA",
        "code": "ID"
      },
      "id": 64108,
      "name": "Baruka",
      "postcode": "91761",
      "lat": -3.5330065,
      "lng": 119.9220112
    },
    {
      "suburb": {
        "id": 5497,
        "name": "Maiwa",
        "lat": -3.6908636,
        "lng": 119.8583772
      },
      "city": {
        "id": 363,
        "name": "Enrekang",
        "lat": -3.4590744,
        "lng": 119.8815203
      },
      "province": {
        "id": 28,
        "name": "Sulawesi Selatan",
        "lat": -3.6687994,
        "lng": 119.9740534
      },
      "country": {
        "id": 228,
        "name": "INDONESIA",
        "code": "ID"
      },
      "id": 64109,
      "name": "Bangkala",
      "postcode": "91761",
      "lat": -3.7485833,
      "lng": 119.8641634
    },
    {
      "suburb": {
        "id": 5497,
        "name": "Maiwa",
        "lat": -3.6908636,
        "lng": 119.8583772
      },
      "city": {
        "id": 363,
        "name": "Enrekang",
        "lat": -3.4590744,
        "lng": 119.8815203
      },
      "province": {
        "id": 28,
        "name": "Sulawesi Selatan",
        "lat": -3.6687994,
        "lng": 119.9740534
      },
      "country": {
        "id": 228,
        "name": "INDONESIA",
        "code": "ID"
      },
      "id": 64110,
      "name": "Baringin",
      "postcode": "91761",
      "lat": -3.6556731,
      "lng": 119.9682719
    },
    {
      "suburb": {
        "id": 5499,
        "name": "Masalle",
        "lat": -3.3306256,
        "lng": 119.7541856
      },
      "city": {
        "id": 363,
        "name": "Enrekang",
        "lat": -3.4590744,
        "lng": 119.8815203
      },
      "province": {
        "id": 28,
        "name": "Sulawesi Selatan",
        "lat": -3.6687994,
        "lng": 119.9740534
      },
      "country": {
        "id": 228,
        "name": "INDONESIA",
        "code": "ID"
      },
      "id": 64111,
      "name": "Tongkonan Basse",
      "postcode": "91754",
      "lat": -3.2906613,
      "lng": 119.7599761
    },
    {
      "suburb": {
        "id": 5500,
        "name": "Alla",
        "lat": -3.3459971,
        "lng": 119.8236554
      },
      "city": {
        "id": 363,
        "name": "Enrekang",
        "lat": -3.4590744,
        "lng": 119.8815203
      },
      "province": {
        "id": 28,
        "name": "Sulawesi Selatan",
        "lat": -3.6687994,
        "lng": 119.9740534
      },
      "country": {
        "id": 228,
        "name": "INDONESIA",
        "code": "ID"
      },
      "id": 64112,
      "name": "Taulo",
      "postcode": "91754",
      "lat": -3.3409978,
      "lng": 119.8410174
    },
    {
      "suburb": {
        "id": 5501,
        "name": "Baroko",
        "lat": -3.2760886,
        "lng": 119.8005027
      },
      "city": {
        "id": 363,
        "name": "Enrekang",
        "lat": -3.4590744,
        "lng": 119.8815203
      },
      "province": {
        "id": 28,
        "name": "Sulawesi Selatan",
        "lat": -3.6687994,
        "lng": 119.9740534
      },
      "country": {
        "id": 228,
        "name": "INDONESIA",
        "code": "ID"
      },
      "id": 64113,
      "name": "Tongko",
      "postcode": "91754",
      "lat": -3.2806922,
      "lng": 119.7947139
    },
    {
      "suburb": {
        "id": 5500,
        "name": "Alla",
        "lat": -3.3459971,
        "lng": 119.8236554
      },
      "city": {
        "id": 363,
        "name": "Enrekang",
        "lat": -3.4590744,
        "lng": 119.8815203
      },
      "province": {
        "id": 28,
        "name": "Sulawesi Selatan",
        "lat": -3.6687994,
        "lng": 119.9740534
      },
      "country": {
        "id": 228,
        "name": "INDONESIA",
        "code": "ID"
      },
      "id": 64114,
      "name": "Sumillan",
      "postcode": "91754",
      "lat": -3.3333161,
      "lng": 119.8062912
    },
    {
      "suburb": {
        "id": 5502,
        "name": "Curio",
        "lat": -3.2991443,
        "lng": 119.9046594
      },
      "city": {
        "id": 363,
        "name": "Enrekang",
        "lat": -3.4590744,
        "lng": 119.8815203
      },
      "province": {
        "id": 28,
        "name": "Sulawesi Selatan",
        "lat": -3.6687994,
        "lng": 119.9740534
      },
      "country": {
        "id": 228,
        "name": "INDONESIA",
        "code": "ID"
      },
      "id": 64115,
      "name": "Tallungura",
      "postcode": "91754",
      "lat": -3.354789,
      "lng": 119.9567082
    },
    {
      "suburb": {
        "id": 5502,
        "name": "Curio",
        "lat": -3.2991443,
        "lng": 119.9046594
      },
      "city": {
        "id": 363,
        "name": "Enrekang",
        "lat": -3.4590744,
        "lng": 119.8815203
      },
      "province": {
        "id": 28,
        "name": "Sulawesi Selatan",
        "lat": -3.6687994,
        "lng": 119.9740534
      },
      "country": {
        "id": 228,
        "name": "INDONESIA",
        "code": "ID"
      },
      "id": 64116,
      "name": "Salassa",
      "postcode": "91754",
      "lat": -3.3079637,
      "lng": 119.8381239
    },
    {
      "suburb": {
        "id": 5502,
        "name": "Curio",
        "lat": -3.2991443,
        "lng": 119.9046594
      },
      "city": {
        "id": 363,
        "name": "Enrekang",
        "lat": -3.4590744,
        "lng": 119.8815203
      },
      "province": {
        "id": 28,
        "name": "Sulawesi Selatan",
        "lat": -3.6687994,
        "lng": 119.9740534
      },
      "country": {
        "id": 228,
        "name": "INDONESIA",
        "code": "ID"
      },
      "id": 64117,
      "name": "Sanglepongan",
      "postcode": "91754",
      "lat": -3.3244687,
      "lng": 119.9393608
    },
    {
      "suburb": {
        "id": 5502,
        "name": "Curio",
        "lat": -3.2991443,
        "lng": 119.9046594
      },
      "city": {
        "id": 363,
        "name": "Enrekang",
        "lat": -3.4590744,
        "lng": 119.8815203
      },
      "province": {
        "id": 28,
        "name": "Sulawesi Selatan",
        "lat": -3.6687994,
        "lng": 119.9740534
      },
      "country": {
        "id": 228,
        "name": "INDONESIA",
        "code": "ID"
      },
      "id": 64118,
      "name": "Sumbang",
      "postcode": "91754",
      "lat": -3.3283145,
      "lng": 119.8901979
    },
    {
      "suburb": {
        "id": 5501,
        "name": "Baroko",
        "lat": -3.2760886,
        "lng": 119.8005027
      },
      "city": {
        "id": 363,
        "name": "Enrekang",
        "lat": -3.4590744,
        "lng": 119.8815203
      },
      "province": {
        "id": 28,
        "name": "Sulawesi Selatan",
        "lat": -3.6687994,
        "lng": 119.9740534
      },
      "country": {
        "id": 228,
        "name": "INDONESIA",
        "code": "ID"
      },
      "id": 64119,
      "name": "Patongloan",
      "postcode": "91754",
      "lat": -3.2626603,
      "lng": 119.8062912
    },
    {
      "suburb": {
        "id": 5499,
        "name": "Masalle",
        "lat": -3.3306256,
        "lng": 119.7541856
      },
      "city": {
        "id": 363,
        "name": "Enrekang",
        "lat": -3.4590744,
        "lng": 119.8815203
      },
      "province": {
        "id": 28,
        "name": "Sulawesi Selatan",
        "lat": -3.6687994,
        "lng": 119.9740534
      },
      "country": {
        "id": 228,
        "name": "INDONESIA",
        "code": "ID"
      },
      "id": 64120,
      "name": "Rampunan",
      "postcode": "91754",
      "lat": -3.3175546,
      "lng": 119.7483949
    },
    {
      "suburb": {
        "id": 5500,
        "name": "Alla",
        "lat": -3.3459971,
        "lng": 119.8236554
      },
      "city": {
        "id": 363,
        "name": "Enrekang",
        "lat": -3.4590744,
        "lng": 119.8815203
      },
      "province": {
        "id": 28,
        "name": "Sulawesi Selatan",
        "lat": -3.6687994,
        "lng": 119.9740534
      },
      "country": {
        "id": 228,
        "name": "INDONESIA",
        "code": "ID"
      },
      "id": 64121,
      "name": "Pana",
      "postcode": "91754",
      "lat": -3.2860807,
      "lng": 119.8323367
    },
    {
      "suburb": {
        "id": 5502,
        "name": "Curio",
        "lat": -3.2991443,
        "lng": 119.9046594
      },
      "city": {
        "id": 363,
        "name": "Enrekang",
        "lat": -3.4590744,
        "lng": 119.8815203
      },
      "province": {
        "id": 28,
        "name": "Sulawesi Selatan",
        "lat": -3.6687994,
        "lng": 119.9740534
      },
      "country": {
        "id": 228,
        "name": "INDONESIA",
        "code": "ID"
      },
      "id": 64122,
      "name": "Parombean",
      "postcode": "91754",
      "lat": -3.3098859,
      "lng": 119.9798347
    },
    {
      "suburb": {
        "id": 5499,
        "name": "Masalle",
        "lat": -3.3306256,
        "lng": 119.7541856
      },
      "city": {
        "id": 363,
        "name": "Enrekang",
        "lat": -3.4590744,
        "lng": 119.8815203
      },
      "province": {
        "id": 28,
        "name": "Sulawesi Selatan",
        "lat": -3.6687994,
        "lng": 119.9740534
      },
      "country": {
        "id": 228,
        "name": "INDONESIA",
        "code": "ID"
      },
      "id": 64123,
      "name": "Mundan",
      "postcode": "91754",
      "lat": -3.3006374,
      "lng": 119.7252297
    },
    {
      "suburb": {
        "id": 5502,
        "name": "Curio",
        "lat": -3.2991443,
        "lng": 119.9046594
      },
      "city": {
        "id": 363,
        "name": "Enrekang",
        "lat": -3.4590744,
        "lng": 119.8815203
      },
      "province": {
        "id": 28,
        "name": "Sulawesi Selatan",
        "lat": -3.6687994,
        "lng": 119.9740534
      },
      "country": {
        "id": 228,
        "name": "INDONESIA",
        "code": "ID"
      },
      "id": 64124,
      "name": "Pabaloran",
      "postcode": "91754",
      "lat": -3.287242,
      "lng": 119.8641634
    },
    {
      "suburb": {
        "id": 5502,
        "name": "Curio",
        "lat": -3.2991443,
        "lng": 119.9046594
      },
      "city": {
        "id": 363,
        "name": "Enrekang",
        "lat": -3.4590744,
        "lng": 119.8815203
      },
      "province": {
        "id": 28,
        "name": "Sulawesi Selatan",
        "lat": -3.6687994,
        "lng": 119.9740534
      },
      "country": {
        "id": 228,
        "name": "INDONESIA",
        "code": "ID"
      },
      "id": 64125,
      "name": "Mekkale (Mekkalak)",
      "postcode": "91754",
      "lat": -3.3467557,
      "lng": 119.8670563
    },
    {
      "suburb": {
        "id": 5500,
        "name": "Alla",
        "lat": -3.3459971,
        "lng": 119.8236554
      },
      "city": {
        "id": 363,
        "name": "Enrekang",
        "lat": -3.4590744,
        "lng": 119.8815203
      },
      "province": {
        "id": 28,
        "name": "Sulawesi Selatan",
        "lat": -3.6687994,
        "lng": 119.9740534
      },
      "country": {
        "id": 228,
        "name": "INDONESIA",
        "code": "ID"
      },
      "id": 64126,
      "name": "Mata Allo",
      "postcode": "91754",
      "lat": -3.3533057,
      "lng": 119.803397
    },
    {
      "suburb": {
        "id": 5502,
        "name": "Curio",
        "lat": -3.2991443,
        "lng": 119.9046594
      },
      "city": {
        "id": 363,
        "name": "Enrekang",
        "lat": -3.4590744,
        "lng": 119.8815203
      },
      "province": {
        "id": 28,
        "name": "Sulawesi Selatan",
        "lat": -3.6687994,
        "lng": 119.9740534
      },
      "country": {
        "id": 228,
        "name": "INDONESIA",
        "code": "ID"
      },
      "id": 64127,
      "name": "Mandalan",
      "postcode": "91754",
      "lat": -3.30739,
      "lng": 119.8554841
    },
    {
      "suburb": {
        "id": 5499,
        "name": "Masalle",
        "lat": -3.3306256,
        "lng": 119.7541856
      },
      "city": {
        "id": 363,
        "name": "Enrekang",
        "lat": -3.4590744,
        "lng": 119.8815203
      },
      "province": {
        "id": 28,
        "name": "Sulawesi Selatan",
        "lat": -3.6687994,
        "lng": 119.9740534
      },
      "country": {
        "id": 228,
        "name": "INDONESIA",
        "code": "ID"
      },
      "id": 64128,
      "name": "Masalle",
      "postcode": "91754",
      "lat": -3.3525452,
      "lng": 119.7599761
    },
    {
      "suburb": {
        "id": 5500,
        "name": "Alla",
        "lat": -3.3459971,
        "lng": 119.8236554
      },
      "city": {
        "id": 363,
        "name": "Enrekang",
        "lat": -3.4590744,
        "lng": 119.8815203
      },
      "province": {
        "id": 28,
        "name": "Sulawesi Selatan",
        "lat": -3.6687994,
        "lng": 119.9740534
      },
      "country": {
        "id": 228,
        "name": "INDONESIA",
        "code": "ID"
      },
      "id": 64129,
      "name": "Kalosi",
      "postcode": "91754",
      "lat": -3.348304,
      "lng": 119.8207615
    },
    {
      "suburb": {
        "id": 5500,
        "name": "Alla",
        "lat": -3.3459971,
        "lng": 119.8236554
      },
      "city": {
        "id": 363,
        "name": "Enrekang",
        "lat": -3.4590744,
        "lng": 119.8815203
      },
      "province": {
        "id": 28,
        "name": "Sulawesi Selatan",
        "lat": -3.6687994,
        "lng": 119.9740534
      },
      "country": {
        "id": 228,
        "name": "INDONESIA",
        "code": "ID"
      },
      "id": 64130,
      "name": "Kambiolangi",
      "postcode": "91754",
      "lat": -3.3304329,
      "lng": 119.8265492
    },
    {
      "suburb": {
        "id": 5502,
        "name": "Curio",
        "lat": -3.2991443,
        "lng": 119.9046594
      },
      "city": {
        "id": 363,
        "name": "Enrekang",
        "lat": -3.4590744,
        "lng": 119.8815203
      },
      "province": {
        "id": 28,
        "name": "Sulawesi Selatan",
        "lat": -3.6687994,
        "lng": 119.9740534
      },
      "country": {
        "id": 228,
        "name": "INDONESIA",
        "code": "ID"
      },
      "id": 64131,
      "name": "Curio",
      "postcode": "91754",
      "lat": -3.3033653,
      "lng": 119.9104436
    },
    {
      "suburb": {
        "id": 5500,
        "name": "Alla",
        "lat": -3.3459971,
        "lng": 119.8236554
      },
      "city": {
        "id": 363,
        "name": "Enrekang",
        "lat": -3.4590744,
        "lng": 119.8815203
      },
      "province": {
        "id": 28,
        "name": "Sulawesi Selatan",
        "lat": -3.6687994,
        "lng": 119.9740534
      },
      "country": {
        "id": 228,
        "name": "INDONESIA",
        "code": "ID"
      },
      "id": 64132,
      "name": "Buntu Sugi",
      "postcode": "91754",
      "lat": -3.312954,
      "lng": 119.8207615
    },
    {
      "suburb": {
        "id": 5502,
        "name": "Curio",
        "lat": -3.2991443,
        "lng": 119.9046594
      },
      "city": {
        "id": 363,
        "name": "Enrekang",
        "lat": -3.4590744,
        "lng": 119.8815203
      },
      "province": {
        "id": 28,
        "name": "Sulawesi Selatan",
        "lat": -3.6687994,
        "lng": 119.9740534
      },
      "country": {
        "id": 228,
        "name": "INDONESIA",
        "code": "ID"
      },
      "id": 64133,
      "name": "Buntu Barana",
      "postcode": "91754",
      "lat": -3.2730589,
      "lng": 119.8930904
    },
    {
      "suburb": {
        "id": 5502,
        "name": "Curio",
        "lat": -3.2991443,
        "lng": 119.9046594
      },
      "city": {
        "id": 363,
        "name": "Enrekang",
        "lat": -3.4590744,
        "lng": 119.8815203
      },
      "province": {
        "id": 28,
        "name": "Sulawesi Selatan",
        "lat": -3.6687994,
        "lng": 119.9740534
      },
      "country": {
        "id": 228,
        "name": "INDONESIA",
        "code": "ID"
      },
      "id": 64134,
      "name": "Buntu Pema",
      "postcode": "91754",
      "lat": -3.3225568,
      "lng": 119.8641634
    },
    {
      "suburb": {
        "id": 5499,
        "name": "Masalle",
        "lat": -3.3306256,
        "lng": 119.7541856
      },
      "city": {
        "id": 363,
        "name": "Enrekang",
        "lat": -3.4590744,
        "lng": 119.8815203
      },
      "province": {
        "id": 28,
        "name": "Sulawesi Selatan",
        "lat": -3.6687994,
        "lng": 119.9740534
      },
      "country": {
        "id": 228,
        "name": "INDONESIA",
        "code": "ID"
      },
      "id": 64135,
      "name": "Buntu Sarong",
      "postcode": "91754",
      "lat": -3.3444701,
      "lng": 119.7368128
    },
    {
      "suburb": {
        "id": 5500,
        "name": "Alla",
        "lat": -3.3459971,
        "lng": 119.8236554
      },
      "city": {
        "id": 363,
        "name": "Enrekang",
        "lat": -3.4590744,
        "lng": 119.8815203
      },
      "province": {
        "id": 28,
        "name": "Sulawesi Selatan",
        "lat": -3.6687994,
        "lng": 119.9740534
      },
      "country": {
        "id": 228,
        "name": "INDONESIA",
        "code": "ID"
      },
      "id": 64136,
      "name": "Bolang",
      "postcode": "91754",
      "lat": -3.3567581,
      "lng": 119.8323367
    },
    {
      "suburb": {
        "id": 5501,
        "name": "Baroko",
        "lat": -3.2760886,
        "lng": 119.8005027
      },
      "city": {
        "id": 363,
        "name": "Enrekang",
        "lat": -3.4590744,
        "lng": 119.8815203
      },
      "province": {
        "id": 28,
        "name": "Sulawesi Selatan",
        "lat": -3.6687994,
        "lng": 119.9740534
      },
      "country": {
        "id": 228,
        "name": "INDONESIA",
        "code": "ID"
      },
      "id": 64137,
      "name": "Benteng Alla",
      "postcode": "91754",
      "lat": -3.27073,
      "lng": 119.829443
    },
    {
      "suburb": {
        "id": 5501,
        "name": "Baroko",
        "lat": -3.2760886,
        "lng": 119.8005027
      },
      "city": {
        "id": 363,
        "name": "Enrekang",
        "lat": -3.4590744,
        "lng": 119.8815203
      },
      "province": {
        "id": 28,
        "name": "Sulawesi Selatan",
        "lat": -3.6687994,
        "lng": 119.9740534
      },
      "country": {
        "id": 228,
        "name": "INDONESIA",
        "code": "ID"
      },
      "id": 64138,
      "name": "Benteng Alla Utara",
      "postcode": "91754",
      "lat": -3.2545879,
      "lng": 119.7831356
    },
    {
      "suburb": {
        "id": 5499,
        "name": "Masalle",
        "lat": -3.3306256,
        "lng": 119.7541856
      },
      "city": {
        "id": 363,
        "name": "Enrekang",
        "lat": -3.4590744,
        "lng": 119.8815203
      },
      "province": {
        "id": 28,
        "name": "Sulawesi Selatan",
        "lat": -3.6687994,
        "lng": 119.9740534
      },
      "country": {
        "id": 228,
        "name": "INDONESIA",
        "code": "ID"
      },
      "id": 64139,
      "name": "Batu Kede",
      "postcode": "91754",
      "lat": -3.3075702,
      "lng": 119.7831356
    },
    {
      "suburb": {
        "id": 5501,
        "name": "Baroko",
        "lat": -3.2760886,
        "lng": 119.8005027
      },
      "city": {
        "id": 363,
        "name": "Enrekang",
        "lat": -3.4590744,
        "lng": 119.8815203
      },
      "province": {
        "id": 28,
        "name": "Sulawesi Selatan",
        "lat": -3.6687994,
        "lng": 119.9740534
      },
      "country": {
        "id": 228,
        "name": "INDONESIA",
        "code": "ID"
      },
      "id": 64140,
      "name": "Baroko",
      "postcode": "91754",
      "lat": -3.3068066,
      "lng": 119.8062912
    },
    {
      "suburb": {
        "id": 5503,
        "name": "Baraka",
        "lat": -3.3959268,
        "lng": 119.9162276
      },
      "city": {
        "id": 363,
        "name": "Enrekang",
        "lat": -3.4590744,
        "lng": 119.8815203
      },
      "province": {
        "id": 28,
        "name": "Sulawesi Selatan",
        "lat": -3.6687994,
        "lng": 119.9740534
      },
      "country": {
        "id": 228,
        "name": "INDONESIA",
        "code": "ID"
      },
      "id": 64141,
      "name": "Tomenawa",
      "postcode": "91753",
      "lat": -3.4223317,
      "lng": 119.8554841
    },
    {
      "suburb": {
        "id": 5503,
        "name": "Baraka",
        "lat": -3.3959268,
        "lng": 119.9162276
      },
      "city": {
        "id": 363,
        "name": "Enrekang",
        "lat": -3.4590744,
        "lng": 119.8815203
      },
      "province": {
        "id": 28,
        "name": "Sulawesi Selatan",
        "lat": -3.6687994,
        "lng": 119.9740534
      },
      "country": {
        "id": 228,
        "name": "INDONESIA",
        "code": "ID"
      },
      "id": 64142,
      "name": "Salukanan",
      "postcode": "91753",
      "lat": -3.3832521,
      "lng": 119.898875
    },
    {
      "suburb": {
        "id": 5503,
        "name": "Baraka",
        "lat": -3.3959268,
        "lng": 119.9162276
      },
      "city": {
        "id": 363,
        "name": "Enrekang",
        "lat": -3.4590744,
        "lng": 119.8815203
      },
      "province": {
        "id": 28,
        "name": "Sulawesi Selatan",
        "lat": -3.6687994,
        "lng": 119.9740534
      },
      "country": {
        "id": 228,
        "name": "INDONESIA",
        "code": "ID"
      },
      "id": 64143,
      "name": "Tiro Wali",
      "postcode": "91753",
      "lat": -3.3951903,
      "lng": 119.8728421
    },
    {
      "suburb": {
        "id": 5503,
        "name": "Baraka",
        "lat": -3.3959268,
        "lng": 119.9162276
      },
      "city": {
        "id": 363,
        "name": "Enrekang",
        "lat": -3.4590744,
        "lng": 119.8815203
      },
      "province": {
        "id": 28,
        "name": "Sulawesi Selatan",
        "lat": -3.6687994,
        "lng": 119.9740534
      },
      "country": {
        "id": 228,
        "name": "INDONESIA",
        "code": "ID"
      },
      "id": 64144,
      "name": "Perangian (Parangian)",
      "postcode": "91753",
      "lat": -3.453729,
      "lng": 119.8439109
    },
    {
      "suburb": {
        "id": 5504,
        "name": "Buntu Batu",
        "lat": -3.4389683,
        "lng": 119.950926
      },
      "city": {
        "id": 363,
        "name": "Enrekang",
        "lat": -3.4590744,
        "lng": 119.8815203
      },
      "province": {
        "id": 28,
        "name": "Sulawesi Selatan",
        "lat": -3.6687994,
        "lng": 119.9740534
      },
      "country": {
        "id": 228,
        "name": "INDONESIA",
        "code": "ID"
      },
      "id": 64145,
      "name": "Potok Ullin",
      "postcode": "91753",
      "lat": -3.4524442,
      "lng": 119.9451436
    },
    {
      "suburb": {
        "id": 5503,
        "name": "Baraka",
        "lat": -3.3959268,
        "lng": 119.9162276
      },
      "city": {
        "id": 363,
        "name": "Enrekang",
        "lat": -3.4590744,
        "lng": 119.8815203
      },
      "province": {
        "id": 28,
        "name": "Sulawesi Selatan",
        "lat": -3.6687994,
        "lng": 119.9740534
      },
      "country": {
        "id": 228,
        "name": "INDONESIA",
        "code": "ID"
      },
      "id": 64146,
      "name": "Pepandungan",
      "postcode": "91753",
      "lat": -3.373238,
      "lng": 119.9335779
    },
    {
      "suburb": {
        "id": 5504,
        "name": "Buntu Batu",
        "lat": -3.4389683,
        "lng": 119.950926
      },
      "city": {
        "id": 363,
        "name": "Enrekang",
        "lat": -3.4590744,
        "lng": 119.8815203
      },
      "province": {
        "id": 28,
        "name": "Sulawesi Selatan",
        "lat": -3.6687994,
        "lng": 119.9740534
      },
      "country": {
        "id": 228,
        "name": "INDONESIA",
        "code": "ID"
      },
      "id": 64147,
      "name": "Pasui",
      "postcode": "91753",
      "lat": -3.438848,
      "lng": 119.8901979
    },
    {
      "suburb": {
        "id": 5503,
        "name": "Baraka",
        "lat": -3.3959268,
        "lng": 119.9162276
      },
      "city": {
        "id": 363,
        "name": "Enrekang",
        "lat": -3.4590744,
        "lng": 119.8815203
      },
      "province": {
        "id": 28,
        "name": "Sulawesi Selatan",
        "lat": -3.6687994,
        "lng": 119.9740534
      },
      "country": {
        "id": 228,
        "name": "INDONESIA",
        "code": "ID"
      },
      "id": 64148,
      "name": "Pandung Batu",
      "postcode": "91753",
      "lat": -3.473369,
      "lng": 119.8525909
    },
    {
      "suburb": {
        "id": 5503,
        "name": "Baraka",
        "lat": -3.3959268,
        "lng": 119.9162276
      },
      "city": {
        "id": 363,
        "name": "Enrekang",
        "lat": -3.4590744,
        "lng": 119.8815203
      },
      "province": {
        "id": 28,
        "name": "Sulawesi Selatan",
        "lat": -3.6687994,
        "lng": 119.9740534
      },
      "country": {
        "id": 228,
        "name": "INDONESIA",
        "code": "ID"
      },
      "id": 64149,
      "name": "Parinding",
      "postcode": "91753",
      "lat": -3.4442717,
      "lng": 119.8612703
    },
    {
      "suburb": {
        "id": 5504,
        "name": "Buntu Batu",
        "lat": -3.4389683,
        "lng": 119.950926
      },
      "city": {
        "id": 363,
        "name": "Enrekang",
        "lat": -3.4590744,
        "lng": 119.8815203
      },
      "province": {
        "id": 28,
        "name": "Sulawesi Selatan",
        "lat": -3.6687994,
        "lng": 119.9740534
      },
      "country": {
        "id": 228,
        "name": "INDONESIA",
        "code": "ID"
      },
      "id": 64150,
      "name": "Lunjen",
      "postcode": "91753",
      "lat": -3.4305906,
      "lng": 119.8728421
    },
    {
      "suburb": {
        "id": 5504,
        "name": "Buntu Batu",
        "lat": -3.4389683,
        "lng": 119.950926
      },
      "city": {
        "id": 363,
        "name": "Enrekang",
        "lat": -3.4590744,
        "lng": 119.8815203
      },
      "province": {
        "id": 28,
        "name": "Sulawesi Selatan",
        "lat": -3.6687994,
        "lng": 119.9740534
      },
      "country": {
        "id": 228,
        "name": "INDONESIA",
        "code": "ID"
      },
      "id": 64151,
      "name": "Latimojong",
      "postcode": "91753",
      "lat": -3.4373714,
      "lng": 119.9971769
    },
    {
      "suburb": {
        "id": 5504,
        "name": "Buntu Batu",
        "lat": -3.4389683,
        "lng": 119.950926
      },
      "city": {
        "id": 363,
        "name": "Enrekang",
        "lat": -3.4590744,
        "lng": 119.8815203
      },
      "province": {
        "id": 28,
        "name": "Sulawesi Selatan",
        "lat": -3.6687994,
        "lng": 119.9740534
      },
      "country": {
        "id": 228,
        "name": "INDONESIA",
        "code": "ID"
      },
      "id": 64152,
      "name": "Ledan",
      "postcode": "91753",
      "lat": -3.5005495,
      "lng": 119.9624902
    },
    {
      "suburb": {
        "id": 5503,
        "name": "Baraka",
        "lat": -3.3959268,
        "lng": 119.9162276
      },
      "city": {
        "id": 363,
        "name": "Enrekang",
        "lat": -3.4590744,
        "lng": 119.8815203
      },
      "province": {
        "id": 28,
        "name": "Sulawesi Selatan",
        "lat": -3.6687994,
        "lng": 119.9740534
      },
      "country": {
        "id": 228,
        "name": "INDONESIA",
        "code": "ID"
      },
      "id": 64153,
      "name": "Kendenan",
      "postcode": "91753",
      "lat": -3.4001515,
      "lng": 119.9220112
    },
    {
      "suburb": {
        "id": 5504,
        "name": "Buntu Batu",
        "lat": -3.4389683,
        "lng": 119.950926
      },
      "city": {
        "id": 363,
        "name": "Enrekang",
        "lat": -3.4590744,
        "lng": 119.8815203
      },
      "province": {
        "id": 28,
        "name": "Sulawesi Selatan",
        "lat": -3.6687994,
        "lng": 119.9740534
      },
      "country": {
        "id": 228,
        "name": "INDONESIA",
        "code": "ID"
      },
      "id": 64154,
      "name": "Langda",
      "postcode": "91753",
      "lat": -3.447104,
      "lng": 119.9075516
    },
    {
      "suburb": {
        "id": 5503,
        "name": "Baraka",
        "lat": -3.3959268,
        "lng": 119.9162276
      },
      "city": {
        "id": 363,
        "name": "Enrekang",
        "lat": -3.4590744,
        "lng": 119.8815203
      },
      "province": {
        "id": 28,
        "name": "Sulawesi Selatan",
        "lat": -3.6687994,
        "lng": 119.9740534
      },
      "country": {
        "id": 228,
        "name": "INDONESIA",
        "code": "ID"
      },
      "id": 64155,
      "name": "Kadingeh",
      "postcode": "91753",
      "lat": -3.5029852,
      "lng": 119.8930904
    },
    {
      "suburb": {
        "id": 5504,
        "name": "Buntu Batu",
        "lat": -3.4389683,
        "lng": 119.950926
      },
      "city": {
        "id": 363,
        "name": "Enrekang",
        "lat": -3.4590744,
        "lng": 119.8815203
      },
      "province": {
        "id": 28,
        "name": "Sulawesi Selatan",
        "lat": -3.6687994,
        "lng": 119.9740534
      },
      "country": {
        "id": 228,
        "name": "INDONESIA",
        "code": "ID"
      },
      "id": 64156,
      "name": "Eran Batu",
      "postcode": "91753",
      "lat": -3.4713594,
      "lng": 119.9104436
    },
    {
      "suburb": {
        "id": 5503,
        "name": "Baraka",
        "lat": -3.3959268,
        "lng": 119.9162276
      },
      "city": {
        "id": 363,
        "name": "Enrekang",
        "lat": -3.4590744,
        "lng": 119.8815203
      },
      "province": {
        "id": 28,
        "name": "Sulawesi Selatan",
        "lat": -3.6687994,
        "lng": 119.9740534
      },
      "country": {
        "id": 228,
        "name": "INDONESIA",
        "code": "ID"
      },
      "id": 64157,
      "name": "Janggurara",
      "postcode": "91753",
      "lat": -3.4569597,
      "lng": 119.8786276
    },
    {
      "suburb": {
        "id": 5504,
        "name": "Buntu Batu",
        "lat": -3.4389683,
        "lng": 119.950926
      },
      "city": {
        "id": 363,
        "name": "Enrekang",
        "lat": -3.4590744,
        "lng": 119.8815203
      },
      "province": {
        "id": 28,
        "name": "Sulawesi Selatan",
        "lat": -3.6687994,
        "lng": 119.9740534
      },
      "country": {
        "id": 228,
        "name": "INDONESIA",
        "code": "ID"
      },
      "id": 64158,
      "name": "Buntu Mondong",
      "postcode": "91753",
      "lat": -3.4266901,
      "lng": 119.9220112
    },
    {
      "suburb": {
        "id": 5503,
        "name": "Baraka",
        "lat": -3.3959268,
        "lng": 119.9162276
      },
      "city": {
        "id": 363,
        "name": "Enrekang",
        "lat": -3.4590744,
        "lng": 119.8815203
      },
      "province": {
        "id": 28,
        "name": "Sulawesi Selatan",
        "lat": -3.6687994,
        "lng": 119.9740534
      },
      "country": {
        "id": 228,
        "name": "INDONESIA",
        "code": "ID"
      },
      "id": 64159,
      "name": "Bontongan",
      "postcode": "91753",
      "lat": -3.4101809,
      "lng": 119.8873054
    },
    {
      "suburb": {
        "id": 5503,
        "name": "Baraka",
        "lat": -3.3959268,
        "lng": 119.9162276
      },
      "city": {
        "id": 363,
        "name": "Enrekang",
        "lat": -3.4590744,
        "lng": 119.8815203
      },
      "province": {
        "id": 28,
        "name": "Sulawesi Selatan",
        "lat": -3.6687994,
        "lng": 119.9740534
      },
      "country": {
        "id": 228,
        "name": "INDONESIA",
        "code": "ID"
      },
      "id": 64160,
      "name": "Baraka",
      "postcode": "91753",
      "lat": -3.4080951,
      "lng": 119.8511443
    },
    {
      "suburb": {
        "id": 5503,
        "name": "Baraka",
        "lat": -3.3959268,
        "lng": 119.9162276
      },
      "city": {
        "id": 363,
        "name": "Enrekang",
        "lat": -3.4590744,
        "lng": 119.8815203
      },
      "province": {
        "id": 28,
        "name": "Sulawesi Selatan",
        "lat": -3.6687994,
        "lng": 119.9740534
      },
      "country": {
        "id": 228,
        "name": "INDONESIA",
        "code": "ID"
      },
      "id": 64161,
      "name": "Bone Bone",
      "postcode": "91753",
      "lat": -3.3943516,
      "lng": 119.9624902
    },
    {
      "suburb": {
        "id": 5503,
        "name": "Baraka",
        "lat": -3.3959268,
        "lng": 119.9162276
      },
      "city": {
        "id": 363,
        "name": "Enrekang",
        "lat": -3.4590744,
        "lng": 119.8815203
      },
      "province": {
        "id": 28,
        "name": "Sulawesi Selatan",
        "lat": -3.6687994,
        "lng": 119.9740534
      },
      "country": {
        "id": 228,
        "name": "INDONESIA",
        "code": "ID"
      },
      "id": 64162,
      "name": "Balla",
      "postcode": "91753",
      "lat": -3.4383249,
      "lng": 119.8410174
    },
    {
      "suburb": {
        "id": 5503,
        "name": "Baraka",
        "lat": -3.3959268,
        "lng": 119.9162276
      },
      "city": {
        "id": 363,
        "name": "Enrekang",
        "lat": -3.4590744,
        "lng": 119.8815203
      },
      "province": {
        "id": 28,
        "name": "Sulawesi Selatan",
        "lat": -3.6687994,
        "lng": 119.9740534
      },
      "country": {
        "id": 228,
        "name": "INDONESIA",
        "code": "ID"
      },
      "id": 64163,
      "name": "Banti",
      "postcode": "91753",
      "lat": -3.4619901,
      "lng": 119.8612703
    },
    {
      "suburb": {
        "id": 5505,
        "name": "Anggeraja",
        "lat": -3.4098917,
        "lng": 119.7657663
      },
      "city": {
        "id": 363,
        "name": "Enrekang",
        "lat": -3.4590744,
        "lng": 119.8815203
      },
      "province": {
        "id": 28,
        "name": "Sulawesi Selatan",
        "lat": -3.6687994,
        "lng": 119.9740534
      },
      "country": {
        "id": 228,
        "name": "INDONESIA",
        "code": "ID"
      },
      "id": 64164,
      "name": "Tindallun",
      "postcode": "91752",
      "lat": -3.4584393,
      "lng": 119.7715563
    },
    {
      "suburb": {
        "id": 5506,
        "name": "Malua",
        "lat": -3.3805916,
        "lng": 119.8468043
      },
      "city": {
        "id": 363,
        "name": "Enrekang",
        "lat": -3.4590744,
        "lng": 119.8815203
      },
      "province": {
        "id": 28,
        "name": "Sulawesi Selatan",
        "lat": -3.6687994,
        "lng": 119.9740534
      },
      "country": {
        "id": 228,
        "name": "INDONESIA",
        "code": "ID"
      },
      "id": 64165,
      "name": "Tangru",
      "postcode": "91752",
      "lat": -3.4140713,
      "lng": 119.8381239
    },
    {
      "suburb": {
        "id": 5505,
        "name": "Anggeraja",
        "lat": -3.4098917,
        "lng": 119.7657663
      },
      "city": {
        "id": 363,
        "name": "Enrekang",
        "lat": -3.4590744,
        "lng": 119.8815203
      },
      "province": {
        "id": 28,
        "name": "Sulawesi Selatan",
        "lat": -3.6687994,
        "lng": 119.9740534
      },
      "country": {
        "id": 228,
        "name": "INDONESIA",
        "code": "ID"
      },
      "id": 64166,
      "name": "Tampo",
      "postcode": "91752",
      "lat": -3.392924,
      "lng": 119.8091854
    },
    {
      "suburb": {
        "id": 5505,
        "name": "Anggeraja",
        "lat": -3.4098917,
        "lng": 119.7657663
      },
      "city": {
        "id": 363,
        "name": "Enrekang",
        "lat": -3.4590744,
        "lng": 119.8815203
      },
      "province": {
        "id": 28,
        "name": "Sulawesi Selatan",
        "lat": -3.6687994,
        "lng": 119.9740534
      },
      "country": {
        "id": 228,
        "name": "INDONESIA",
        "code": "ID"
      },
      "id": 64167,
      "name": "Tanete",
      "postcode": "91752",
      "lat": -3.4310529,
      "lng": 119.7947139
    },
    {
      "suburb": {
        "id": 5506,
        "name": "Malua",
        "lat": -3.3805916,
        "lng": 119.8468043
      },
      "city": {
        "id": 363,
        "name": "Enrekang",
        "lat": -3.4590744,
        "lng": 119.8815203
      },
      "province": {
        "id": 28,
        "name": "Sulawesi Selatan",
        "lat": -3.6687994,
        "lng": 119.9740534
      },
      "country": {
        "id": 228,
        "name": "INDONESIA",
        "code": "ID"
      },
      "id": 64168,
      "name": "Tallung Tondok",
      "postcode": "91752",
      "lat": -3.3740554,
      "lng": 119.8439109
    },
    {
      "suburb": {
        "id": 5505,
        "name": "Anggeraja",
        "lat": -3.4098917,
        "lng": 119.7657663
      },
      "city": {
        "id": 363,
        "name": "Enrekang",
        "lat": -3.4590744,
        "lng": 119.8815203
      },
      "province": {
        "id": 28,
        "name": "Sulawesi Selatan",
        "lat": -3.6687994,
        "lng": 119.9740534
      },
      "country": {
        "id": 228,
        "name": "INDONESIA",
        "code": "ID"
      },
      "id": 64169,
      "name": "Siambo",
      "postcode": "91752",
      "lat": -3.4322405,
      "lng": 119.7599761
    },
    {
      "suburb": {
        "id": 5505,
        "name": "Anggeraja",
        "lat": -3.4098917,
        "lng": 119.7657663
      },
      "city": {
        "id": 363,
        "name": "Enrekang",
        "lat": -3.4590744,
        "lng": 119.8815203
      },
      "province": {
        "id": 28,
        "name": "Sulawesi Selatan",
        "lat": -3.6687994,
        "lng": 119.9740534
      },
      "country": {
        "id": 228,
        "name": "INDONESIA",
        "code": "ID"
      },
      "id": 64170,
      "name": "Singki",
      "postcode": "91752",
      "lat": -3.4014266,
      "lng": 119.7541856
    },
    {
      "suburb": {
        "id": 5505,
        "name": "Anggeraja",
        "lat": -3.4098917,
        "lng": 119.7657663
      },
      "city": {
        "id": 363,
        "name": "Enrekang",
        "lat": -3.4590744,
        "lng": 119.8815203
      },
      "province": {
        "id": 28,
        "name": "Sulawesi Selatan",
        "lat": -3.6687994,
        "lng": 119.9740534
      },
      "country": {
        "id": 228,
        "name": "INDONESIA",
        "code": "ID"
      },
      "id": 64171,
      "name": "Saruran",
      "postcode": "91752",
      "lat": -3.4190907,
      "lng": 119.8207615
    },
    {
      "suburb": {
        "id": 5506,
        "name": "Malua",
        "lat": -3.3805916,
        "lng": 119.8468043
      },
      "city": {
        "id": 363,
        "name": "Enrekang",
        "lat": -3.4590744,
        "lng": 119.8815203
      },
      "province": {
        "id": 28,
        "name": "Sulawesi Selatan",
        "lat": -3.6687994,
        "lng": 119.9740534
      },
      "country": {
        "id": 228,
        "name": "INDONESIA",
        "code": "ID"
      },
      "id": 64172,
      "name": "Rante Mario",
      "postcode": "91752",
      "lat": -3.3659617,
      "lng": 119.8873054
    },
    {
      "suburb": {
        "id": 5505,
        "name": "Anggeraja",
        "lat": -3.4098917,
        "lng": 119.7657663
      },
      "city": {
        "id": 363,
        "name": "Enrekang",
        "lat": -3.4590744,
        "lng": 119.8815203
      },
      "province": {
        "id": 28,
        "name": "Sulawesi Selatan",
        "lat": -3.6687994,
        "lng": 119.9740534
      },
      "country": {
        "id": 228,
        "name": "INDONESIA",
        "code": "ID"
      },
      "id": 64173,
      "name": "Salu Dewata",
      "postcode": "91752",
      "lat": -3.3538864,
      "lng": 119.7860302
    },
    {
      "suburb": {
        "id": 5505,
        "name": "Anggeraja",
        "lat": -3.4098917,
        "lng": 119.7657663
      },
      "city": {
        "id": 363,
        "name": "Enrekang",
        "lat": -3.4590744,
        "lng": 119.8815203
      },
      "province": {
        "id": 28,
        "name": "Sulawesi Selatan",
        "lat": -3.6687994,
        "lng": 119.9740534
      },
      "country": {
        "id": 228,
        "name": "INDONESIA",
        "code": "ID"
      },
      "id": 64174,
      "name": "Mandatte",
      "postcode": "91752",
      "lat": -3.4599576,
      "lng": 119.7918194
    },
    {
      "suburb": {
        "id": 5505,
        "name": "Anggeraja",
        "lat": -3.4098917,
        "lng": 119.7657663
      },
      "city": {
        "id": 363,
        "name": "Enrekang",
        "lat": -3.4590744,
        "lng": 119.8815203
      },
      "province": {
        "id": 28,
        "name": "Sulawesi Selatan",
        "lat": -3.6687994,
        "lng": 119.9740534
      },
      "country": {
        "id": 228,
        "name": "INDONESIA",
        "code": "ID"
      },
      "id": 64175,
      "name": "Mataran",
      "postcode": "91752",
      "lat": -3.3960188,
      "lng": 119.7831356
    },
    {
      "suburb": {
        "id": 5505,
        "name": "Anggeraja",
        "lat": -3.4098917,
        "lng": 119.7657663
      },
      "city": {
        "id": 363,
        "name": "Enrekang",
        "lat": -3.4590744,
        "lng": 119.8815203
      },
      "province": {
        "id": 28,
        "name": "Sulawesi Selatan",
        "lat": -3.6687994,
        "lng": 119.9740534
      },
      "country": {
        "id": 228,
        "name": "INDONESIA",
        "code": "ID"
      },
      "id": 64176,
      "name": "Pekalobean",
      "postcode": "91752",
      "lat": -3.3783146,
      "lng": 119.7831356
    },
    {
      "suburb": {
        "id": 5506,
        "name": "Malua",
        "lat": -3.3805916,
        "lng": 119.8468043
      },
      "city": {
        "id": 363,
        "name": "Enrekang",
        "lat": -3.4590744,
        "lng": 119.8815203
      },
      "province": {
        "id": 28,
        "name": "Sulawesi Selatan",
        "lat": -3.6687994,
        "lng": 119.9740534
      },