{
  "metadata": {
    "path": "/v3/location/areas?limit=1000&page=70",
    "http_status_code": 200,
    "http_status": "OK",
    "timestamp": 1647340406
  },
  "data": [
    {
      "suburb": {
        "id": 5963,
        "name": "Oheo",
        "lat": -3.3984914,
        "lng": 122.0610174
      },
      "city": {
        "id": 393,
        "name": "Konawe Utara",
        "lat": -3.3803291,
        "lng": 122.0837445
      },
      "province": {
        "id": 30,
        "name": "Sulawesi Tenggara",
        "lat": -1.4300254,
        "lng": 121.4456179
      },
      "country": {
        "id": 228,
        "name": "INDONESIA",
        "code": "ID"
      },
      "id": 69018,
      "name": "Landawe",
      "postcode": "93353",
      "lat": -3.3869659,
      "lng": 122.0212337
    },
    {
      "suburb": {
        "id": 5964,
        "name": "Wiwirano",
        "lat": -3.2091132,
        "lng": 122.0382856
      },
      "city": {
        "id": 393,
        "name": "Konawe Utara",
        "lat": -3.3803291,
        "lng": 122.0837445
      },
      "province": {
        "id": 30,
        "name": "Sulawesi Tenggara",
        "lat": -1.4300254,
        "lng": 121.4456179
      },
      "country": {
        "id": 228,
        "name": "INDONESIA",
        "code": "ID"
      },
      "id": 69019,
      "name": "Landawe Utama",
      "postcode": "93353",
      "lat": -3.2281761,
      "lng": 122.2313539
    },
    {
      "suburb": {
        "id": 5964,
        "name": "Wiwirano",
        "lat": -3.2091132,
        "lng": 122.0382856
      },
      "city": {
        "id": 393,
        "name": "Konawe Utara",
        "lat": -3.3803291,
        "lng": 122.0837445
      },
      "province": {
        "id": 30,
        "name": "Sulawesi Tenggara",
        "lat": -1.4300254,
        "lng": 121.4456179
      },
      "country": {
        "id": 228,
        "name": "INDONESIA",
        "code": "ID"
      },
      "id": 69020,
      "name": "Lamparinga",
      "postcode": "93353",
      "lat": -3.2022173,
      "lng": 122.1121466
    },
    {
      "suburb": {
        "id": 5966,
        "name": "Andowia",
        "lat": -3.5721188,
        "lng": 122.0610174
      },
      "city": {
        "id": 393,
        "name": "Konawe Utara",
        "lat": -3.3803291,
        "lng": 122.0837445
      },
      "province": {
        "id": 30,
        "name": "Sulawesi Tenggara",
        "lat": -1.4300254,
        "lng": 121.4456179
      },
      "country": {
        "id": 228,
        "name": "INDONESIA",
        "code": "ID"
      },
      "id": 69021,
      "name": "Lamondowo",
      "postcode": "93353",
      "lat": -3.5505968,
      "lng": 122.0553349
    },
    {
      "suburb": {
        "id": 5964,
        "name": "Wiwirano",
        "lat": -3.2091132,
        "lng": 122.0382856
      },
      "city": {
        "id": 393,
        "name": "Konawe Utara",
        "lat": -3.3803291,
        "lng": 122.0837445
      },
      "province": {
        "id": 30,
        "name": "Sulawesi Tenggara",
        "lat": -1.4300254,
        "lng": 121.4456179
      },
      "country": {
        "id": 228,
        "name": "INDONESIA",
        "code": "ID"
      },
      "id": 69022,
      "name": "Lamonae",
      "postcode": "93353",
      "lat": -3.2495669,
      "lng": 122.1447998
    },
    {
      "suburb": {
        "id": 5964,
        "name": "Wiwirano",
        "lat": -3.2091132,
        "lng": 122.0382856
      },
      "city": {
        "id": 393,
        "name": "Konawe Utara",
        "lat": -3.3803291,
        "lng": 122.0837445
      },
      "province": {
        "id": 30,
        "name": "Sulawesi Tenggara",
        "lat": -1.4300254,
        "lng": 121.4456179
      },
      "country": {
        "id": 228,
        "name": "INDONESIA",
        "code": "ID"
      },
      "id": 69023,
      "name": "Lamonae Utama",
      "postcode": "93353",
      "lat": -3.2683293,
      "lng": 122.0723816
    },
    {
      "suburb": {
        "id": 5963,
        "name": "Oheo",
        "lat": -3.3984914,
        "lng": 122.0610174
      },
      "city": {
        "id": 393,
        "name": "Konawe Utara",
        "lat": -3.3803291,
        "lng": 122.0837445
      },
      "province": {
        "id": 30,
        "name": "Sulawesi Tenggara",
        "lat": -1.4300254,
        "lng": 121.4456179
      },
      "country": {
        "id": 228,
        "name": "INDONESIA",
        "code": "ID"
      },
      "id": 69024,
      "name": "Lameoru",
      "postcode": "93353",
      "lat": -3.3984914,
      "lng": 122.0610174
    },
    {
      "suburb": {
        "id": 5966,
        "name": "Andowia",
        "lat": -3.5721188,
        "lng": 122.0610174
      },
      "city": {
        "id": 393,
        "name": "Konawe Utara",
        "lat": -3.3803291,
        "lng": 122.0837445
      },
      "province": {
        "id": 30,
        "name": "Sulawesi Tenggara",
        "lat": -1.4300254,
        "lng": 121.4456179
      },
      "country": {
        "id": 228,
        "name": "INDONESIA",
        "code": "ID"
      },
      "id": 69025,
      "name": "Lambudoni",
      "postcode": "93353",
      "lat": -3.5361495,
      "lng": 122.0354438
    },
    {
      "suburb": {
        "id": 5966,
        "name": "Andowia",
        "lat": -3.5721188,
        "lng": 122.0610174
      },
      "city": {
        "id": 393,
        "name": "Konawe Utara",
        "lat": -3.3803291,
        "lng": 122.0837445
      },
      "province": {
        "id": 30,
        "name": "Sulawesi Tenggara",
        "lat": -1.4300254,
        "lng": 121.4456179
      },
      "country": {
        "id": 228,
        "name": "INDONESIA",
        "code": "ID"
      },
      "id": 69026,
      "name": "Labungga",
      "postcode": "93353",
      "lat": -3.5201016,
      "lng": 122.1419608
    },
    {
      "suburb": {
        "id": 5966,
        "name": "Andowia",
        "lat": -3.5721188,
        "lng": 122.0610174
      },
      "city": {
        "id": 393,
        "name": "Konawe Utara",
        "lat": -3.3803291,
        "lng": 122.0837445
      },
      "province": {
        "id": 30,
        "name": "Sulawesi Tenggara",
        "lat": -1.4300254,
        "lng": 121.4456179
      },
      "country": {
        "id": 228,
        "name": "INDONESIA",
        "code": "ID"
      },
      "id": 69027,
      "name": "Lahimbua",
      "postcode": "93353",
      "lat": -3.5703474,
      "lng": 122.1064668
    },
    {
      "suburb": {
        "id": 5964,
        "name": "Wiwirano",
        "lat": -3.2091132,
        "lng": 122.0382856
      },
      "city": {
        "id": 393,
        "name": "Konawe Utara",
        "lat": -3.3803291,
        "lng": 122.0837445
      },
      "province": {
        "id": 30,
        "name": "Sulawesi Tenggara",
        "lat": -1.4300254,
        "lng": 121.4456179
      },
      "country": {
        "id": 228,
        "name": "INDONESIA",
        "code": "ID"
      },
      "id": 69028,
      "name": "Kuratao",
      "postcode": "93353",
      "lat": -3.3020685,
      "lng": 122.0951062
    },
    {
      "suburb": {
        "id": 5962,
        "name": "Asera",
        "lat": -3.3572961,
        "lng": 121.7651362
      },
      "city": {
        "id": 393,
        "name": "Konawe Utara",
        "lat": -3.3803291,
        "lng": 122.0837445
      },
      "province": {
        "id": 30,
        "name": "Sulawesi Tenggara",
        "lat": -1.4300254,
        "lng": 121.4456179
      },
      "country": {
        "id": 228,
        "name": "INDONESIA",
        "code": "ID"
      },
      "id": 69029,
      "name": "Kota Mulya",
      "postcode": "93353",
      "lat": -3.3572961,
      "lng": 121.7651362
    },
    {
      "suburb": {
        "id": 5963,
        "name": "Oheo",
        "lat": -3.3984914,
        "lng": 122.0610174
      },
      "city": {
        "id": 393,
        "name": "Konawe Utara",
        "lat": -3.3803291,
        "lng": 122.0837445
      },
      "province": {
        "id": 30,
        "name": "Sulawesi Tenggara",
        "lat": -1.4300254,
        "lng": 121.4456179
      },
      "country": {
        "id": 228,
        "name": "INDONESIA",
        "code": "ID"
      },
      "id": 69030,
      "name": "Kota Maju",
      "postcode": "93353",
      "lat": -3.4020268,
      "lng": 122.0240758
    },
    {
      "suburb": {
        "id": 5964,
        "name": "Wiwirano",
        "lat": -3.2091132,
        "lng": 122.0382856
      },
      "city": {
        "id": 393,
        "name": "Konawe Utara",
        "lat": -3.3803291,
        "lng": 122.0837445
      },
      "province": {
        "id": 30,
        "name": "Sulawesi Tenggara",
        "lat": -1.4300254,
        "lng": 121.4456179
      },
      "country": {
        "id": 228,
        "name": "INDONESIA",
        "code": "ID"
      },
      "id": 69031,
      "name": "Kolosua",
      "postcode": "93353",
      "lat": -3.2861412,
      "lng": 122.1476388
    },
    {
      "suburb": {
        "id": 5964,
        "name": "Wiwirano",
        "lat": -3.2091132,
        "lng": 122.0382856
      },
      "city": {
        "id": 393,
        "name": "Konawe Utara",
        "lat": -3.3803291,
        "lng": 122.0837445
      },
      "province": {
        "id": 30,
        "name": "Sulawesi Tenggara",
        "lat": -1.4300254,
        "lng": 121.4456179
      },
      "country": {
        "id": 228,
        "name": "INDONESIA",
        "code": "ID"
      },
      "id": 69032,
      "name": "Culambatu",
      "postcode": "93353",
      "lat": -3.1773152,
      "lng": 122.2086579
    },
    {
      "suburb": {
        "id": 5964,
        "name": "Wiwirano",
        "lat": -3.2091132,
        "lng": 122.0382856
      },
      "city": {
        "id": 393,
        "name": "Konawe Utara",
        "lat": -3.3803291,
        "lng": 122.0837445
      },
      "province": {
        "id": 30,
        "name": "Sulawesi Tenggara",
        "lat": -1.4300254,
        "lng": 121.4456179
      },
      "country": {
        "id": 228,
        "name": "INDONESIA",
        "code": "ID"
      },
      "id": 69033,
      "name": "Hialu Utama",
      "postcode": "93353",
      "lat": -3.2885098,
      "lng": 122.1717668
    },
    {
      "suburb": {
        "id": 5963,
        "name": "Oheo",
        "lat": -3.3984914,
        "lng": 122.0610174
      },
      "city": {
        "id": 393,
        "name": "Konawe Utara",
        "lat": -3.3803291,
        "lng": 122.0837445
      },
      "province": {
        "id": 30,
        "name": "Sulawesi Tenggara",
        "lat": -1.4300254,
        "lng": 121.4456179
      },
      "country": {
        "id": 228,
        "name": "INDONESIA",
        "code": "ID"
      },
      "id": 69034,
      "name": "Bendewuta",
      "postcode": "93353",
      "lat": -3.3984914,
      "lng": 122.0610174
    },
    {
      "suburb": {
        "id": 5963,
        "name": "Oheo",
        "lat": -3.3984914,
        "lng": 122.0610174
      },
      "city": {
        "id": 393,
        "name": "Konawe Utara",
        "lat": -3.3803291,
        "lng": 122.0837445
      },
      "province": {
        "id": 30,
        "name": "Sulawesi Tenggara",
        "lat": -1.4300254,
        "lng": 121.4456179
      },
      "country": {
        "id": 228,
        "name": "INDONESIA",
        "code": "ID"
      },
      "id": 69035,
      "name": "Bandaeha",
      "postcode": "93353",
      "lat": -3.4129684,
      "lng": 122.0212337
    },
    {
      "suburb": {
        "id": 5966,
        "name": "Andowia",
        "lat": -3.5721188,
        "lng": 122.0610174
      },
      "city": {
        "id": 393,
        "name": "Konawe Utara",
        "lat": -3.3803291,
        "lng": 122.0837445
      },
      "province": {
        "id": 30,
        "name": "Sulawesi Tenggara",
        "lat": -1.4300254,
        "lng": 121.4456179
      },
      "country": {
        "id": 228,
        "name": "INDONESIA",
        "code": "ID"
      },
      "id": 69036,
      "name": "Banggarema",
      "postcode": "93353",
      "lat": -3.5721188,
      "lng": 122.0610174
    },
    {
      "suburb": {
        "id": 5962,
        "name": "Asera",
        "lat": -3.3572961,
        "lng": 121.7651362
      },
      "city": {
        "id": 393,
        "name": "Konawe Utara",
        "lat": -3.3803291,
        "lng": 122.0837445
      },
      "province": {
        "id": 30,
        "name": "Sulawesi Tenggara",
        "lat": -1.4300254,
        "lng": 121.4456179
      },
      "country": {
        "id": 228,
        "name": "INDONESIA",
        "code": "ID"
      },
      "id": 69037,
      "name": "Asemi Nunulai (Aseminulai)",
      "postcode": "93353",
      "lat": -3.3605931,
      "lng": 121.6739371
    },
    {
      "suburb": {
        "id": 5962,
        "name": "Asera",
        "lat": -3.3572961,
        "lng": 121.7651362
      },
      "city": {
        "id": 393,
        "name": "Konawe Utara",
        "lat": -3.3803291,
        "lng": 122.0837445
      },
      "province": {
        "id": 30,
        "name": "Sulawesi Tenggara",
        "lat": -1.4300254,
        "lng": 121.4456179
      },
      "country": {
        "id": 228,
        "name": "INDONESIA",
        "code": "ID"
      },
      "id": 69038,
      "name": "Asera",
      "postcode": "93353",
      "lat": -3.392804,
      "lng": 121.749397
    },
    {
      "suburb": {
        "id": 5966,
        "name": "Andowia",
        "lat": -3.5721188,
        "lng": 122.0610174
      },
      "city": {
        "id": 393,
        "name": "Konawe Utara",
        "lat": -3.3803291,
        "lng": 122.0837445
      },
      "province": {
        "id": 30,
        "name": "Sulawesi Tenggara",
        "lat": -1.4300254,
        "lng": 121.4456179
      },
      "country": {
        "id": 228,
        "name": "INDONESIA",
        "code": "ID"
      },
      "id": 69039,
      "name": "Andowia",
      "postcode": "93353",
      "lat": -3.5283456,
      "lng": 122.1533164
    },
    {
      "suburb": {
        "id": 5966,
        "name": "Andowia",
        "lat": -3.5721188,
        "lng": 122.0610174
      },
      "city": {
        "id": 393,
        "name": "Konawe Utara",
        "lat": -3.3803291,
        "lng": 122.0837445
      },
      "province": {
        "id": 30,
        "name": "Sulawesi Tenggara",
        "lat": -1.4300254,
        "lng": 121.4456179
      },
      "country": {
        "id": 228,
        "name": "INDONESIA",
        "code": "ID"
      },
      "id": 69040,
      "name": "Anggolohipo",
      "postcode": "93353",
      "lat": -3.5721188,
      "lng": 122.0610174
    },
    {
      "suburb": {
        "id": 5962,
        "name": "Asera",
        "lat": -3.3572961,
        "lng": 121.7651362
      },
      "city": {
        "id": 393,
        "name": "Konawe Utara",
        "lat": -3.3803291,
        "lng": 122.0837445
      },
      "province": {
        "id": 30,
        "name": "Sulawesi Tenggara",
        "lat": -1.4300254,
        "lng": 121.4456179
      },
      "country": {
        "id": 228,
        "name": "INDONESIA",
        "code": "ID"
      },
      "id": 69041,
      "name": "Amorere (Amorome)",
      "postcode": "93353",
      "lat": -3.4687813,
      "lng": 122.0652791
    },
    {
      "suburb": {
        "id": 5962,
        "name": "Asera",
        "lat": -3.3572961,
        "lng": 121.7651362
      },
      "city": {
        "id": 393,
        "name": "Konawe Utara",
        "lat": -3.3803291,
        "lng": 122.0837445
      },
      "province": {
        "id": 30,
        "name": "Sulawesi Tenggara",
        "lat": -1.4300254,
        "lng": 121.4456179
      },
      "country": {
        "id": 228,
        "name": "INDONESIA",
        "code": "ID"
      },
      "id": 69042,
      "name": "Amorome Utama",
      "postcode": "93353",
      "lat": -3.3572961,
      "lng": 121.7651362
    },
    {
      "suburb": {
        "id": 5966,
        "name": "Andowia",
        "lat": -3.5721188,
        "lng": 122.0610174
      },
      "city": {
        "id": 393,
        "name": "Konawe Utara",
        "lat": -3.3803291,
        "lng": 122.0837445
      },
      "province": {
        "id": 30,
        "name": "Sulawesi Tenggara",
        "lat": -1.4300254,
        "lng": 121.4456179
      },
      "country": {
        "id": 228,
        "name": "INDONESIA",
        "code": "ID"
      },
      "id": 69043,
      "name": "Amolame",
      "postcode": "93353",
      "lat": -3.5721188,
      "lng": 122.0610174
    },
    {
      "suburb": {
        "id": 5967,
        "name": "Lasolo",
        "lat": -3.6711596,
        "lng": 122.1973081
      },
      "city": {
        "id": 393,
        "name": "Konawe Utara",
        "lat": -3.3803291,
        "lng": 122.0837445
      },
      "province": {
        "id": 30,
        "name": "Sulawesi Tenggara",
        "lat": -1.4300254,
        "lng": 121.4456179
      },
      "country": {
        "id": 228,
        "name": "INDONESIA",
        "code": "ID"
      },
      "id": 69044,
      "name": "Waworaha",
      "postcode": "93352",
      "lat": -3.6796339,
      "lng": 122.1490582
    },
    {
      "suburb": {
        "id": 5968,
        "name": "Motui",
        "lat": -3.837986,
        "lng": 122.3787597
      },
      "city": {
        "id": 393,
        "name": "Konawe Utara",
        "lat": -3.3803291,
        "lng": 122.0837445
      },
      "province": {
        "id": 30,
        "name": "Sulawesi Tenggara",
        "lat": -1.4300254,
        "lng": 121.4456179
      },
      "country": {
        "id": 228,
        "name": "INDONESIA",
        "code": "ID"
      },
      "id": 69045,
      "name": "Wawoluri",
      "postcode": "93352",
      "lat": -3.8034958,
      "lng": 122.4212424
    },
    {
      "suburb": {
        "id": 5967,
        "name": "Lasolo",
        "lat": -3.6711596,
        "lng": 122.1973081
      },
      "city": {
        "id": 393,
        "name": "Konawe Utara",
        "lat": -3.3803291,
        "lng": 122.0837445
      },
      "province": {
        "id": 30,
        "name": "Sulawesi Tenggara",
        "lat": -1.4300254,
        "lng": 121.4456179
      },
      "country": {
        "id": 228,
        "name": "INDONESIA",
        "code": "ID"
      },
      "id": 69046,
      "name": "Waturambaha",
      "postcode": "93352",
      "lat": -3.3924635,
      "lng": 122.3390936
    },
    {
      "suburb": {
        "id": 5967,
        "name": "Lasolo",
        "lat": -3.6711596,
        "lng": 122.1973081
      },
      "city": {
        "id": 393,
        "name": "Konawe Utara",
        "lat": -3.3803291,
        "lng": 122.0837445
      },
      "province": {
        "id": 30,
        "name": "Sulawesi Tenggara",
        "lat": -1.4300254,
        "lng": 121.4456179
      },
      "country": {
        "id": 228,
        "name": "INDONESIA",
        "code": "ID"
      },
      "id": 69047,
      "name": "Wawolesea",
      "postcode": "93352",
      "lat": -3.725241,
      "lng": 122.259717
    },
    {
      "suburb": {
        "id": 5969,
        "name": "Sawa",
        "lat": -3.7755386,
        "lng": 122.4127472
      },
      "city": {
        "id": 393,
        "name": "Konawe Utara",
        "lat": -3.3803291,
        "lng": 122.0837445
      },
      "province": {
        "id": 30,
        "name": "Sulawesi Tenggara",
        "lat": -1.4300254,
        "lng": 121.4456179
      },
      "country": {
        "id": 228,
        "name": "INDONESIA",
        "code": "ID"
      },
      "id": 69048,
      "name": "Ulu Sawa",
      "postcode": "93352",
      "lat": -3.7601824,
      "lng": 122.415579
    },
    {
      "suburb": {
        "id": 5967,
        "name": "Lasolo",
        "lat": -3.6711596,
        "lng": 122.1973081
      },
      "city": {
        "id": 393,
        "name": "Konawe Utara",
        "lat": -3.3803291,
        "lng": 122.0837445
      },
      "province": {
        "id": 30,
        "name": "Sulawesi Tenggara",
        "lat": -1.4300254,
        "lng": 121.4456179
      },
      "country": {
        "id": 228,
        "name": "INDONESIA",
        "code": "ID"
      },
      "id": 69049,
      "name": "Toreo",
      "postcode": "93352",
      "lat": -3.6986502,
      "lng": 122.2710602
    },
    {
      "suburb": {
        "id": 5967,
        "name": "Lasolo",
        "lat": -3.6711596,
        "lng": 122.1973081
      },
      "city": {
        "id": 393,
        "name": "Konawe Utara",
        "lat": -3.3803291,
        "lng": 122.0837445
      },
      "province": {
        "id": 30,
        "name": "Sulawesi Tenggara",
        "lat": -1.4300254,
        "lng": 121.4456179
      },
      "country": {
        "id": 228,
        "name": "INDONESIA",
        "code": "ID"
      },
      "id": 69050,
      "name": "Watukila",
      "postcode": "93352",
      "lat": -3.6606023,
      "lng": 122.1348629
    },
    {
      "suburb": {
        "id": 5970,
        "name": "Lembo",
        "lat": -3.7701282,
        "lng": 122.3334258
      },
      "city": {
        "id": 393,
        "name": "Konawe Utara",
        "lat": -3.3803291,
        "lng": 122.0837445
      },
      "province": {
        "id": 30,
        "name": "Sulawesi Tenggara",
        "lat": -1.4300254,
        "lng": 121.4456179
      },
      "country": {
        "id": 228,
        "name": "INDONESIA",
        "code": "ID"
      },
      "id": 69051,
      "name": "Tonggalino (Tongalino)",
      "postcode": "93352",
      "lat": -3.8091259,
      "lng": 122.3390936
    },
    {
      "suburb": {
        "id": 5968,
        "name": "Motui",
        "lat": -3.837986,
        "lng": 122.3787597
      },
      "city": {
        "id": 393,
        "name": "Konawe Utara",
        "lat": -3.3803291,
        "lng": 122.0837445
      },
      "province": {
        "id": 30,
        "name": "Sulawesi Tenggara",
        "lat": -1.4300254,
        "lng": 121.4456179
      },
      "country": {
        "id": 228,
        "name": "INDONESIA",
        "code": "ID"
      },
      "id": 69052,
      "name": "Tondowatu",
      "postcode": "93352",
      "lat": -3.8471924,
      "lng": 122.367428
    },
    {
      "suburb": {
        "id": 5969,
        "name": "Sawa",
        "lat": -3.7755386,
        "lng": 122.4127472
      },
      "city": {
        "id": 393,
        "name": "Konawe Utara",
        "lat": -3.3803291,
        "lng": 122.0837445
      },
      "province": {
        "id": 30,
        "name": "Sulawesi Tenggara",
        "lat": -1.4300254,
        "lng": 121.4456179
      },
      "country": {
        "id": 228,
        "name": "INDONESIA",
        "code": "ID"
      },
      "id": 69053,
      "name": "Tobi Meita",
      "postcode": "93352",
      "lat": -3.7755386,
      "lng": 122.4127472
    },
    {
      "suburb": {
        "id": 5971,
        "name": "Langgikima",
        "lat": -3.322624,
        "lng": 122.2427
      },
      "city": {
        "id": 393,
        "name": "Konawe Utara",
        "lat": -3.3803291,
        "lng": 122.0837445
      },
      "province": {
        "id": 30,
        "name": "Sulawesi Tenggara",
        "lat": -1.4300254,
        "lng": 121.4456179
      },
      "country": {
        "id": 228,
        "name": "INDONESIA",
        "code": "ID"
      },
      "id": 69054,
      "name": "Tobimetia",
      "postcode": "93352",
      "lat": -3.348112,
      "lng": 122.254045
    },
    {
      "suburb": {
        "id": 5967,
        "name": "Lasolo",
        "lat": -3.6711596,
        "lng": 122.1973081
      },
      "city": {
        "id": 393,
        "name": "Konawe Utara",
        "lat": -3.3803291,
        "lng": 122.0837445
      },
      "province": {
        "id": 30,
        "name": "Sulawesi Tenggara",
        "lat": -1.4300254,
        "lng": 121.4456179
      },
      "country": {
        "id": 228,
        "name": "INDONESIA",
        "code": "ID"
      },
      "id": 69055,
      "name": "Tetelupai",
      "postcode": "93352",
      "lat": -3.6711596,
      "lng": 122.1973081
    },
    {
      "suburb": {
        "id": 5967,
        "name": "Lasolo",
        "lat": -3.6711596,
        "lng": 122.1973081
      },
      "city": {
        "id": 393,
        "name": "Konawe Utara",
        "lat": -3.3803291,
        "lng": 122.0837445
      },
      "province": {
        "id": 30,
        "name": "Sulawesi Tenggara",
        "lat": -1.4300254,
        "lng": 121.4456179
      },
      "country": {
        "id": 228,
        "name": "INDONESIA",
        "code": "ID"
      },
      "id": 69056,
      "name": "Tinobu",
      "postcode": "93352",
      "lat": -3.640894,
      "lng": 122.213799
    },
    {
      "suburb": {
        "id": 5972,
        "name": "Molawe",
        "lat": -3.5303114,
        "lng": 122.2427
      },
      "city": {
        "id": 393,
        "name": "Konawe Utara",
        "lat": -3.3803291,
        "lng": 122.0837445
      },
      "province": {
        "id": 30,
        "name": "Sulawesi Tenggara",
        "lat": -1.4300254,
        "lng": 121.4456179
      },
      "country": {
        "id": 228,
        "name": "INDONESIA",
        "code": "ID"
      },
      "id": 69057,
      "name": "Tapunggaea",
      "postcode": "93352",
      "lat": -3.5303114,
      "lng": 122.2427
    },
    {
      "suburb": {
        "id": 5967,
        "name": "Lasolo",
        "lat": -3.6711596,
        "lng": 122.1973081
      },
      "city": {
        "id": 393,
        "name": "Konawe Utara",
        "lat": -3.3803291,
        "lng": 122.0837445
      },
      "province": {
        "id": 30,
        "name": "Sulawesi Tenggara",
        "lat": -1.4300254,
        "lng": 121.4456179
      },
      "country": {
        "id": 228,
        "name": "INDONESIA",
        "code": "ID"
      },
      "id": 69058,
      "name": "Tanjung Bunga",
      "postcode": "93352",
      "lat": -3.744479,
      "lng": 122.2951603
    },
    {
      "suburb": {
        "id": 5972,
        "name": "Molawe",
        "lat": -3.5303114,
        "lng": 122.2427
      },
      "city": {
        "id": 393,
        "name": "Konawe Utara",
        "lat": -3.3803291,
        "lng": 122.0837445
      },
      "province": {
        "id": 30,
        "name": "Sulawesi Tenggara",
        "lat": -1.4300254,
        "lng": 121.4456179
      },
      "country": {
        "id": 228,
        "name": "INDONESIA",
        "code": "ID"
      },
      "id": 69059,
      "name": "Tapuemea",
      "postcode": "93352",
      "lat": -3.5303114,
      "lng": 122.2427
    },
    {
      "suburb": {
        "id": 5969,
        "name": "Sawa",
        "lat": -3.7755386,
        "lng": 122.4127472
      },
      "city": {
        "id": 393,
        "name": "Konawe Utara",
        "lat": -3.3803291,
        "lng": 122.0837445
      },
      "province": {
        "id": 30,
        "name": "Sulawesi Tenggara",
        "lat": -1.4300254,
        "lng": 121.4456179
      },
      "country": {
        "id": 228,
        "name": "INDONESIA",
        "code": "ID"
      },
      "id": 69060,
      "name": "Tangauna (Tongauna)",
      "postcode": "93352",
      "lat": -3.7592409,
      "lng": 122.4382307
    },
    {
      "suburb": {
        "id": 5970,
        "name": "Lembo",
        "lat": -3.7701282,
        "lng": 122.3334258
      },
      "city": {
        "id": 393,
        "name": "Konawe Utara",
        "lat": -3.3803291,
        "lng": 122.0837445
      },
      "province": {
        "id": 30,
        "name": "Sulawesi Tenggara",
        "lat": -1.4300254,
        "lng": 121.4456179
      },
      "country": {
        "id": 228,
        "name": "INDONESIA",
        "code": "ID"
      },
      "id": 69061,
      "name": "Taipa",
      "postcode": "93352",
      "lat": -3.7521817,
      "lng": 122.3985871
    },
    {
      "suburb": {
        "id": 5969,
        "name": "Sawa",
        "lat": -3.7755386,
        "lng": 122.4127472
      },
      "city": {
        "id": 393,
        "name": "Konawe Utara",
        "lat": -3.3803291,
        "lng": 122.0837445
      },
      "province": {
        "id": 30,
        "name": "Sulawesi Tenggara",
        "lat": -1.4300254,
        "lng": 121.4456179
      },
      "country": {
        "id": 228,
        "name": "INDONESIA",
        "code": "ID"
      },
      "id": 69062,
      "name": "Sawa",
      "postcode": "93352",
      "lat": -3.7601824,
      "lng": 122.415579
    },
    {
      "suburb": {
        "id": 5968,
        "name": "Motui",
        "lat": -3.837986,
        "lng": 122.3787597
      },
      "city": {
        "id": 393,
        "name": "Konawe Utara",
        "lat": -3.3803291,
        "lng": 122.0837445
      },
      "province": {
        "id": 30,
        "name": "Sulawesi Tenggara",
        "lat": -1.4300254,
        "lng": 121.4456179
      },
      "country": {
        "id": 228,
        "name": "INDONESIA",
        "code": "ID"
      },
      "id": 69063,
      "name": "Puuwonggia",
      "postcode": "93352",
      "lat": -3.837986,
      "lng": 122.3787597
    },
    {
      "suburb": {
        "id": 5971,
        "name": "Langgikima",
        "lat": -3.322624,
        "lng": 122.2427
      },
      "city": {
        "id": 393,
        "name": "Konawe Utara",
        "lat": -3.3803291,
        "lng": 122.0837445
      },
      "province": {
        "id": 30,
        "name": "Sulawesi Tenggara",
        "lat": -1.4300254,
        "lng": 121.4456179
      },
      "country": {
        "id": 228,
        "name": "INDONESIA",
        "code": "ID"
      },
      "id": 69064,
      "name": "Sari Mukti",
      "postcode": "93352",
      "lat": -3.3275623,
      "lng": 122.2256803
    },
    {
      "suburb": {
        "id": 5969,
        "name": "Sawa",
        "lat": -3.7755386,
        "lng": 122.4127472
      },
      "city": {
        "id": 393,
        "name": "Konawe Utara",
        "lat": -3.3803291,
        "lng": 122.0837445
      },
      "province": {
        "id": 30,
        "name": "Sulawesi Tenggara",
        "lat": -1.4300254,
        "lng": 121.4456179
      },
      "country": {
        "id": 228,
        "name": "INDONESIA",
        "code": "ID"
      },
      "id": 69065,
      "name": "Puupi",
      "postcode": "93352",
      "lat": -3.7897896,
      "lng": 122.384425
    },
    {
      "suburb": {
        "id": 5970,
        "name": "Lembo",
        "lat": -3.7701282,
        "lng": 122.3334258
      },
      "city": {
        "id": 393,
        "name": "Konawe Utara",
        "lat": -3.3803291,
        "lng": 122.0837445
      },
      "province": {
        "id": 30,
        "name": "Sulawesi Tenggara",
        "lat": -1.4300254,
        "lng": 121.4456179
      },
      "country": {
        "id": 228,
        "name": "INDONESIA",
        "code": "ID"
      },
      "id": 69066,
      "name": "Puusiambu",
      "postcode": "93352",
      "lat": -3.7799608,
      "lng": 122.3589285
    },
    {
      "suburb": {
        "id": 5970,
        "name": "Lembo",
        "lat": -3.7701282,
        "lng": 122.3334258
      },
      "city": {
        "id": 393,
        "name": "Konawe Utara",
        "lat": -3.3803291,
        "lng": 122.0837445
      },
      "province": {
        "id": 30,
        "name": "Sulawesi Tenggara",
        "lat": -1.4300254,
        "lng": 121.4456179
      },
      "country": {
        "id": 228,
        "name": "INDONESIA",
        "code": "ID"
      },
      "id": 69067,
      "name": "Puulemo",
      "postcode": "93352",
      "lat": -3.7602917,
      "lng": 122.307917
    },
    {
      "suburb": {
        "id": 5969,
        "name": "Sawa",
        "lat": -3.7755386,
        "lng": 122.4127472
      },
      "city": {
        "id": 393,
        "name": "Konawe Utara",
        "lat": -3.3803291,
        "lng": 122.0837445
      },
      "province": {
        "id": 30,
        "name": "Sulawesi Tenggara",
        "lat": -1.4300254,
        "lng": 121.4456179
      },
      "country": {
        "id": 228,
        "name": "INDONESIA",
        "code": "ID"
      },
      "id": 69068,
      "name": "Puudonggala (Pudonggala)",
      "postcode": "93352",
      "lat": -3.7684174,
      "lng": 122.4269055
    },
    {
      "suburb": {
        "id": 5968,
        "name": "Motui",
        "lat": -3.837986,
        "lng": 122.3787597
      },
      "city": {
        "id": 393,
        "name": "Konawe Utara",
        "lat": -3.3803291,
        "lng": 122.0837445
      },
      "province": {
        "id": 30,
        "name": "Sulawesi Tenggara",
        "lat": -1.4300254,
        "lng": 121.4456179
      },
      "country": {
        "id": 228,
        "name": "INDONESIA",
        "code": "ID"
      },
      "id": 69069,
      "name": "Punggulahi",
      "postcode": "93352",
      "lat": -3.837986,
      "lng": 122.3787597
    },
    {
      "suburb": {
        "id": 5969,
        "name": "Sawa",
        "lat": -3.7755386,
        "lng": 122.4127472
      },
      "city": {
        "id": 393,
        "name": "Konawe Utara",
        "lat": -3.3803291,
        "lng": 122.0837445
      },
      "province": {
        "id": 30,
        "name": "Sulawesi Tenggara",
        "lat": -1.4300254,
        "lng": 121.4456179
      },
      "country": {
        "id": 228,
        "name": "INDONESIA",
        "code": "ID"
      },
      "id": 69070,
      "name": "Pudonggala Utama",
      "postcode": "93352",
      "lat": -3.7755386,
      "lng": 122.4127472
    },
    {
      "suburb": {
        "id": 5968,
        "name": "Motui",
        "lat": -3.837986,
        "lng": 122.3787597
      },
      "city": {
        "id": 393,
        "name": "Konawe Utara",
        "lat": -3.3803291,
        "lng": 122.0837445
      },
      "province": {
        "id": 30,
        "name": "Sulawesi Tenggara",
        "lat": -1.4300254,
        "lng": 121.4456179
      },
      "country": {
        "id": 228,
        "name": "INDONESIA",
        "code": "ID"
      },
      "id": 69071,
      "name": "Poni Poniki",
      "postcode": "93352",
      "lat": -3.837986,
      "lng": 122.3787597
    },
    {
      "suburb": {
        "id": 5971,
        "name": "Langgikima",
        "lat": -3.322624,
        "lng": 122.2427
      },
      "city": {
        "id": 393,
        "name": "Konawe Utara",
        "lat": -3.3803291,
        "lng": 122.0837445
      },
      "province": {
        "id": 30,
        "name": "Sulawesi Tenggara",
        "lat": -1.4300254,
        "lng": 121.4456179
      },
      "country": {
        "id": 228,
        "name": "INDONESIA",
        "code": "ID"
      },
      "id": 69072,
      "name": "Polora Indah",
      "postcode": "93352",
      "lat": -3.3119446,
      "lng": 122.1802812
    },
    {
      "suburb": {
        "id": 5970,
        "name": "Lembo",
        "lat": -3.7701282,
        "lng": 122.3334258
      },
      "city": {
        "id": 393,
        "name": "Konawe Utara",
        "lat": -3.3803291,
        "lng": 122.0837445
      },
      "province": {
        "id": 30,
        "name": "Sulawesi Tenggara",
        "lat": -1.4300254,
        "lng": 121.4456179
      },
      "country": {
        "id": 228,
        "name": "INDONESIA",
        "code": "ID"
      },
      "id": 69073,
      "name": "Pasir Putih",
      "postcode": "93352",
      "lat": -3.749025,
      "lng": 122.3433443
    },
    {
      "suburb": {
        "id": 5970,
        "name": "Lembo",
        "lat": -3.7701282,
        "lng": 122.3334258
      },
      "city": {
        "id": 393,
        "name": "Konawe Utara",
        "lat": -3.3803291,
        "lng": 122.0837445
      },
      "province": {
        "id": 30,
        "name": "Sulawesi Tenggara",
        "lat": -1.4300254,
        "lng": 121.4456179
      },
      "country": {
        "id": 228,
        "name": "INDONESIA",
        "code": "ID"
      },
      "id": 69074,
      "name": "Padaleu",
      "postcode": "93352",
      "lat": -3.7777259,
      "lng": 122.307917
    },
    {
      "suburb": {
        "id": 5971,
        "name": "Langgikima",
        "lat": -3.322624,
        "lng": 122.2427
      },
      "city": {
        "id": 393,
        "name": "Konawe Utara",
        "lat": -3.3803291,
        "lng": 122.0837445
      },
      "province": {
        "id": 30,
        "name": "Sulawesi Tenggara",
        "lat": -1.4300254,
        "lng": 121.4456179
      },
      "country": {
        "id": 228,
        "name": "INDONESIA",
        "code": "ID"
      },
      "id": 69075,
      "name": "Pariama",
      "postcode": "93352",
      "lat": -3.307829,
      "lng": 122.2341905
    },
    {
      "suburb": {
        "id": 5967,
        "name": "Lasolo",
        "lat": -3.6711596,
        "lng": 122.1973081
      },
      "city": {
        "id": 393,
        "name": "Konawe Utara",
        "lat": -3.3803291,
        "lng": 122.0837445
      },
      "province": {
        "id": 30,
        "name": "Sulawesi Tenggara",
        "lat": -1.4300254,
        "lng": 121.4456179
      },
      "country": {
        "id": 228,
        "name": "INDONESIA",
        "code": "ID"
      },
      "id": 69076,
      "name": "Otole",
      "postcode": "93352",
      "lat": -3.6789398,
      "lng": 122.1121466
    },
    {
      "suburb": {
        "id": 5967,
        "name": "Lasolo",
        "lat": -3.6711596,
        "lng": 122.1973081
      },
      "city": {
        "id": 393,
        "name": "Konawe Utara",
        "lat": -3.3803291,
        "lng": 122.0837445
      },
      "province": {
        "id": 30,
        "name": "Sulawesi Tenggara",
        "lat": -1.4300254,
        "lng": 121.4456179
      },
      "country": {
        "id": 228,
        "name": "INDONESIA",
        "code": "ID"
      },
      "id": 69077,
      "name": "Muara Tinobu",
      "postcode": "93352",
      "lat": -3.640894,
      "lng": 122.213799
    },
    {
      "suburb": {
        "id": 5967,
        "name": "Lasolo",
        "lat": -3.6711596,
        "lng": 122.1973081
      },
      "city": {
        "id": 393,
        "name": "Konawe Utara",
        "lat": -3.3803291,
        "lng": 122.0837445
      },
      "province": {
        "id": 30,
        "name": "Sulawesi Tenggara",
        "lat": -1.4300254,
        "lng": 121.4456179
      },
      "country": {
        "id": 228,
        "name": "INDONESIA",
        "code": "ID"
      },
      "id": 69078,
      "name": "Otipulu",
      "postcode": "93352",
      "lat": -3.6711596,
      "lng": 122.1973081
    },
    {
      "suburb": {
        "id": 5968,
        "name": "Motui",
        "lat": -3.837986,
        "lng": 122.3787597
      },
      "city": {
        "id": 393,
        "name": "Konawe Utara",
        "lat": -3.3803291,
        "lng": 122.0837445
      },
      "province": {
        "id": 30,
        "name": "Sulawesi Tenggara",
        "lat": -1.4300254,
        "lng": 121.4456179
      },
      "country": {
        "id": 228,
        "name": "INDONESIA",
        "code": "ID"
      },
      "id": 69079,
      "name": "Motui",
      "postcode": "93352",
      "lat": -3.8064225,
      "lng": 122.4552162
    },
    {
      "suburb": {
        "id": 5972,
        "name": "Molawe",
        "lat": -3.5303114,
        "lng": 122.2427
      },
      "city": {
        "id": 393,
        "name": "Konawe Utara",
        "lat": -3.3803291,
        "lng": 122.0837445
      },
      "province": {
        "id": 30,
        "name": "Sulawesi Tenggara",
        "lat": -1.4300254,
        "lng": 121.4456179
      },
      "country": {
        "id": 228,
        "name": "INDONESIA",
        "code": "ID"
      },
      "id": 69080,
      "name": "Mowundo",
      "postcode": "93352",
      "lat": -3.5987781,
      "lng": 122.1575745
    },
    {
      "suburb": {
        "id": 5967,
        "name": "Lasolo",
        "lat": -3.6711596,
        "lng": 122.1973081
      },
      "city": {
        "id": 393,
        "name": "Konawe Utara",
        "lat": -3.3803291,
        "lng": 122.0837445
      },
      "province": {
        "id": 30,
        "name": "Sulawesi Tenggara",
        "lat": -1.4300254,
        "lng": 121.4456179
      },
      "country": {
        "id": 228,
        "name": "INDONESIA",
        "code": "ID"
      },
      "id": 69081,
      "name": "Morombo Pantai",
      "postcode": "93352",
      "lat": -3.6711596,
      "lng": 122.1973081
    },
    {
      "suburb": {
        "id": 5971,
        "name": "Langgikima",
        "lat": -3.322624,
        "lng": 122.2427
      },
      "city": {
        "id": 393,
        "name": "Konawe Utara",
        "lat": -3.3803291,
        "lng": 122.0837445
      },
      "province": {
        "id": 30,
        "name": "Sulawesi Tenggara",
        "lat": -1.4300254,
        "lng": 121.4456179
      },
      "country": {
        "id": 228,
        "name": "INDONESIA",
        "code": "ID"
      },
      "id": 69082,
      "name": "Morombo",
      "postcode": "93352",
      "lat": -3.348112,
      "lng": 122.254045
    },
    {
      "suburb": {
        "id": 5967,
        "name": "Lasolo",
        "lat": -3.6711596,
        "lng": 122.1973081
      },
      "city": {
        "id": 393,
        "name": "Konawe Utara",
        "lat": -3.3803291,
        "lng": 122.0837445
      },
      "province": {
        "id": 30,
        "name": "Sulawesi Tenggara",
        "lat": -1.4300254,
        "lng": 121.4456179
      },
      "country": {
        "id": 228,
        "name": "INDONESIA",
        "code": "ID"
      },
      "id": 69083,
      "name": "Matapila",
      "postcode": "93352",
      "lat": -3.7110515,
      "lng": 122.1802812
    },
    {
      "suburb": {
        "id": 5971,
        "name": "Langgikima",
        "lat": -3.322624,
        "lng": 122.2427
      },
      "city": {
        "id": 393,
        "name": "Konawe Utara",
        "lat": -3.3803291,
        "lng": 122.0837445
      },
      "province": {
        "id": 30,
        "name": "Sulawesi Tenggara",
        "lat": -1.4300254,
        "lng": 121.4456179
      },
      "country": {
        "id": 228,
        "name": "INDONESIA",
        "code": "ID"
      },
      "id": 69084,
      "name": "Molore",
      "postcode": "93352",
      "lat": -3.5926233,
      "lng": 123.0676469
    },
    {
      "suburb": {
        "id": 5972,
        "name": "Molawe",
        "lat": -3.5303114,
        "lng": 122.2427
      },
      "city": {
        "id": 393,
        "name": "Konawe Utara",
        "lat": -3.3803291,
        "lng": 122.0837445
      },
      "province": {
        "id": 30,
        "name": "Sulawesi Tenggara",
        "lat": -1.4300254,
        "lng": 121.4456179
      },
      "country": {
        "id": 228,
        "name": "INDONESIA",
        "code": "ID"
      },
      "id": 69085,
      "name": "Molawe",
      "postcode": "93352",
      "lat": -3.624622,
      "lng": 122.199097
    },
    {
      "suburb": {
        "id": 5968,
        "name": "Motui",
        "lat": -3.837986,
        "lng": 122.3787597
      },
      "city": {
        "id": 393,
        "name": "Konawe Utara",
        "lat": -3.3803291,
        "lng": 122.0837445
      },
      "province": {
        "id": 30,
        "name": "Sulawesi Tenggara",
        "lat": -1.4300254,
        "lng": 121.4456179
      },
      "country": {
        "id": 228,
        "name": "INDONESIA",
        "code": "ID"
      },
      "id": 69086,
      "name": "Matandahi",
      "postcode": "93352",
      "lat": -3.8222692,
      "lng": 122.4410618
    },
    {
      "suburb": {
        "id": 5969,
        "name": "Sawa",
        "lat": -3.7755386,
        "lng": 122.4127472
      },
      "city": {
        "id": 393,
        "name": "Konawe Utara",
        "lat": -3.3803291,
        "lng": 122.0837445
      },
      "province": {
        "id": 30,
        "name": "Sulawesi Tenggara",
        "lat": -1.4300254,
        "lng": 121.4456179
      },
      "country": {
        "id": 228,
        "name": "INDONESIA",
        "code": "ID"
      },
      "id": 69087,
      "name": "Matanggonawe",
      "postcode": "93352",
      "lat": -3.7791837,
      "lng": 122.4297369
    },
    {
      "suburb": {
        "id": 5972,
        "name": "Molawe",
        "lat": -3.5303114,
        "lng": 122.2427
      },
      "city": {
        "id": 393,
        "name": "Konawe Utara",
        "lat": -3.3803291,
        "lng": 122.0837445
      },
      "province": {
        "id": 30,
        "name": "Sulawesi Tenggara",
        "lat": -1.4300254,
        "lng": 121.4456179
      },
      "country": {
        "id": 228,
        "name": "INDONESIA",
        "code": "ID"
      },
      "id": 69088,
      "name": "Mandiopo (Mandiodo)",
      "postcode": "93352",
      "lat": -3.5804994,
      "lng": 122.1802812
    },
    {
      "suburb": {
        "id": 5972,
        "name": "Molawe",
        "lat": -3.5303114,
        "lng": 122.2427
      },
      "city": {
        "id": 393,
        "name": "Konawe Utara",
        "lat": -3.3803291,
        "lng": 122.0837445
      },
      "province": {
        "id": 30,
        "name": "Sulawesi Tenggara",
        "lat": -1.4300254,
        "lng": 121.4456179
      },
      "country": {
        "id": 228,
        "name": "INDONESIA",
        "code": "ID"
      },
      "id": 69089,
      "name": "Mataiwoi",
      "postcode": "93352",
      "lat": -3.6500555,
      "lng": 122.1263449
    },
    {
      "suburb": {
        "id": 5970,
        "name": "Lembo",
        "lat": -3.7701282,
        "lng": 122.3334258
      },
      "city": {
        "id": 393,
        "name": "Konawe Utara",
        "lat": -3.3803291,
        "lng": 122.0837445
      },
      "province": {
        "id": 30,
        "name": "Sulawesi Tenggara",
        "lat": -1.4300254,
        "lng": 121.4456179
      },
      "country": {
        "id": 228,
        "name": "INDONESIA",
        "code": "ID"
      },
      "id": 69090,
      "name": "Lembo",
      "postcode": "93352",
      "lat": -3.811028,
      "lng": 122.2937428
    },
    {
      "suburb": {
        "id": 5967,
        "name": "Lasolo",
        "lat": -3.6711596,
        "lng": 122.1973081
      },
      "city": {
        "id": 393,
        "name": "Konawe Utara",
        "lat": -3.3803291,
        "lng": 122.0837445
      },
      "province": {
        "id": 30,
        "name": "Sulawesi Tenggara",
        "lat": -1.4300254,
        "lng": 121.4456179
      },
      "country": {
        "id": 228,
        "name": "INDONESIA",
        "code": "ID"
      },
      "id": 69091,
      "name": "Lemobajo",
      "postcode": "93352",
      "lat": -3.7330236,
      "lng": 122.2824021
    },
    {
      "suburb": {
        "id": 5967,
        "name": "Lasolo",
        "lat": -3.6711596,
        "lng": 122.1973081
      },
      "city": {
        "id": 393,
        "name": "Konawe Utara",
        "lat": -3.3803291,
        "lng": 122.0837445
      },
      "province": {
        "id": 30,
        "name": "Sulawesi Tenggara",
        "lat": -1.4300254,
        "lng": 121.4456179
      },
      "country": {
        "id": 228,
        "name": "INDONESIA",
        "code": "ID"
      },
      "id": 69092,
      "name": "Larodangge",
      "postcode": "93352",
      "lat": -3.6492927,
      "lng": 122.2270987
    },
    {
      "suburb": {
        "id": 5970,
        "name": "Lembo",
        "lat": -3.7701282,
        "lng": 122.3334258
      },
      "city": {
        "id": 393,
        "name": "Konawe Utara",
        "lat": -3.3803291,
        "lng": 122.0837445
      },
      "province": {
        "id": 30,
        "name": "Sulawesi Tenggara",
        "lat": -1.4300254,
        "lng": 121.4456179
      },
      "country": {
        "id": 228,
        "name": "INDONESIA",
        "code": "ID"
      },
      "id": 69093,
      "name": "Laramo",
      "postcode": "93352",
      "lat": -3.7701282,
      "lng": 122.3334258
    },
    {
      "suburb": {
        "id": 5967,
        "name": "Lasolo",
        "lat": -3.6711596,
        "lng": 122.1973081
      },
      "city": {
        "id": 393,
        "name": "Konawe Utara",
        "lat": -3.3803291,
        "lng": 122.0837445
      },
      "province": {
        "id": 30,
        "name": "Sulawesi Tenggara",
        "lat": -1.4300254,
        "lng": 121.4456179
      },
      "country": {
        "id": 228,
        "name": "INDONESIA",
        "code": "ID"
      },
      "id": 69094,
      "name": "Lametono",
      "postcode": "93352",
      "lat": -3.6961447,
      "lng": 122.1717668
    },
    {
      "suburb": {
        "id": 5971,
        "name": "Langgikima",
        "lat": -3.322624,
        "lng": 122.2427
      },
      "city": {
        "id": 393,
        "name": "Konawe Utara",
        "lat": -3.3803291,
        "lng": 122.0837445
      },
      "province": {
        "id": 30,
        "name": "Sulawesi Tenggara",
        "lat": -1.4300254,
        "lng": 121.4456179
      },
      "country": {
        "id": 228,
        "name": "INDONESIA",
        "code": "ID"
      },
      "id": 69095,
      "name": "Langgikima (Langgi Kima)",
      "postcode": "93352",
      "lat": -3.2938568,
      "lng": 122.2029832
    },
    {
      "suburb": {
        "id": 5970,
        "name": "Lembo",
        "lat": -3.7701282,
        "lng": 122.3334258
      },
      "city": {
        "id": 393,
        "name": "Konawe Utara",
        "lat": -3.3803291,
        "lng": 122.0837445
      },
      "province": {
        "id": 30,
        "name": "Sulawesi Tenggara",
        "lat": -1.4300254,
        "lng": 121.4456179
      },
      "country": {
        "id": 228,
        "name": "INDONESIA",
        "code": "ID"
      },
      "id": 69096,
      "name": "Lapulu",
      "postcode": "93352",
      "lat": -3.7701282,
      "lng": 122.3334258
    },
    {
      "suburb": {
        "id": 5968,
        "name": "Motui",
        "lat": -3.837986,
        "lng": 122.3787597
      },
      "city": {
        "id": 393,
        "name": "Konawe Utara",
        "lat": -3.3803291,
        "lng": 122.0837445
      },
      "province": {
        "id": 30,
        "name": "Sulawesi Tenggara",
        "lat": -1.4300254,
        "lng": 121.4456179
      },
      "country": {
        "id": 228,
        "name": "INDONESIA",
        "code": "ID"
      },
      "id": 69097,
      "name": "Lambuluo",
      "postcode": "93352",
      "lat": -3.837986,
      "lng": 122.3787597
    },
    {
      "suburb": {
        "id": 5971,
        "name": "Langgikima",
        "lat": -3.322624,
        "lng": 122.2427
      },
      "city": {
        "id": 393,
        "name": "Konawe Utara",
        "lat": -3.3803291,
        "lng": 122.0837445
      },
      "province": {
        "id": 30,
        "name": "Sulawesi Tenggara",
        "lat": -1.4300254,
        "lng": 121.4456179
      },
      "country": {
        "id": 228,
        "name": "INDONESIA",
        "code": "ID"
      },
      "id": 69098,
      "name": "Lameruru",
      "postcode": "93352",
      "lat": -3.2823628,
      "lng": 122.2824021
    },
    {
      "suburb": {
        "id": 5967,
        "name": "Lasolo",
        "lat": -3.6711596,
        "lng": 122.1973081
      },
      "city": {
        "id": 393,
        "name": "Konawe Utara",
        "lat": -3.3803291,
        "lng": 122.0837445
      },
      "province": {
        "id": 30,
        "name": "Sulawesi Tenggara",
        "lat": -1.4300254,
        "lng": 121.4456179
      },
      "country": {
        "id": 228,
        "name": "INDONESIA",
        "code": "ID"
      },
      "id": 69099,
      "name": "Lalowaru",
      "postcode": "93352",
      "lat": -3.6711596,
      "lng": 122.1973081
    },
    {
      "suburb": {
        "id": 5969,
        "name": "Sawa",
        "lat": -3.7755386,
        "lng": 122.4127472
      },
      "city": {
        "id": 393,
        "name": "Konawe Utara",
        "lat": -3.3803291,
        "lng": 122.0837445
      },
      "province": {
        "id": 30,
        "name": "Sulawesi Tenggara",
        "lat": -1.4300254,
        "lng": 121.4456179
      },
      "country": {
        "id": 228,
        "name": "INDONESIA",
        "code": "ID"
      },
      "id": 69100,
      "name": "Laimeo",
      "postcode": "93352",
      "lat": -3.7510077,
      "lng": 122.4269055
    },
    {
      "suburb": {
        "id": 5969,
        "name": "Sawa",
        "lat": -3.7755386,
        "lng": 122.4127472
      },
      "city": {
        "id": 393,
        "name": "Konawe Utara",
        "lat": -3.3803291,
        "lng": 122.0837445
      },
      "province": {
        "id": 30,
        "name": "Sulawesi Tenggara",
        "lat": -1.4300254,
        "lng": 121.4456179
      },
      "country": {
        "id": 228,
        "name": "INDONESIA",
        "code": "ID"
      },
      "id": 69101,
      "name": "Lalembo",
      "postcode": "93352",
      "lat": -3.7755386,
      "lng": 122.4127472
    },
    {
      "suburb": {
        "id": 5967,
        "name": "Lasolo",
        "lat": -3.6711596,
        "lng": 122.1973081
      },
      "city": {
        "id": 393,
        "name": "Konawe Utara",
        "lat": -3.3803291,
        "lng": 122.0837445
      },
      "province": {
        "id": 30,
        "name": "Sulawesi Tenggara",
        "lat": -1.4300254,
        "lng": 121.4456179
      },
      "country": {
        "id": 228,
        "name": "INDONESIA",
        "code": "ID"
      },
      "id": 69102,
      "name": "Labengki",
      "postcode": "93352",
      "lat": -3.6711596,
      "lng": 122.1973081
    },
    {
      "suburb": {
        "id": 5969,
        "name": "Sawa",
        "lat": -3.7755386,
        "lng": 122.4127472
      },
      "city": {
        "id": 393,
        "name": "Konawe Utara",
        "lat": -3.3803291,
        "lng": 122.0837445
      },
      "province": {
        "id": 30,
        "name": "Sulawesi Tenggara",
        "lat": -1.4300254,
        "lng": 121.4456179
      },
      "country": {
        "id": 228,
        "name": "INDONESIA",
        "code": "ID"
      },
      "id": 69103,
      "name": "Kapolano",
      "postcode": "93352",
      "lat": -3.7755386,
      "lng": 122.4127472
    },
    {
      "suburb": {
        "id": 5969,
        "name": "Sawa",
        "lat": -3.7755386,
        "lng": 122.4127472
      },
      "city": {
        "id": 393,
        "name": "Konawe Utara",
        "lat": -3.3803291,
        "lng": 122.0837445
      },
      "province": {
        "id": 30,
        "name": "Sulawesi Tenggara",
        "lat": -1.4300254,
        "lng": 121.4456179
      },
      "country": {
        "id": 228,
        "name": "INDONESIA",
        "code": "ID"
      },
      "id": 69104,
      "name": "Kokapi",
      "postcode": "93352",
      "lat": -3.794545,
      "lng": 122.4269055
    },
    {
      "suburb": {
        "id": 5967,
        "name": "Lasolo",
        "lat": -3.6711596,
        "lng": 122.1973081
      },
      "city": {
        "id": 393,
        "name": "Konawe Utara",
        "lat": -3.3803291,
        "lng": 122.0837445
      },
      "province": {
        "id": 30,
        "name": "Sulawesi Tenggara",
        "lat": -1.4300254,
        "lng": 121.4456179
      },
      "country": {
        "id": 228,
        "name": "INDONESIA",
        "code": "ID"
      },
      "id": 69105,
      "name": "Kampobunga",
      "postcode": "93352",
      "lat": -3.724406,
      "lng": 122.3199636
    },
    {
      "suburb": {
        "id": 5968,
        "name": "Motui",
        "lat": -3.837986,
        "lng": 122.3787597
      },
      "city": {
        "id": 393,
        "name": "Konawe Utara",
        "lat": -3.3803291,
        "lng": 122.0837445
      },
      "province": {
        "id": 30,
        "name": "Sulawesi Tenggara",
        "lat": -1.4300254,
        "lng": 121.4456179
      },
      "country": {
        "id": 228,
        "name": "INDONESIA",
        "code": "ID"
      },
      "id": 69106,
      "name": "Bende",
      "postcode": "93352",
      "lat": -3.8175242,
      "lng": 122.3985871
    },
    {
      "suburb": {
        "id": 5970,
        "name": "Lembo",
        "lat": -3.7701282,
        "lng": 122.3334258
      },
      "city": {
        "id": 393,
        "name": "Konawe Utara",
        "lat": -3.3803291,
        "lng": 122.0837445
      },
      "province": {
        "id": 30,
        "name": "Sulawesi Tenggara",
        "lat": -1.4300254,
        "lng": 121.4456179
      },
      "country": {
        "id": 228,
        "name": "INDONESIA",
        "code": "ID"
      },
      "id": 69107,
      "name": "Bungguosu",
      "postcode": "93352",
      "lat": -3.8275297,
      "lng": 122.3164207
    },
    {
      "suburb": {
        "id": 5967,
        "name": "Lasolo",
        "lat": -3.6711596,
        "lng": 122.1973081
      },
      "city": {
        "id": 393,
        "name": "Konawe Utara",
        "lat": -3.3803291,
        "lng": 122.0837445
      },
      "province": {
        "id": 30,
        "name": "Sulawesi Tenggara",
        "lat": -1.4300254,
        "lng": 121.4456179
      },
      "country": {
        "id": 228,
        "name": "INDONESIA",
        "code": "ID"
      },
      "id": 69108,
      "name": "Boenaga",
      "postcode": "93352",
      "lat": -3.4430338,
      "lng": 122.373094
    },
    {
      "suburb": {
        "id": 5967,
        "name": "Lasolo",
        "lat": -3.6711596,
        "lng": 122.1973081
      },
      "city": {
        "id": 393,
        "name": "Konawe Utara",
        "lat": -3.3803291,
        "lng": 122.0837445
      },
      "province": {
        "id": 30,
        "name": "Sulawesi Tenggara",
        "lat": -1.4300254,
        "lng": 121.4456179
      },
      "country": {
        "id": 228,
        "name": "INDONESIA",
        "code": "ID"
      },
      "id": 69109,
      "name": "Barasanga",
      "postcode": "93352",
      "lat": -3.6711596,
      "lng": 122.1973081
    },
    {
      "suburb": {
        "id": 5967,
        "name": "Lasolo",
        "lat": -3.6711596,
        "lng": 122.1973081
      },
      "city": {
        "id": 393,
        "name": "Konawe Utara",
        "lat": -3.3803291,
        "lng": 122.0837445
      },
      "province": {
        "id": 30,
        "name": "Sulawesi Tenggara",
        "lat": -1.4300254,
        "lng": 121.4456179
      },
      "country": {
        "id": 228,
        "name": "INDONESIA",
        "code": "ID"
      },
      "id": 69110,
      "name": "Basule",
      "postcode": "93352",
      "lat": -3.6673862,
      "lng": 122.2504998
    },
    {
      "suburb": {
        "id": 5967,
        "name": "Lasolo",
        "lat": -3.6711596,
        "lng": 122.1973081
      },
      "city": {
        "id": 393,
        "name": "Konawe Utara",
        "lat": -3.3803291,
        "lng": 122.0837445
      },
      "province": {
        "id": 30,
        "name": "Sulawesi Tenggara",
        "lat": -1.4300254,
        "lng": 121.4456179
      },
      "country": {
        "id": 228,
        "name": "INDONESIA",
        "code": "ID"
      },
      "id": 69111,
      "name": "Belalo",
      "postcode": "93352",
      "lat": -3.6752873,
      "lng": 122.256881
    },
    {
      "suburb": {
        "id": 5968,
        "name": "Motui",
        "lat": -3.837986,
        "lng": 122.3787597
      },
      "city": {
        "id": 393,
        "name": "Konawe Utara",
        "lat": -3.3803291,
        "lng": 122.0837445
      },
      "province": {
        "id": 30,
        "name": "Sulawesi Tenggara",
        "lat": -1.4300254,
        "lng": 121.4456179
      },
      "country": {
        "id": 228,
        "name": "INDONESIA",
        "code": "ID"
      },
      "id": 69112,
      "name": "Banggina (Banggima)",
      "postcode": "93352",
      "lat": -3.8238494,
      "lng": 122.4552162
    },
    {
      "suburb": {
        "id": 5972,
        "name": "Molawe",
        "lat": -3.5303114,
        "lng": 122.2427
      },
      "city": {
        "id": 393,
        "name": "Konawe Utara",
        "lat": -3.3803291,
        "lng": 122.0837445
      },
      "province": {
        "id": 30,
        "name": "Sulawesi Tenggara",
        "lat": -1.4300254,
        "lng": 121.4456179
      },
      "country": {
        "id": 228,
        "name": "INDONESIA",
        "code": "ID"
      },
      "id": 69113,
      "name": "Bandaeha",
      "postcode": "93352",
      "lat": -3.6440896,
      "lng": 122.1121466
    },
    {
      "suburb": {
        "id": 5972,
        "name": "Molawe",
        "lat": -3.5303114,
        "lng": 122.2427
      },
      "city": {
        "id": 393,
        "name": "Konawe Utara",
        "lat": -3.3803291,
        "lng": 122.0837445
      },
      "province": {
        "id": 30,
        "name": "Sulawesi Tenggara",
        "lat": -1.4300254,
        "lng": 121.4456179
      },
      "country": {
        "id": 228,
        "name": "INDONESIA",
        "code": "ID"
      },
      "id": 69114,
      "name": "Awila Puncak",
      "postcode": "93352",
      "lat": -3.6097616,
      "lng": 122.1547358
    },
    {
      "suburb": {
        "id": 5972,
        "name": "Molawe",
        "lat": -3.5303114,
        "lng": 122.2427
      },
      "city": {
        "id": 393,
        "name": "Konawe Utara",
        "lat": -3.3803291,
        "lng": 122.0837445
      },
      "province": {
        "id": 30,
        "name": "Sulawesi Tenggara",
        "lat": -1.4300254,
        "lng": 121.4456179
      },
      "country": {
        "id": 228,
        "name": "INDONESIA",
        "code": "ID"
      },
      "id": 69115,
      "name": "Awila",
      "postcode": "93352",
      "lat": -3.6073848,
      "lng": 122.1873761
    },
    {
      "suburb": {
        "id": 5967,
        "name": "Lasolo",
        "lat": -3.6711596,
        "lng": 122.1973081
      },
      "city": {
        "id": 393,
        "name": "Konawe Utara",
        "lat": -3.3803291,
        "lng": 122.0837445
      },
      "province": {
        "id": 30,
        "name": "Sulawesi Tenggara",
        "lat": -1.4300254,
        "lng": 121.4456179
      },
      "country": {
        "id": 228,
        "name": "INDONESIA",
        "code": "ID"
      },
      "id": 69116,
      "name": "Andeo",
      "postcode": "93352",
      "lat": -3.6890327,
      "lng": 122.2398636
    },
    {
      "suburb": {
        "id": 5967,
        "name": "Lasolo",
        "lat": -3.6711596,
        "lng": 122.1973081
      },
      "city": {
        "id": 393,
        "name": "Konawe Utara",
        "lat": -3.3803291,
        "lng": 122.0837445
      },
      "province": {
        "id": 30,
        "name": "Sulawesi Tenggara",
        "lat": -1.4300254,
        "lng": 121.4456179
      },
      "country": {
        "id": 228,
        "name": "INDONESIA",
        "code": "ID"
      },
      "id": 69117,
      "name": "Andumowu",
      "postcode": "93352",
      "lat": -3.6878895,
      "lng": 122.1604131
    },
    {
      "suburb": {
        "id": 5970,
        "name": "Lembo",
        "lat": -3.7701282,
        "lng": 122.3334258
      },
      "city": {
        "id": 393,
        "name": "Konawe Utara",
        "lat": -3.3803291,
        "lng": 122.0837445
      },
      "province": {
        "id": 30,
        "name": "Sulawesi Tenggara",
        "lat": -1.4300254,
        "lng": 121.4456179
      },
      "country": {
        "id": 228,
        "name": "INDONESIA",
        "code": "ID"
      },
      "id": 69118,
      "name": "Alo-Alo",
      "postcode": "93352",
      "lat": -3.7520453,
      "lng": 122.2965778
    },
    {
      "suburb": {
        "id": 5971,
        "name": "Langgikima",
        "lat": -3.322624,
        "lng": 122.2427
      },
      "city": {
        "id": 393,
        "name": "Konawe Utara",
        "lat": -3.3803291,
        "lng": 122.0837445
      },
      "province": {
        "id": 30,
        "name": "Sulawesi Tenggara",
        "lat": -1.4300254,
        "lng": 121.4456179
      },
      "country": {
        "id": 228,
        "name": "INDONESIA",
        "code": "ID"
      },
      "id": 69119,
      "name": "Alenggo",
      "postcode": "93352",
      "lat": -3.322624,
      "lng": 122.2427
    },
    {
      "suburb": {
        "id": 5967,
        "name": "Lasolo",
        "lat": -3.6711596,
        "lng": 122.1973081
      },
      "city": {
        "id": 393,
        "name": "Konawe Utara",
        "lat": -3.3803291,
        "lng": 122.0837445
      },
      "province": {
        "id": 30,
        "name": "Sulawesi Tenggara",
        "lat": -1.4300254,
        "lng": 121.4456179
      },
      "country": {
        "id": 228,
        "name": "INDONESIA",
        "code": "ID"
      },
      "id": 69120,
      "name": "Abola",
      "postcode": "93352",
      "lat": -3.7275609,
      "lng": 122.2029832
    },
    {
      "suburb": {
        "id": 5973,
        "name": "Lalonggasumeeto",
        "lat": -3.9102047,
        "lng": 122.5259596
      },
      "city": {
        "id": 389,
        "name": "Konawe",
        "lat": -3.9380432,
        "lng": 122.0837445
      },
      "province": {
        "id": 30,
        "name": "Sulawesi Tenggara",
        "lat": -1.4300254,
        "lng": 121.4456179
      },
      "country": {
        "id": 228,
        "name": "INDONESIA",
        "code": "ID"
      },
      "id": 69121,
      "name": "Wawobungi",
      "postcode": "93351",
      "lat": -3.9195133,
      "lng": 122.5627272
    },
    {
      "suburb": {
        "id": 5974,
        "name": "Soropia",
        "lat": -3.9237125,
        "lng": 122.6164409
      },
      "city": {
        "id": 389,
        "name": "Konawe",
        "lat": -3.9380432,
        "lng": 122.0837445
      },
      "province": {
        "id": 30,
        "name": "Sulawesi Tenggara",
        "lat": -1.4300254,
        "lng": 121.4456179
      },
      "country": {
        "id": 228,
        "name": "INDONESIA",
        "code": "ID"
      },
      "id": 69122,
      "name": "Waworaha",
      "postcode": "93351",
      "lat": -3.9190207,
      "lng": 122.5740376
    },
    {
      "suburb": {
        "id": 5973,
        "name": "Lalonggasumeeto",
        "lat": -3.9102047,
        "lng": 122.5259596
      },
      "city": {
        "id": 389,
        "name": "Konawe",
        "lat": -3.9380432,
        "lng": 122.0837445
      },
      "province": {
        "id": 30,
        "name": "Sulawesi Tenggara",
        "lat": -1.4300254,
        "lng": 121.4456179
      },
      "country": {
        "id": 228,
        "name": "INDONESIA",
        "code": "ID"
      },
      "id": 69123,
      "name": "Watunggarandu",
      "postcode": "93351",
      "lat": -3.8921623,
      "lng": 122.4891791
    },
    {
      "suburb": {
        "id": 5974,
        "name": "Soropia",
        "lat": -3.9237125,
        "lng": 122.6164409
      },
      "city": {
        "id": 389,
        "name": "Konawe",
        "lat": -3.9380432,
        "lng": 122.0837445
      },
      "province": {
        "id": 30,
        "name": "Sulawesi Tenggara",
        "lat": -1.4300254,
        "lng": 121.4456179
      },
      "country": {
        "id": 228,
        "name": "INDONESIA",
        "code": "ID"
      },
      "id": 69124,
      "name": "Toronipa",
      "postcode": "93351",
      "lat": -3.8976495,
      "lng": 122.6644769
    },
    {
      "suburb": {
        "id": 5973,
        "name": "Lalonggasumeeto",
        "lat": -3.9102047,
        "lng": 122.5259596
      },
      "city": {
        "id": 389,
        "name": "Konawe",
        "lat": -3.9380432,
        "lng": 122.0837445
      },
      "province": {
        "id": 30,
        "name": "Sulawesi Tenggara",
        "lat": -1.4300254,
        "lng": 121.4456179
      },
      "country": {
        "id": 228,
        "name": "INDONESIA",
        "code": "ID"
      },
      "id": 69125,
      "name": "Toli Toli",
      "postcode": "93351",
      "lat": -3.924369,
      "lng": 122.5514155
    },
    {
      "suburb": {
        "id": 5973,
        "name": "Lalonggasumeeto",
        "lat": -3.9102047,
        "lng": 122.5259596
      },
      "city": {
        "id": 389,
        "name": "Konawe",
        "lat": -3.9380432,
        "lng": 122.0837445
      },
      "province": {
        "id": 30,
        "name": "Sulawesi Tenggara",
        "lat": -1.4300254,
        "lng": 121.4456179
      },
      "country": {
        "id": 228,
        "name": "INDONESIA",
        "code": "ID"
      },
      "id": 69126,
      "name": "Toolawawo",
      "postcode": "93351",
      "lat": -3.8927037,
      "lng": 122.5019123
    },
    {
      "suburb": {
        "id": 5974,
        "name": "Soropia",
        "lat": -3.9237125,
        "lng": 122.6164409
      },
      "city": {
        "id": 389,
        "name": "Konawe",
        "lat": -3.9380432,
        "lng": 122.0837445
      },
      "province": {
        "id": 30,
        "name": "Sulawesi Tenggara",
        "lat": -1.4300254,
        "lng": 121.4456179
      },
      "country": {
        "id": 228,
        "name": "INDONESIA",
        "code": "ID"
      },
      "id": 69127,
      "name": "Telaga Biru",
      "postcode": "93351",
      "lat": -3.9068542,
      "lng": 122.6531763
    },
    {
      "suburb": {
        "id": 5974,
        "name": "Soropia",
        "lat": -3.9237125,
        "lng": 122.6164409
      },
      "city": {
        "id": 389,
        "name": "Konawe",
        "lat": -3.9380432,
        "lng": 122.0837445
      },
      "province": {
        "id": 30,
        "name": "Sulawesi Tenggara",
        "lat": -1.4300254,
        "lng": 121.4456179
      },
      "country": {
        "id": 228,
        "name": "INDONESIA",
        "code": "ID"
      },
      "id": 69128,
      "name": "Sorue Jaya",
      "postcode": "93351",
      "lat": -3.9342435,
      "lng": 122.6249195
    },
    {
      "suburb": {
        "id": 5974,
        "name": "Soropia",
        "lat": -3.9237125,
        "lng": 122.6164409
      },
      "city": {
        "id": 389,
        "name": "Konawe",
        "lat": -3.9380432,
        "lng": 122.0837445
      },
      "province": {
        "id": 30,
        "name": "Sulawesi Tenggara",
        "lat": -1.4300254,
        "lng": 121.4456179
      },
      "country": {
        "id": 228,
        "name": "INDONESIA",
        "code": "ID"
      },
      "id": 69129,
      "name": "Tapulaga",
      "postcode": "93351",
      "lat": -3.9293878,
      "lng": 122.6362231
    },
    {
      "suburb": {
        "id": 5974,
        "name": "Soropia",
        "lat": -3.9237125,
        "lng": 122.6164409
      },
      "city": {
        "id": 389,
        "name": "Konawe",
        "lat": -3.9380432,
        "lng": 122.0837445
      },
      "province": {
        "id": 30,
        "name": "Sulawesi Tenggara",
        "lat": -1.4300254,
        "lng": 121.4456179
      },
      "country": {
        "id": 228,
        "name": "INDONESIA",
        "code": "ID"
      },
      "id": 69130,
      "name": "Saponda Laut",
      "postcode": "93351",
      "lat": -3.8997912,
      "lng": 122.715314
    },
    {
      "suburb": {
        "id": 5974,
        "name": "Soropia",
        "lat": -3.9237125,
        "lng": 122.6164409
      },
      "city": {
        "id": 389,
        "name": "Konawe",
        "lat": -3.9380432,
        "lng": 122.0837445
      },
      "province": {
        "id": 30,
        "name": "Sulawesi Tenggara",
        "lat": -1.4300254,
        "lng": 121.4456179
      },
      "country": {
        "id": 228,
        "name": "INDONESIA",
        "code": "ID"
      },
      "id": 69131,
      "name": "Sawapudo",
      "postcode": "93351",
      "lat": -3.919599,
      "lng": 122.6107881
    },
    {
      "suburb": {
        "id": 5974,
        "name": "Soropia",
        "lat": -3.9237125,
        "lng": 122.6164409
      },
      "city": {
        "id": 389,
        "name": "Konawe",
        "lat": -3.9380432,
        "lng": 122.0837445
      },
      "province": {
        "id": 30,
        "name": "Sulawesi Tenggara",
        "lat": -1.4300254,
        "lng": 121.4456179
      },
      "country": {
        "id": 228,
        "name": "INDONESIA",
        "code": "ID"
      },
      "id": 69132,
      "name": "Soropia",
      "postcode": "93351",
      "lat": -3.9205854,
      "lng": 122.588174
    },
    {
      "suburb": {
        "id": 5973,
        "name": "Lalonggasumeeto",
        "lat": -3.9102047,
        "lng": 122.5259596
      },
      "city": {
        "id": 389,
        "name": "Konawe",
        "lat": -3.9380432,
        "lng": 122.0837445
      },
      "province": {
        "id": 30,
        "name": "Sulawesi Tenggara",
        "lat": -1.4300254,
        "lng": 121.4456179
      },
      "country": {
        "id": 228,
        "name": "INDONESIA",
        "code": "ID"
      },
      "id": 69133,
      "name": "Rapambinopaka",
      "postcode": "93351",
      "lat": -3.9081459,
      "lng": 122.5231308
    },
    {
      "suburb": {
        "id": 5974,
        "name": "Soropia",
        "lat": -3.9237125,
        "lng": 122.6164409
      },
      "city": {
        "id": 389,
        "name": "Konawe",
        "lat": -3.9380432,
        "lng": 122.0837445
      },
      "province": {
        "id": 30,
        "name": "Sulawesi Tenggara",
        "lat": -1.4300254,
        "lng": 121.4456179
      },
      "country": {
        "id": 228,
        "name": "INDONESIA",
        "code": "ID"
      },
      "id": 69134,
      "name": "Saponda",
      "postcode": "93351",
      "lat": -3.8959294,
      "lng": 122.704019
    },
    {
      "suburb": {
        "id": 5973,
        "name": "Lalonggasumeeto",
        "lat": -3.9102047,
        "lng": 122.5259596
      },
      "city": {
        "id": 389,
        "name": "Konawe",
        "lat": -3.9380432,
        "lng": 122.0837445
      },
      "province": {
        "id": 30,
        "name": "Sulawesi Tenggara",
        "lat": -1.4300254,
        "lng": 121.4456179
      },
      "country": {
        "id": 228,
        "name": "INDONESIA",
        "code": "ID"
      },
      "id": 69135,
      "name": "Puuwonua",
      "postcode": "93351",
      "lat": -3.8938815,
      "lng": 122.5125221
    },
    {
      "suburb": {
        "id": 5973,
        "name": "Lalonggasumeeto",
        "lat": -3.9102047,
        "lng": 122.5259596
      },
      "city": {
        "id": 389,
        "name": "Konawe",
        "lat": -3.9380432,
        "lng": 122.0837445
      },
      "province": {
        "id": 30,
        "name": "Sulawesi Tenggara",
        "lat": -1.4300254,
        "lng": 121.4456179
      },
      "country": {
        "id": 228,
        "name": "INDONESIA",
        "code": "ID"
      },
      "id": 69136,
      "name": "Nii Tanasa",
      "postcode": "93351",
      "lat": -3.9230496,
      "lng": 122.531617
    },
    {
      "suburb": {
        "id": 5974,
        "name": "Soropia",
        "lat": -3.9237125,
        "lng": 122.6164409
      },
      "city": {
        "id": 389,
        "name": "Konawe",
        "lat": -3.9380432,
        "lng": 122.0837445
      },
      "province": {
        "id": 30,
        "name": "Sulawesi Tenggara",
        "lat": -1.4300254,
        "lng": 121.4456179
      },
      "country": {
        "id": 228,
        "name": "INDONESIA",
        "code": "ID"
      },
      "id": 69137,
      "name": "Mekar",
      "postcode": "93351",
      "lat": -3.9232584,
      "lng": 122.6517636
    },
    {
      "suburb": {
        "id": 5973,
        "name": "Lalonggasumeeto",
        "lat": -3.9102047,
        "lng": 122.5259596
      },
      "city": {
        "id": 389,
        "name": "Konawe",
        "lat": -3.9380432,
        "lng": 122.0837445
      },
      "province": {
        "id": 30,
        "name": "Sulawesi Tenggara",
        "lat": -1.4300254,
        "lng": 121.4456179
      },
      "country": {
        "id": 228,
        "name": "INDONESIA",
        "code": "ID"
      },
      "id": 69138,
      "name": "Lolanggasumeeto",
      "postcode": "93351",
      "lat": -3.8975811,
      "lng": 122.5026196
    },
    {
      "suburb": {
        "id": 5974,
        "name": "Soropia",
        "lat": -3.9237125,
        "lng": 122.6164409
      },
      "city": {
        "id": 389,
        "name": "Konawe",
        "lat": -3.9380432,
        "lng": 122.0837445
      },
      "province": {
        "id": 30,
        "name": "Sulawesi Tenggara",
        "lat": -1.4300254,
        "lng": 121.4456179
      },
      "country": {
        "id": 228,
        "name": "INDONESIA",
        "code": "ID"
      },
      "id": 69139,
      "name": "Leppe",
      "postcode": "93351",
      "lat": -3.926004,
      "lng": 122.6450533
    },
    {
      "suburb": {
        "id": 5973,
        "name": "Lalonggasumeeto",
        "lat": -3.9102047,
        "lng": 122.5259596
      },
      "city": {
        "id": 389,
        "name": "Konawe",
        "lat": -3.9380432,
        "lng": 122.0837445
      },
      "province": {
        "id": 30,
        "name": "Sulawesi Tenggara",
        "lat": -1.4300254,
        "lng": 121.4456179
      },
      "country": {
        "id": 228,
        "name": "INDONESIA",
        "code": "ID"
      },
      "id": 69140,
      "name": "Lalombonda",
      "postcode": "93351",
      "lat": -3.9010622,
      "lng": 122.5104002
    },
    {
      "suburb": {
        "id": 5973,
        "name": "Lalonggasumeeto",
        "lat": -3.9102047,
        "lng": 122.5259596
      },
      "city": {
        "id": 389,
        "name": "Konawe",
        "lat": -3.9380432,
        "lng": 122.0837445
      },
      "province": {
        "id": 30,
        "name": "Sulawesi Tenggara",
        "lat": -1.4300254,
        "lng": 121.4456179
      },
      "country": {
        "id": 228,
        "name": "INDONESIA",
        "code": "ID"
      },
      "id": 69141,
      "name": "Bumi Indah",
      "postcode": "93351",
      "lat": -3.9059153,
      "lng": 122.4990828
    },
    {
      "suburb": {
        "id": 5974,
        "name": "Soropia",
        "lat": -3.9237125,
        "lng": 122.6164409
      },
      "city": {
        "id": 389,
        "name": "Konawe",
        "lat": -3.9380432,
        "lng": 122.0837445
      },
      "province": {
        "id": 30,
        "name": "Sulawesi Tenggara",
        "lat": -1.4300254,
        "lng": 121.4456179
      },
      "country": {
        "id": 228,
        "name": "INDONESIA",
        "code": "ID"
      },
      "id": 69142,
      "name": "Bajoe",
      "postcode": "93351",
      "lat": -3.9246766,
      "lng": 122.6567079
    },
    {
      "suburb": {
        "id": 5974,
        "name": "Soropia",
        "lat": -3.9237125,
        "lng": 122.6164409
      },
      "city": {
        "id": 389,
        "name": "Konawe",
        "lat": -3.9380432,
        "lng": 122.0837445
      },
      "province": {
        "id": 30,
        "name": "Sulawesi Tenggara",
        "lat": -1.4300254,
        "lng": 121.4456179
      },
      "country": {
        "id": 228,
        "name": "INDONESIA",
        "code": "ID"
      },
      "id": 69143,
      "name": "Bokori",
      "postcode": "93351",
      "lat": -3.9152396,
      "lng": 122.685662
    },
    {
      "suburb": {
        "id": 5974,
        "name": "Soropia",
        "lat": -3.9237125,
        "lng": 122.6164409
      },
      "city": {
        "id": 389,
        "name": "Konawe",
        "lat": -3.9380432,
        "lng": 122.0837445
      },
      "province": {
        "id": 30,
        "name": "Sulawesi Tenggara",
        "lat": -1.4300254,
        "lng": 121.4456179
      },
      "country": {
        "id": 228,
        "name": "INDONESIA",
        "code": "ID"
      },
      "id": 69144,
      "name": "Atowatu",
      "postcode": "93351",
      "lat": -3.9011789,
      "lng": 122.6333973
    },
    {
      "suburb": {
        "id": 5974,
        "name": "Soropia",
        "lat": -3.9237125,
        "lng": 122.6164409
      },
      "city": {
        "id": 389,
        "name": "Konawe",
        "lat": -3.9380432,
        "lng": 122.0837445
      },
      "province": {
        "id": 30,
        "name": "Sulawesi Tenggara",
        "lat": -1.4300254,
        "lng": 121.4456179
      },
      "country": {
        "id": 228,
        "name": "INDONESIA",
        "code": "ID"
      },
      "id": 69145,
      "name": "Bajo Indah",
      "postcode": "93351",
      "lat": -3.921326,
      "lng": 122.6461128
    },
    {
      "suburb": {
        "id": 5975,
        "name": "Abeli",
        "lat": -4.0120169,
        "lng": 122.593828
      },
      "city": {
        "id": 394,
        "name": "Kendari",
        "lat": -4.0397687,
        "lng": 122.5598994
      },
      "province": {
        "id": 30,
        "name": "Sulawesi Tenggara",
        "lat": -1.4300254,
        "lng": 121.4456179
      },
      "country": {
        "id": 228,
        "name": "INDONESIA",
        "code": "ID"
      },
      "id": 69146,
      "name": "Tondonggeu",
      "postcode": "93238",
      "lat": -4.00794,
      "lng": 122.6362231
    },
    {
      "suburb": {
        "id": 5975,
        "name": "Abeli",
        "lat": -4.0120169,
        "lng": 122.593828
      },
      "city": {
        "id": 394,
        "name": "Kendari",
        "lat": -4.0397687,
        "lng": 122.5598994
      },
      "province": {
        "id": 30,
        "name": "Sulawesi Tenggara",
        "lat": -1.4300254,
        "lng": 121.4456179
      },
      "country": {
        "id": 228,
        "name": "INDONESIA",
        "code": "ID"
      },
      "id": 69147,
      "name": "Tobimeita",
      "postcode": "93237",
      "lat": -4.0271885,
      "lng": 122.5966549
    },
    {
      "suburb": {
        "id": 5975,
        "name": "Abeli",
        "lat": -4.0120169,
        "lng": 122.593828
      },
      "city": {
        "id": 394,
        "name": "Kendari",
        "lat": -4.0397687,
        "lng": 122.5598994
      },
      "province": {
        "id": 30,
        "name": "Sulawesi Tenggara",
        "lat": -1.4300254,
        "lng": 121.4456179
      },
      "country": {
        "id": 228,
        "name": "INDONESIA",
        "code": "ID"
      },
      "id": 69148,
      "name": "Sambuli",
      "postcode": "93238",
      "lat": -4.0128133,
      "lng": 122.6249195
    },
    {
      "suburb": {
        "id": 5975,
        "name": "Abeli",
        "lat": -4.0120169,
        "lng": 122.593828
      },
      "city": {
        "id": 394,
        "name": "Kendari",
        "lat": -4.0397687,
        "lng": 122.5598994
      },
      "province": {
        "id": 30,
        "name": "Sulawesi Tenggara",
        "lat": -1.4300254,
        "lng": 121.4456179
      },
      "country": {
        "id": 228,
        "name": "INDONESIA",
        "code": "ID"
      },
      "id": 69149,
      "name": "Nambo",
      "postcode": "93236",
      "lat": -4.0057356,
      "lng": 122.6122014
    },
    {
      "suburb": {
        "id": 5975,
        "name": "Abeli",
        "lat": -4.0120169,
        "lng": 122.593828
      },
      "city": {
        "id": 394,
        "name": "Kendari",
        "lat": -4.0397687,
        "lng": 122.5598994
      },
      "province": {
        "id": 30,
        "name": "Sulawesi Tenggara",
        "lat": -1.4300254,
        "lng": 121.4456179
      },
      "country": {
        "id": 228,
        "name": "INDONESIA",
        "code": "ID"
      },
      "id": 69150,
      "name": "Petoaha",
      "postcode": "93236",
      "lat": -4.0094536,
      "lng": 122.6023084
    },
    {
      "suburb": {
        "id": 5975,
        "name": "Abeli",
        "lat": -4.0120169,
        "lng": 122.593828
      },
      "city": {
        "id": 394,
        "name": "Kendari",
        "lat": -4.0397687,
        "lng": 122.5598994
      },
      "province": {
        "id": 30,
        "name": "Sulawesi Tenggara",
        "lat": -1.4300254,
        "lng": 121.4456179
      },
      "country": {
        "id": 228,
        "name": "INDONESIA",
        "code": "ID"
      },
      "id": 69151,
      "name": "Puday (Pudai)",
      "postcode": "93234",
      "lat": -3.9878358,
      "lng": 122.5726239
    },
    {
      "suburb": {
        "id": 5975,
        "name": "Abeli",
        "lat": -4.0120169,
        "lng": 122.593828
      },
      "city": {
        "id": 394,
        "name": "Kendari",
        "lat": -4.0397687,
        "lng": 122.5598994
      },
      "province": {
        "id": 30,
        "name": "Sulawesi Tenggara",
        "lat": -1.4300254,
        "lng": 121.4456179
      },
      "country": {
        "id": 228,
        "name": "INDONESIA",
        "code": "ID"
      },
      "id": 69152,
      "name": "Poasia",
      "postcode": "93235",
      "lat": -3.9848998,
      "lng": 122.5895875
    },
    {
      "suburb": {
        "id": 5975,
        "name": "Abeli",
        "lat": -4.0120169,
        "lng": 122.593828
      },
      "city": {
        "id": 394,
        "name": "Kendari",
        "lat": -4.0397687,
        "lng": 122.5598994
      },
      "province": {
        "id": 30,
        "name": "Sulawesi Tenggara",
        "lat": -1.4300254,
        "lng": 121.4456179
      },
      "country": {
        "id": 228,
        "name": "INDONESIA",
        "code": "ID"
      },
      "id": 69153,
      "name": "Talia",
      "postcode": "93235",
      "lat": -3.986833,
      "lng": 122.5952415
    },
    {
      "suburb": {
        "id": 5975,
        "name": "Abeli",
        "lat": -4.0120169,
        "lng": 122.593828
      },
      "city": {
        "id": 394,
        "name": "Kendari",
        "lat": -4.0397687,
        "lng": 122.5598994
      },
      "province": {
        "id": 30,
        "name": "Sulawesi Tenggara",
        "lat": -1.4300254,
        "lng": 121.4456179
      },
      "country": {
        "id": 228,
        "name": "INDONESIA",
        "code": "ID"
      },
      "id": 69154,
      "name": "Bungkutoko",
      "postcode": "93234",
      "lat": -3.9818394,
      "lng": 122.6093749
    },
    {
      "suburb": {
        "id": 5975,
        "name": "Abeli",
        "lat": -4.0120169,
        "lng": 122.593828
      },
      "city": {
        "id": 394,
        "name": "Kendari",
        "lat": -4.0397687,
        "lng": 122.5598994
      },
      "province": {
        "id": 30,
        "name": "Sulawesi Tenggara",
        "lat": -1.4300254,
        "lng": 121.4456179
      },
      "country": {
        "id": 228,
        "name": "INDONESIA",
        "code": "ID"
      },
      "id": 69155,
      "name": "Lapulu",
      "postcode": "93234",
      "lat": -3.9830917,
      "lng": 122.5811061
    },
    {
      "suburb": {
        "id": 5975,
        "name": "Abeli",
        "lat": -4.0120169,
        "lng": 122.593828
      },
      "city": {
        "id": 394,
        "name": "Kendari",
        "lat": -4.0397687,
        "lng": 122.5598994
      },
      "province": {
        "id": 30,
        "name": "Sulawesi Tenggara",
        "lat": -1.4300254,
        "lng": 121.4456179
      },
      "country": {
        "id": 228,
        "name": "INDONESIA",
        "code": "ID"
      },
      "id": 69156,
      "name": "Benua Nirae",
      "postcode": "93234",
      "lat": -4.040559,
      "lng": 122.591001
    },
    {
      "suburb": {
        "id": 5975,
        "name": "Abeli",
        "lat": -4.0120169,
        "lng": 122.593828
      },
      "city": {
        "id": 394,
        "name": "Kendari",
        "lat": -4.0397687,
        "lng": 122.5598994
      },
      "province": {
        "id": 30,
        "name": "Sulawesi Tenggara",
        "lat": -1.4300254,
        "lng": 121.4456179
      },
      "country": {
        "id": 228,
        "name": "INDONESIA",
        "code": "ID"
      },
      "id": 69157,
      "name": "Abeli",
      "postcode": "93234",
      "lat": -3.9973523,
      "lng": 122.5796924
    },
    {
      "suburb": {
        "id": 5975,
        "name": "Abeli",
        "lat": -4.0120169,
        "lng": 122.593828
      },
      "city": {
        "id": 394,
        "name": "Kendari",
        "lat": -4.0397687,
        "lng": 122.5598994
      },
      "province": {
        "id": 30,
        "name": "Sulawesi Tenggara",
        "lat": -1.4300254,
        "lng": 121.4456179
      },
      "country": {
        "id": 228,
        "name": "INDONESIA",
        "code": "ID"
      },
      "id": 69158,
      "name": "Anggalomelai (Anggolomelai)",
      "postcode": "93234",
      "lat": -3.9980048,
      "lng": 122.5895875
    },
    {
      "suburb": {
        "id": 5976,
        "name": "Poasia",
        "lat": -4.0351411,
        "lng": 122.5655549
      },
      "city": {
        "id": 394,
        "name": "Kendari",
        "lat": -4.0397687,
        "lng": 122.5598994
      },
      "province": {
        "id": 30,
        "name": "Sulawesi Tenggara",
        "lat": -1.4300254,
        "lng": 121.4456179
      },
      "country": {
        "id": 228,
        "name": "INDONESIA",
        "code": "ID"
      },
      "id": 69159,
      "name": "Rahandouna",
      "postcode": "93232",
      "lat": -4.0073507,
      "lng": 122.5514155
    },
    {
      "suburb": {
        "id": 5976,
        "name": "Poasia",
        "lat": -4.0351411,
        "lng": 122.5655549
      },
      "city": {
        "id": 394,
        "name": "Kendari",
        "lat": -4.0397687,
        "lng": 122.5598994
      },
      "province": {
        "id": 30,
        "name": "Sulawesi Tenggara",
        "lat": -1.4300254,
        "lng": 121.4456179
      },
      "country": {
        "id": 228,
        "name": "INDONESIA",
        "code": "ID"
      },
      "id": 69160,
      "name": "Matabubu",
      "postcode": "93233",
      "lat": -3.9978548,
      "lng": 122.5683826
    },
    {
      "suburb": {
        "id": 5977,
        "name": "Kambu",
        "lat": -4.0279121,
        "lng": 122.531617
      },
      "city": {
        "id": 394,
        "name": "Kendari",
        "lat": -4.0397687,
        "lng": 122.5598994
      },
      "province": {
        "id": 30,
        "name": "Sulawesi Tenggara",
        "lat": -1.4300254,
        "lng": 121.4456179
      },
      "country": {
        "id": 228,
        "name": "INDONESIA",
        "code": "ID"
      },
      "id": 69161,
      "name": "Lalolara",
      "postcode": "93231",
      "lat": -3.9945872,
      "lng": 122.5188874
    },
    {
      "suburb": {
        "id": 5977,
        "name": "Kambu",
        "lat": -4.0279121,
        "lng": 122.531617
      },
      "city": {
        "id": 394,
        "name": "Kendari",
        "lat": -4.0397687,
        "lng": 122.5598994
      },
      "province": {
        "id": 30,
        "name": "Sulawesi Tenggara",
        "lat": -1.4300254,
        "lng": 121.4456179
      },
      "country": {
        "id": 228,
        "name": "INDONESIA",
        "code": "ID"
      },
      "id": 69162,
      "name": "Mokoau",
      "postcode": "93231",
      "lat": -4.0449054,
      "lng": 122.5429309
    },
    {
      "suburb": {
        "id": 5977,
        "name": "Kambu",
        "lat": -4.0279121,
        "lng": 122.531617
      },
      "city": {
        "id": 394,
        "name": "Kendari",
        "lat": -4.0397687,
        "lng": 122.5598994
      },
      "province": {
        "id": 30,
        "name": "Sulawesi Tenggara",
        "lat": -1.4300254,
        "lng": 121.4456179
      },
      "country": {
        "id": 228,
        "name": "INDONESIA",
        "code": "ID"
      },
      "id": 69163,
      "name": "Padaleu",
      "postcode": "93231",
      "lat": -4.0381992,
      "lng": 122.5217164
    },
    {
      "suburb": {
        "id": 5977,
        "name": "Kambu",
        "lat": -4.0279121,
        "lng": 122.531617
      },
      "city": {
        "id": 394,
        "name": "Kendari",
        "lat": -4.0397687,
        "lng": 122.5598994
      },
      "province": {
        "id": 30,
        "name": "Sulawesi Tenggara",
        "lat": -1.4300254,
        "lng": 121.4456179
      },
      "country": {
        "id": 228,
        "name": "INDONESIA",
        "code": "ID"
      },
      "id": 69164,
      "name": "Kambu",
      "postcode": "93231",
      "lat": -4.0039848,
      "lng": 122.5287884
    },
    {
      "suburb": {
        "id": 5976,
        "name": "Poasia",
        "lat": -4.0351411,
        "lng": 122.5655549
      },
      "city": {
        "id": 394,
        "name": "Kendari",
        "lat": -4.0397687,
        "lng": 122.5598994
      },
      "province": {
        "id": 30,
        "name": "Sulawesi Tenggara",
        "lat": -1.4300254,
        "lng": 121.4456179
      },
      "country": {
        "id": 228,
        "name": "INDONESIA",
        "code": "ID"
      },
      "id": 69165,
      "name": "Anduonohu",
      "postcode": "93232",
      "lat": -4.0613908,
      "lng": 122.5655549
    },
    {
      "suburb": {
        "id": 5976,
        "name": "Poasia",
        "lat": -4.0351411,
        "lng": 122.5655549
      },
      "city": {
        "id": 394,
        "name": "Kendari",
        "lat": -4.0397687,
        "lng": 122.5598994
      },
      "province": {
        "id": 30,
        "name": "Sulawesi Tenggara",
        "lat": -1.4300254,
        "lng": 121.4456179
      },
      "country": {
        "id": 228,
        "name": "INDONESIA",
        "code": "ID"
      },
      "id": 69166,
      "name": "Anggoeya",
      "postcode": "93233",
      "lat": -4.0413211,
      "lng": 122.5740376
    },
    {
      "suburb": {
        "id": 5978,
        "name": "Kendari",
        "lat": -3.9984597,
        "lng": 122.5129742
      },
      "city": {
        "id": 394,
        "name": "Kendari",
        "lat": -4.0397687,
        "lng": 122.5598994
      },
      "province": {
        "id": 30,
        "name": "Sulawesi Tenggara",
        "lat": -1.4300254,
        "lng": 121.4456179
      },
      "country": {
        "id": 228,
        "name": "INDONESIA",
        "code": "ID"
      },
      "id": 69167,
      "name": "Mata",
      "postcode": "93129",
      "lat": -3.9568014,
      "lng": 122.6079616
    },
    {
      "suburb": {
        "id": 5978,
        "name": "Kendari",
        "lat": -3.9984597,
        "lng": 122.5129742
      },
      "city": {
        "id": 394,
        "name": "Kendari",
        "lat": -4.0397687,
        "lng": 122.5598994
      },
      "province": {
        "id": 30,
        "name": "Sulawesi Tenggara",
        "lat": -1.4300254,
        "lng": 121.4456179
      },
      "country": {
        "id": 228,
        "name": "INDONESIA",
        "code": "ID"
      },
      "id": 69168,
      "name": "Mangga Dua",
      "postcode": "93128",
      "lat": -3.9561459,
      "lng": 122.5980683
    },
    {
      "suburb": {
        "id": 5979,
        "name": "Kendari Barat",
        "lat": -3.956982,
        "lng": 122.5542435
      },
      "city": {
        "id": 394,
        "name": "Kendari",
        "lat": -4.0397687,
        "lng": 122.5598994
      },
      "province": {
        "id": 30,
        "name": "Sulawesi Tenggara",
        "lat": -1.4300254,
        "lng": 121.4456179
      },
      "country": {
        "id": 228,
        "name": "INDONESIA",
        "code": "ID"
      },
      "id": 69169,
      "name": "Sanua",
      "postcode": "93127",
      "lat": -3.9549584,
      "lng": 122.5754514
    },
    {
      "suburb": {
        "id": 5979,
        "name": "Kendari Barat",
        "lat": -3.956982,
        "lng": 122.5542435
      },
      "city": {
        "id": 394,
        "name": "Kendari",
        "lat": -4.0397687,
        "lng": 122.5598994
      },
      "province": {
        "id": 30,
        "name": "Sulawesi Tenggara",
        "lat": -1.4300254,
        "lng": 121.4456179
      },
      "country": {
        "id": 228,
        "name": "INDONESIA",
        "code": "ID"
      },
      "id": 69170,
      "name": "Dapu-Dapura",
      "postcode": "93127",
      "lat": -3.9694754,
      "lng": 122.5803992
    },
    {
      "suburb": {
        "id": 5979,
        "name": "Kendari Barat",
        "lat": -3.956982,
        "lng": 122.5542435
      },
      "city": {
        "id": 394,
        "name": "Kendari",
        "lat": -4.0397687,
        "lng": 122.5598994
      },
      "province": {
        "id": 30,
        "name": "Sulawesi Tenggara",
        "lat": -1.4300254,
        "lng": 121.4456179
      },
      "country": {
        "id": 228,
        "name": "INDONESIA",
        "code": "ID"
      },
      "id": 69171,
      "name": "Lahundape",
      "postcode": "93127",
      "lat": -3.9656823,
      "lng": 122.5302027
    },
    {
      "suburb": {
        "id": 5978,
        "name": "Kendari",
        "lat": -3.9984597,
        "lng": 122.5129742
      },
      "city": {
        "id": 394,
        "name": "Kendari",
        "lat": -4.0397687,
        "lng": 122.5598994
      },
      "province": {
        "id": 30,
        "name": "Sulawesi Tenggara",
        "lat": -1.4300254,
        "lng": 121.4456179
      },
      "country": {
        "id": 228,
        "name": "INDONESIA",
        "code": "ID"
      },
      "id": 69172,
      "name": "Kandai",
      "postcode": "93127",
      "lat": -3.9720485,
      "lng": 122.5839333
    },
    {
      "suburb": {
        "id": 5978,
        "name": "Kendari",
        "lat": -3.9984597,
        "lng": 122.5129742
      },
      "city": {
        "id": 394,
        "name": "Kendari",
        "lat": -4.0397687,
        "lng": 122.5598994
      },
      "province": {
        "id": 30,
        "name": "Sulawesi Tenggara",
        "lat": -1.4300254,
        "lng": 121.4456179
      },
      "country": {
        "id": 228,
        "name": "INDONESIA",
        "code": "ID"
      },
      "id": 69173,
      "name": "Kendari Caddi",
      "postcode": "93126",
      "lat": -3.9716739,
      "lng": 122.5924145
    },
    {
      "suburb": {
        "id": 5979,
        "name": "Kendari Barat",
        "lat": -3.956982,
        "lng": 122.5542435
      },
      "city": {
        "id": 394,
        "name": "Kendari",
        "lat": -4.0397687,
        "lng": 122.5598994
      },
      "province": {
        "id": 30,
        "name": "Sulawesi Tenggara",
        "lat": -1.4300254,
        "lng": 121.4456179
      },
      "country": {
        "id": 228,
        "name": "INDONESIA",
        "code": "ID"
      },
      "id": 69174,
      "name": "Sodohoa",
      "postcode": "93124",
      "lat": -3.9485349,
      "lng": 122.5726239
    },
    {
      "suburb": {
        "id": 5978,
        "name": "Kendari",
        "lat": -3.9984597,
        "lng": 122.5129742
      },
      "city": {
        "id": 394,
        "name": "Kendari",
        "lat": -4.0397687,
        "lng": 122.5598994
      },
      "province": {
        "id": 30,
        "name": "Sulawesi Tenggara",
        "lat": -1.4300254,
        "lng": 121.4456179
      },
      "country": {
        "id": 228,
        "name": "INDONESIA",
        "code": "ID"
      },
      "id": 69175,
      "name": "Gunung Jati",
      "postcode": "93129",
      "lat": -3.9554901,
      "lng": 122.588174
    },
    {
      "suburb": {
        "id": 5979,
        "name": "Kendari Barat",
        "lat": -3.956982,
        "lng": 122.5542435
      },
      "city": {
        "id": 394,
        "name": "Kendari",
        "lat": -4.0397687,
        "lng": 122.5598994
      },
      "province": {
        "id": 30,
        "name": "Sulawesi Tenggara",
        "lat": -1.4300254,
        "lng": 121.4456179
      },
      "country": {
        "id": 228,
        "name": "INDONESIA",
        "code": "ID"
      },
      "id": 69176,
      "name": "Punggaloba",
      "postcode": "93123",
      "lat": -3.9544262,
      "lng": 122.5627272
    },
    {
      "suburb": {
        "id": 5979,
        "name": "Kendari Barat",
        "lat": -3.956982,
        "lng": 122.5542435
      },
      "city": {
        "id": 394,
        "name": "Kendari",
        "lat": -4.0397687,
        "lng": 122.5598994
      },