{
  "metadata": {
    "path": "/v3/location/areas?limit=1000&page=63",
    "http_status_code": 200,
    "http_status": "OK",
    "timestamp": 1647339902
  },
  "data": [
    {
      "suburb": {
        "id": 5292,
        "name": "Bulo",
        "lat": -3.2183151,
        "lng": 119.1158017
      },
      "city": {
        "id": 343,
        "name": "Polewali Mandar",
        "lat": -3.3419323,
        "lng": 119.1390642
      },
      "province": {
        "id": 27,
        "name": "Sulawesi Barat",
        "lat": -2.8441371,
        "lng": 119.2320784
      },
      "country": {
        "id": 228,
        "name": "INDONESIA",
        "code": "ID"
      },
      "id": 62016,
      "name": "Bulo",
      "postcode": "91353",
      "lat": -3.2303467,
      "lng": 119.1565087
    },
    {
      "suburb": {
        "id": 5290,
        "name": "Mapilli",
        "lat": -3.3496922,
        "lng": 119.1739513
      },
      "city": {
        "id": 343,
        "name": "Polewali Mandar",
        "lat": -3.3419323,
        "lng": 119.1390642
      },
      "province": {
        "id": 27,
        "name": "Sulawesi Barat",
        "lat": -2.8441371,
        "lng": 119.2320784
      },
      "country": {
        "id": 228,
        "name": "INDONESIA",
        "code": "ID"
      },
      "id": 62017,
      "name": "Buku",
      "postcode": "91353",
      "lat": -3.4778524,
      "lng": 119.2030177
    },
    {
      "suburb": {
        "id": 5293,
        "name": "Campalagian",
        "lat": -3.4581042,
        "lng": 119.1274334
      },
      "city": {
        "id": 343,
        "name": "Polewali Mandar",
        "lat": -3.3419323,
        "lng": 119.1390642
      },
      "province": {
        "id": 27,
        "name": "Sulawesi Barat",
        "lat": -2.8441371,
        "lng": 119.2320784
      },
      "country": {
        "id": 228,
        "name": "INDONESIA",
        "code": "ID"
      },
      "id": 62018,
      "name": "Botto",
      "postcode": "91353",
      "lat": -3.4280621,
      "lng": 119.159416
    },
    {
      "suburb": {
        "id": 5290,
        "name": "Mapilli",
        "lat": -3.3496922,
        "lng": 119.1739513
      },
      "city": {
        "id": 343,
        "name": "Polewali Mandar",
        "lat": -3.3419323,
        "lng": 119.1390642
      },
      "province": {
        "id": 27,
        "name": "Sulawesi Barat",
        "lat": -2.8441371,
        "lng": 119.2320784
      },
      "country": {
        "id": 228,
        "name": "INDONESIA",
        "code": "ID"
      },
      "id": 62019,
      "name": "Bonra",
      "postcode": "91353",
      "lat": -3.4009547,
      "lng": 119.1710443
    },
    {
      "suburb": {
        "id": 5290,
        "name": "Mapilli",
        "lat": -3.3496922,
        "lng": 119.1739513
      },
      "city": {
        "id": 343,
        "name": "Polewali Mandar",
        "lat": -3.3419323,
        "lng": 119.1390642
      },
      "province": {
        "id": 27,
        "name": "Sulawesi Barat",
        "lat": -2.8441371,
        "lng": 119.2320784
      },
      "country": {
        "id": 228,
        "name": "INDONESIA",
        "code": "ID"
      },
      "id": 62020,
      "name": "Bonne-Bonne",
      "postcode": "91353",
      "lat": -3.400378,
      "lng": 119.1884852
    },
    {
      "suburb": {
        "id": 5293,
        "name": "Campalagian",
        "lat": -3.4581042,
        "lng": 119.1274334
      },
      "city": {
        "id": 343,
        "name": "Polewali Mandar",
        "lat": -3.3419323,
        "lng": 119.1390642
      },
      "province": {
        "id": 27,
        "name": "Sulawesi Barat",
        "lat": -2.8441371,
        "lng": 119.2320784
      },
      "country": {
        "id": 228,
        "name": "INDONESIA",
        "code": "ID"
      },
      "id": 62021,
      "name": "Bonde",
      "postcode": "91353",
      "lat": -3.4766198,
      "lng": 119.140518
    },
    {
      "suburb": {
        "id": 5290,
        "name": "Mapilli",
        "lat": -3.3496922,
        "lng": 119.1739513
      },
      "city": {
        "id": 343,
        "name": "Polewali Mandar",
        "lat": -3.3419323,
        "lng": 119.1390642
      },
      "province": {
        "id": 27,
        "name": "Sulawesi Barat",
        "lat": -2.8441371,
        "lng": 119.2320784
      },
      "country": {
        "id": 228,
        "name": "INDONESIA",
        "code": "ID"
      },
      "id": 62022,
      "name": "Beroangin",
      "postcode": "91353",
      "lat": -3.3284048,
      "lng": 119.1448793
    },
    {
      "suburb": {
        "id": 5291,
        "name": "Luyo",
        "lat": -3.3697644,
        "lng": 119.1041691
      },
      "city": {
        "id": 343,
        "name": "Polewali Mandar",
        "lat": -3.3419323,
        "lng": 119.1390642
      },
      "province": {
        "id": 27,
        "name": "Sulawesi Barat",
        "lat": -2.8441371,
        "lng": 119.2320784
      },
      "country": {
        "id": 228,
        "name": "INDONESIA",
        "code": "ID"
      },
      "id": 62023,
      "name": "Batupanga Daala",
      "postcode": "91353",
      "lat": -3.3121206,
      "lng": 119.0983524
    },
    {
      "suburb": {
        "id": 5291,
        "name": "Luyo",
        "lat": -3.3697644,
        "lng": 119.1041691
      },
      "city": {
        "id": 343,
        "name": "Polewali Mandar",
        "lat": -3.3419323,
        "lng": 119.1390642
      },
      "province": {
        "id": 27,
        "name": "Sulawesi Barat",
        "lat": -2.8441371,
        "lng": 119.2320784
      },
      "country": {
        "id": 228,
        "name": "INDONESIA",
        "code": "ID"
      },
      "id": 62024,
      "name": "Batu Panga",
      "postcode": "91353",
      "lat": -3.3469464,
      "lng": 119.1216176
    },
    {
      "suburb": {
        "id": 5291,
        "name": "Luyo",
        "lat": -3.3697644,
        "lng": 119.1041691
      },
      "city": {
        "id": 343,
        "name": "Polewali Mandar",
        "lat": -3.3419323,
        "lng": 119.1390642
      },
      "province": {
        "id": 27,
        "name": "Sulawesi Barat",
        "lat": -2.8441371,
        "lng": 119.2320784
      },
      "country": {
        "id": 228,
        "name": "INDONESIA",
        "code": "ID"
      },
      "id": 62025,
      "name": "Baru",
      "postcode": "91353",
      "lat": -3.4104375,
      "lng": 119.1536015
    },
    {
      "suburb": {
        "id": 5294,
        "name": "Tapango",
        "lat": -3.3118839,
        "lng": 119.2437011
      },
      "city": {
        "id": 343,
        "name": "Polewali Mandar",
        "lat": -3.3419323,
        "lng": 119.1390642
      },
      "province": {
        "id": 27,
        "name": "Sulawesi Barat",
        "lat": -2.8441371,
        "lng": 119.2320784
      },
      "country": {
        "id": 228,
        "name": "INDONESIA",
        "code": "ID"
      },
      "id": 62026,
      "name": "Tuttula",
      "postcode": "91352",
      "lat": -3.315699,
      "lng": 119.1942983
    },
    {
      "suburb": {
        "id": 5295,
        "name": "Wonomulyo",
        "lat": -3.4185746,
        "lng": 119.2437011
      },
      "city": {
        "id": 343,
        "name": "Polewali Mandar",
        "lat": -3.3419323,
        "lng": 119.1390642
      },
      "province": {
        "id": 27,
        "name": "Sulawesi Barat",
        "lat": -2.8441371,
        "lng": 119.2320784
      },
      "country": {
        "id": 228,
        "name": "INDONESIA",
        "code": "ID"
      },
      "id": 62027,
      "name": "Tumpiling",
      "postcode": "91352",
      "lat": -3.4135436,
      "lng": 119.2611335
    },
    {
      "suburb": {
        "id": 5296,
        "name": "Matakali",
        "lat": -3.3636704,
        "lng": 119.2901829
      },
      "city": {
        "id": 343,
        "name": "Polewali Mandar",
        "lat": -3.3419323,
        "lng": 119.1390642
      },
      "province": {
        "id": 27,
        "name": "Sulawesi Barat",
        "lat": -2.8441371,
        "lng": 119.2320784
      },
      "country": {
        "id": 228,
        "name": "INDONESIA",
        "code": "ID"
      },
      "id": 62028,
      "name": "Tonro Lima",
      "postcode": "91352",
      "lat": -3.3783435,
      "lng": 119.2495121
    },
    {
      "suburb": {
        "id": 5294,
        "name": "Tapango",
        "lat": -3.3118839,
        "lng": 119.2437011
      },
      "city": {
        "id": 343,
        "name": "Polewali Mandar",
        "lat": -3.3419323,
        "lng": 119.1390642
      },
      "province": {
        "id": 27,
        "name": "Sulawesi Barat",
        "lat": -2.8441371,
        "lng": 119.2320784
      },
      "country": {
        "id": 228,
        "name": "INDONESIA",
        "code": "ID"
      },
      "id": 62029,
      "name": "Tapango Barat",
      "postcode": "91352",
      "lat": -3.325771,
      "lng": 119.2262667
    },
    {
      "suburb": {
        "id": 5297,
        "name": "Matangnga",
        "lat": -3.1799696,
        "lng": 119.2088303
      },
      "city": {
        "id": 343,
        "name": "Polewali Mandar",
        "lat": -3.3419323,
        "lng": 119.1390642
      },
      "province": {
        "id": 27,
        "name": "Sulawesi Barat",
        "lat": -2.8441371,
        "lng": 119.2320784
      },
      "country": {
        "id": 228,
        "name": "INDONESIA",
        "code": "ID"
      },
      "id": 62030,
      "name": "Tapua",
      "postcode": "91352",
      "lat": -3.1877427,
      "lng": 119.2437011
    },
    {
      "suburb": {
        "id": 5294,
        "name": "Tapango",
        "lat": -3.3118839,
        "lng": 119.2437011
      },
      "city": {
        "id": 343,
        "name": "Polewali Mandar",
        "lat": -3.3419323,
        "lng": 119.1390642
      },
      "province": {
        "id": 27,
        "name": "Sulawesi Barat",
        "lat": -2.8441371,
        "lng": 119.2320784
      },
      "country": {
        "id": 228,
        "name": "INDONESIA",
        "code": "ID"
      },
      "id": 62031,
      "name": "Tapango",
      "postcode": "91352",
      "lat": -3.3250175,
      "lng": 119.2495121
    },
    {
      "suburb": {
        "id": 5298,
        "name": "Tapalang",
        "lat": -2.8701096,
        "lng": 118.9295737
      },
      "city": {
        "id": 345,
        "name": "Mamuju",
        "lat": -2.7293364,
        "lng": 118.9295737
      },
      "province": {
        "id": 27,
        "name": "Sulawesi Barat",
        "lat": -2.8441371,
        "lng": 119.2320784
      },
      "country": {
        "id": 228,
        "name": "INDONESIA",
        "code": "ID"
      },
      "id": 62032,
      "name": "Tampalang",
      "postcode": "91352",
      "lat": -2.8045347,
      "lng": 118.9121033
    },
    {
      "suburb": {
        "id": 5299,
        "name": "Tapalang Barat",
        "lat": -2.7766933,
        "lng": 118.8014121
      },
      "city": {
        "id": 345,
        "name": "Mamuju",
        "lat": -2.7293364,
        "lng": 118.9295737
      },
      "province": {
        "id": 27,
        "name": "Sulawesi Barat",
        "lat": -2.8441371,
        "lng": 119.2320784
      },
      "country": {
        "id": 228,
        "name": "INDONESIA",
        "code": "ID"
      },
      "id": 62033,
      "name": "Tanete Pao",
      "postcode": "91352",
      "lat": -2.7936799,
      "lng": 118.824722
    },
    {
      "suburb": {
        "id": 5298,
        "name": "Tapalang",
        "lat": -2.8701096,
        "lng": 118.9295737
      },
      "city": {
        "id": 345,
        "name": "Mamuju",
        "lat": -2.7293364,
        "lng": 118.9295737
      },
      "province": {
        "id": 27,
        "name": "Sulawesi Barat",
        "lat": -2.8441371,
        "lng": 119.2320784
      },
      "country": {
        "id": 228,
        "name": "INDONESIA",
        "code": "ID"
      },
      "id": 62034,
      "name": "Takandeang",
      "postcode": "91352",
      "lat": -2.8100367,
      "lng": 118.8713314
    },
    {
      "suburb": {
        "id": 5298,
        "name": "Tapalang",
        "lat": -2.8701096,
        "lng": 118.9295737
      },
      "city": {
        "id": 345,
        "name": "Mamuju",
        "lat": -2.7293364,
        "lng": 118.9295737
      },
      "province": {
        "id": 27,
        "name": "Sulawesi Barat",
        "lat": -2.8441371,
        "lng": 119.2320784
      },
      "country": {
        "id": 228,
        "name": "INDONESIA",
        "code": "ID"
      },
      "id": 62035,
      "name": "Taang (Taan)",
      "postcode": "91552",
      "lat": -2.8962325,
      "lng": 118.9412196
    },
    {
      "suburb": {
        "id": 5295,
        "name": "Wonomulyo",
        "lat": -3.4185746,
        "lng": 119.2437011
      },
      "city": {
        "id": 343,
        "name": "Polewali Mandar",
        "lat": -3.3419323,
        "lng": 119.1390642
      },
      "province": {
        "id": 27,
        "name": "Sulawesi Barat",
        "lat": -2.8441371,
        "lng": 119.2320784
      },
      "country": {
        "id": 228,
        "name": "INDONESIA",
        "code": "ID"
      },
      "id": 62036,
      "name": "Sumberjo",
      "postcode": "91352",
      "lat": -3.385685,
      "lng": 119.2291726
    },
    {
      "suburb": {
        "id": 5295,
        "name": "Wonomulyo",
        "lat": -3.4185746,
        "lng": 119.2437011
      },
      "city": {
        "id": 343,
        "name": "Polewali Mandar",
        "lat": -3.3419323,
        "lng": 119.1390642
      },
      "province": {
        "id": 27,
        "name": "Sulawesi Barat",
        "lat": -2.8441371,
        "lng": 119.2320784
      },
      "country": {
        "id": 228,
        "name": "INDONESIA",
        "code": "ID"
      },
      "id": 62037,
      "name": "Sugih Waras",
      "postcode": "91352",
      "lat": -3.3828757,
      "lng": 119.2131896
    },
    {
      "suburb": {
        "id": 5295,
        "name": "Wonomulyo",
        "lat": -3.4185746,
        "lng": 119.2437011
      },
      "city": {
        "id": 343,
        "name": "Polewali Mandar",
        "lat": -3.3419323,
        "lng": 119.1390642
      },
      "province": {
        "id": 27,
        "name": "Sulawesi Barat",
        "lat": -2.8441371,
        "lng": 119.2320784
      },
      "country": {
        "id": 228,
        "name": "INDONESIA",
        "code": "ID"
      },
      "id": 62038,
      "name": "Sidodadi",
      "postcode": "91352",
      "lat": -3.3994163,
      "lng": 119.2175487
    },
    {
      "suburb": {
        "id": 5295,
        "name": "Wonomulyo",
        "lat": -3.4185746,
        "lng": 119.2437011
      },
      "city": {
        "id": 343,
        "name": "Polewali Mandar",
        "lat": -3.3419323,
        "lng": 119.1390642
      },
      "province": {
        "id": 27,
        "name": "Sulawesi Barat",
        "lat": -2.8441371,
        "lng": 119.2320784
      },
      "country": {
        "id": 228,
        "name": "INDONESIA",
        "code": "ID"
      },
      "id": 62039,
      "name": "Sidorejo",
      "postcode": "91352",
      "lat": -3.4083172,
      "lng": 119.2175487
    },
    {
      "suburb": {
        "id": 5294,
        "name": "Tapango",
        "lat": -3.3118839,
        "lng": 119.2437011
      },
      "city": {
        "id": 343,
        "name": "Polewali Mandar",
        "lat": -3.3419323,
        "lng": 119.1390642
      },
      "province": {
        "id": 27,
        "name": "Sulawesi Barat",
        "lat": -2.8441371,
        "lng": 119.2320784
      },
      "country": {
        "id": 228,
        "name": "INDONESIA",
        "code": "ID"
      },
      "id": 62040,
      "name": "Rappang",
      "postcode": "91352",
      "lat": -3.3443001,
      "lng": 119.2030177
    },
    {
      "suburb": {
        "id": 5294,
        "name": "Tapango",
        "lat": -3.3118839,
        "lng": 119.2437011
      },
      "city": {
        "id": 343,
        "name": "Polewali Mandar",
        "lat": -3.3419323,
        "lng": 119.1390642
      },
      "province": {
        "id": 27,
        "name": "Sulawesi Barat",
        "lat": -2.8441371,
        "lng": 119.2320784
      },
      "country": {
        "id": 228,
        "name": "INDONESIA",
        "code": "ID"
      },
      "id": 62041,
      "name": "Riso",
      "postcode": "91352",
      "lat": -3.3153843,
      "lng": 119.2727539
    },
    {
      "suburb": {
        "id": 5297,
        "name": "Matangnga",
        "lat": -3.1799696,
        "lng": 119.2088303
      },
      "city": {
        "id": 343,
        "name": "Polewali Mandar",
        "lat": -3.3419323,
        "lng": 119.1390642
      },
      "province": {
        "id": 27,
        "name": "Sulawesi Barat",
        "lat": -2.8441371,
        "lng": 119.2320784
      },
      "country": {
        "id": 228,
        "name": "INDONESIA",
        "code": "ID"
      },
      "id": 62042,
      "name": "Rangoan",
      "postcode": "91352",
      "lat": -3.1360694,
      "lng": 119.1972048
    },
    {
      "suburb": {
        "id": 5298,
        "name": "Tapalang",
        "lat": -2.8701096,
        "lng": 118.9295737
      },
      "city": {
        "id": 345,
        "name": "Mamuju",
        "lat": -2.7293364,
        "lng": 118.9295737
      },
      "province": {
        "id": 27,
        "name": "Sulawesi Barat",
        "lat": -2.8441371,
        "lng": 119.2320784
      },
      "country": {
        "id": 228,
        "name": "INDONESIA",
        "code": "ID"
      },
      "id": 62043,
      "name": "Rantedoda",
      "postcode": "91352",
      "lat": -2.8251156,
      "lng": 118.9645086
    },
    {
      "suburb": {
        "id": 5296,
        "name": "Matakali",
        "lat": -3.3636704,
        "lng": 119.2901829
      },
      "city": {
        "id": 343,
        "name": "Polewali Mandar",
        "lat": -3.3419323,
        "lng": 119.1390642
      },
      "province": {
        "id": 27,
        "name": "Sulawesi Barat",
        "lat": -2.8441371,
        "lng": 119.2320784
      },
      "country": {
        "id": 228,
        "name": "INDONESIA",
        "code": "ID"
      },
      "id": 62044,
      "name": "Patampanua",
      "postcode": "91352",
      "lat": -3.4038729,
      "lng": 119.2843735
    },
    {
      "suburb": {
        "id": 5294,
        "name": "Tapango",
        "lat": -3.3118839,
        "lng": 119.2437011
      },
      "city": {
        "id": 343,
        "name": "Polewali Mandar",
        "lat": -3.3419323,
        "lng": 119.1390642
      },
      "province": {
        "id": 27,
        "name": "Sulawesi Barat",
        "lat": -2.8441371,
        "lng": 119.2320784
      },
      "country": {
        "id": 228,
        "name": "INDONESIA",
        "code": "ID"
      },
      "id": 62045,
      "name": "Pelitakan",
      "postcode": "91352",
      "lat": -3.3632596,
      "lng": 119.2349842
    },
    {
      "suburb": {
        "id": 5296,
        "name": "Matakali",
        "lat": -3.3636704,
        "lng": 119.2901829
      },
      "city": {
        "id": 343,
        "name": "Polewali Mandar",
        "lat": -3.3419323,
        "lng": 119.1390642
      },
      "province": {
        "id": 27,
        "name": "Sulawesi Barat",
        "lat": -2.8441371,
        "lng": 119.2320784
      },
      "country": {
        "id": 228,
        "name": "INDONESIA",
        "code": "ID"
      },
      "id": 62046,
      "name": "Pasiang",
      "postcode": "91352",
      "lat": -3.3316315,
      "lng": 119.3192266
    },
    {
      "suburb": {
        "id": 5294,
        "name": "Tapango",
        "lat": -3.3118839,
        "lng": 119.2437011
      },
      "city": {
        "id": 343,
        "name": "Polewali Mandar",
        "lat": -3.3419323,
        "lng": 119.1390642
      },
      "province": {
        "id": 27,
        "name": "Sulawesi Barat",
        "lat": -2.8441371,
        "lng": 119.2320784
      },
      "country": {
        "id": 228,
        "name": "INDONESIA",
        "code": "ID"
      },
      "id": 62047,
      "name": "Palatta",
      "postcode": "91352",
      "lat": -3.271757,
      "lng": 119.2495121
    },
    {
      "suburb": {
        "id": 5299,
        "name": "Tapalang Barat",
        "lat": -2.7766933,
        "lng": 118.8014121
      },
      "city": {
        "id": 345,
        "name": "Mamuju",
        "lat": -2.7293364,
        "lng": 118.9295737
      },
      "province": {
        "id": 27,
        "name": "Sulawesi Barat",
        "lat": -2.8441371,
        "lng": 119.2320784
      },
      "country": {
        "id": 228,
        "name": "INDONESIA",
        "code": "ID"
      },
      "id": 62048,
      "name": "Pangasaan",
      "postcode": "91352",
      "lat": -2.7369432,
      "lng": 118.8072399
    },
    {
      "suburb": {
        "id": 5299,
        "name": "Tapalang Barat",
        "lat": -2.7766933,
        "lng": 118.8014121
      },
      "city": {
        "id": 345,
        "name": "Mamuju",
        "lat": -2.7293364,
        "lng": 118.9295737
      },
      "province": {
        "id": 27,
        "name": "Sulawesi Barat",
        "lat": -2.8441371,
        "lng": 119.2320784
      },
      "country": {
        "id": 228,
        "name": "INDONESIA",
        "code": "ID"
      },
      "id": 62049,
      "name": "Pasabu (Pasa Bu)",
      "postcode": "91352",
      "lat": -2.8331643,
      "lng": 118.8305489
    },
    {
      "suburb": {
        "id": 5295,
        "name": "Wonomulyo",
        "lat": -3.4185746,
        "lng": 119.2437011
      },
      "city": {
        "id": 343,
        "name": "Polewali Mandar",
        "lat": -3.3419323,
        "lng": 119.1390642
      },
      "province": {
        "id": 27,
        "name": "Sulawesi Barat",
        "lat": -2.8441371,
        "lng": 119.2320784
      },
      "country": {
        "id": 228,
        "name": "INDONESIA",
        "code": "ID"
      },
      "id": 62050,
      "name": "Nepo",
      "postcode": "91352",
      "lat": -3.458847,
      "lng": 119.2378899
    },
    {
      "suburb": {
        "id": 5298,
        "name": "Tapalang",
        "lat": -2.8701096,
        "lng": 118.9295737
      },
      "city": {
        "id": 345,
        "name": "Mamuju",
        "lat": -2.7293364,
        "lng": 118.9295737
      },
      "province": {
        "id": 27,
        "name": "Sulawesi Barat",
        "lat": -2.8441371,
        "lng": 119.2320784
      },
      "country": {
        "id": 228,
        "name": "INDONESIA",
        "code": "ID"
      },
      "id": 62051,
      "name": "Orobatu",
      "postcode": "91352",
      "lat": -2.8260018,
      "lng": 118.8509415
    },
    {
      "suburb": {
        "id": 5297,
        "name": "Matangnga",
        "lat": -3.1799696,
        "lng": 119.2088303
      },
      "city": {
        "id": 343,
        "name": "Polewali Mandar",
        "lat": -3.3419323,
        "lng": 119.1390642
      },
      "province": {
        "id": 27,
        "name": "Sulawesi Barat",
        "lat": -2.8441371,
        "lng": 119.2320784
      },
      "country": {
        "id": 228,
        "name": "INDONESIA",
        "code": "ID"
      },
      "id": 62052,
      "name": "Matangnga",
      "postcode": "91352",
      "lat": -3.1042357,
      "lng": 119.2262667
    },
    {
      "suburb": {
        "id": 5296,
        "name": "Matakali",
        "lat": -3.3636704,
        "lng": 119.2901829
      },
      "city": {
        "id": 343,
        "name": "Polewali Mandar",
        "lat": -3.3419323,
        "lng": 119.1390642
      },
      "province": {
        "id": 27,
        "name": "Sulawesi Barat",
        "lat": -2.8441371,
        "lng": 119.2320784
      },
      "country": {
        "id": 228,
        "name": "INDONESIA",
        "code": "ID"
      },
      "id": 62053,
      "name": "Matakali",
      "postcode": "91352",
      "lat": -3.389117,
      "lng": 119.269699
    },
    {
      "suburb": {
        "id": 5297,
        "name": "Matangnga",
        "lat": -3.1799696,
        "lng": 119.2088303
      },
      "city": {
        "id": 343,
        "name": "Polewali Mandar",
        "lat": -3.3419323,
        "lng": 119.1390642
      },
      "province": {
        "id": 27,
        "name": "Sulawesi Barat",
        "lat": -2.8441371,
        "lng": 119.2320784
      },
      "country": {
        "id": 228,
        "name": "INDONESIA",
        "code": "ID"
      },
      "id": 62054,
      "name": "Mambu Tapua",
      "postcode": "91352",
      "lat": -3.2401675,
      "lng": 119.2669438
    },
    {
      "suburb": {
        "id": 5297,
        "name": "Matangnga",
        "lat": -3.1799696,
        "lng": 119.2088303
      },
      "city": {
        "id": 343,
        "name": "Polewali Mandar",
        "lat": -3.3419323,
        "lng": 119.1390642
      },
      "province": {
        "id": 27,
        "name": "Sulawesi Barat",
        "lat": -2.8441371,
        "lng": 119.2320784
      },
      "country": {
        "id": 228,
        "name": "INDONESIA",
        "code": "ID"
      },
      "id": 62055,
      "name": "Lilli",
      "postcode": "91352",
      "lat": -3.1891871,
      "lng": 119.1972048
    },
    {
      "suburb": {
        "id": 5299,
        "name": "Tapalang Barat",
        "lat": -2.7766933,
        "lng": 118.8014121
      },
      "city": {
        "id": 345,
        "name": "Mamuju",
        "lat": -2.7293364,
        "lng": 118.9295737
      },
      "province": {
        "id": 27,
        "name": "Sulawesi Barat",
        "lat": -2.8441371,
        "lng": 119.2320784
      },
      "country": {
        "id": 228,
        "name": "INDONESIA",
        "code": "ID"
      },
      "id": 62056,
      "name": "Labuang Rano",
      "postcode": "91352",
      "lat": -2.7906793,
      "lng": 118.7722699
    },
    {
      "suburb": {
        "id": 5299,
        "name": "Tapalang Barat",
        "lat": -2.7766933,
        "lng": 118.8014121
      },
      "city": {
        "id": 345,
        "name": "Mamuju",
        "lat": -2.7293364,
        "lng": 118.9295737
      },
      "province": {
        "id": 27,
        "name": "Sulawesi Barat",
        "lat": -2.8441371,
        "lng": 119.2320784
      },
      "country": {
        "id": 228,
        "name": "INDONESIA",
        "code": "ID"
      },
      "id": 62057,
      "name": "Lebani",
      "postcode": "91352",
      "lat": -2.6887507,
      "lng": 118.8014121
    },
    {
      "suburb": {
        "id": 5294,
        "name": "Tapango",
        "lat": -3.3118839,
        "lng": 119.2437011
      },
      "city": {
        "id": 343,
        "name": "Polewali Mandar",
        "lat": -3.3419323,
        "lng": 119.1390642
      },
      "province": {
        "id": 27,
        "name": "Sulawesi Barat",
        "lat": -2.8441371,
        "lng": 119.2320784
      },
      "country": {
        "id": 228,
        "name": "INDONESIA",
        "code": "ID"
      },
      "id": 62058,
      "name": "Kurrak",
      "postcode": "91352",
      "lat": -3.2918859,
      "lng": 119.3134183
    },
    {
      "suburb": {
        "id": 5298,
        "name": "Tapalang",
        "lat": -2.8701096,
        "lng": 118.9295737
      },
      "city": {
        "id": 345,
        "name": "Mamuju",
        "lat": -2.7293364,
        "lng": 118.9295737
      },
      "province": {
        "id": 27,
        "name": "Sulawesi Barat",
        "lat": -2.8441371,
        "lng": 119.2320784
      },
      "country": {
        "id": 228,
        "name": "INDONESIA",
        "code": "ID"
      },
      "id": 62059,
      "name": "Kopeang",
      "postcode": "91352",
      "lat": -2.8196061,
      "lng": 119.0052561
    },
    {
      "suburb": {
        "id": 5295,
        "name": "Wonomulyo",
        "lat": -3.4185746,
        "lng": 119.2437011
      },
      "city": {
        "id": 343,
        "name": "Polewali Mandar",
        "lat": -3.3419323,
        "lng": 119.1390642
      },
      "province": {
        "id": 27,
        "name": "Sulawesi Barat",
        "lat": -2.8441371,
        "lng": 119.2320784
      },
      "country": {
        "id": 228,
        "name": "INDONESIA",
        "code": "ID"
      },
      "id": 62060,
      "name": "Kebunsari",
      "postcode": "91352",
      "lat": -3.4439388,
      "lng": 119.2175487
    },
    {
      "suburb": {
        "id": 5297,
        "name": "Matangnga",
        "lat": -3.1799696,
        "lng": 119.2088303
      },
      "city": {
        "id": 343,
        "name": "Polewali Mandar",
        "lat": -3.3419323,
        "lng": 119.1390642
      },
      "province": {
        "id": 27,
        "name": "Sulawesi Barat",
        "lat": -2.8441371,
        "lng": 119.2320784
      },
      "country": {
        "id": 228,
        "name": "INDONESIA",
        "code": "ID"
      },
      "id": 62061,
      "name": "Katimbang",
      "postcode": "91352",
      "lat": -3.1480946,
      "lng": 119.2378899
    },
    {
      "suburb": {
        "id": 5294,
        "name": "Tapango",
        "lat": -3.3118839,
        "lng": 119.2437011
      },
      "city": {
        "id": 343,
        "name": "Polewali Mandar",
        "lat": -3.3419323,
        "lng": 119.1390642
      },
      "province": {
        "id": 27,
        "name": "Sulawesi Barat",
        "lat": -2.8441371,
        "lng": 119.2320784
      },
      "country": {
        "id": 228,
        "name": "INDONESIA",
        "code": "ID"
      },
      "id": 62062,
      "name": "Kalimbua",
      "postcode": "91352",
      "lat": -3.297257,
      "lng": 119.2843735
    },
    {
      "suburb": {
        "id": 5298,
        "name": "Tapalang",
        "lat": -2.8701096,
        "lng": 118.9295737
      },
      "city": {
        "id": 345,
        "name": "Mamuju",
        "lat": -2.7293364,
        "lng": 118.9295737
      },
      "province": {
        "id": 27,
        "name": "Sulawesi Barat",
        "lat": -2.8441371,
        "lng": 119.2320784
      },
      "country": {
        "id": 228,
        "name": "INDONESIA",
        "code": "ID"
      },
      "id": 62063,
      "name": "Kasambang",
      "postcode": "91352",
      "lat": -2.8609764,
      "lng": 118.9412196
    },
    {
      "suburb": {
        "id": 5296,
        "name": "Matakali",
        "lat": -3.3636704,
        "lng": 119.2901829
      },
      "city": {
        "id": 343,
        "name": "Polewali Mandar",
        "lat": -3.3419323,
        "lng": 119.1390642
      },
      "province": {
        "id": 27,
        "name": "Sulawesi Barat",
        "lat": -2.8441371,
        "lng": 119.2320784
      },
      "country": {
        "id": 228,
        "name": "INDONESIA",
        "code": "ID"
      },
      "id": 62064,
      "name": "Indo Makkombong (Indomakkondang)",
      "postcode": "91352",
      "lat": -3.3512924,
      "lng": 119.2611335
    },
    {
      "suburb": {
        "id": 5295,
        "name": "Wonomulyo",
        "lat": -3.4185746,
        "lng": 119.2437011
      },
      "city": {
        "id": 343,
        "name": "Polewali Mandar",
        "lat": -3.3419323,
        "lng": 119.1390642
      },
      "province": {
        "id": 27,
        "name": "Sulawesi Barat",
        "lat": -2.8441371,
        "lng": 119.2320784
      },
      "country": {
        "id": 228,
        "name": "INDONESIA",
        "code": "ID"
      },
      "id": 62065,
      "name": "Geleso",
      "postcode": "91352",
      "lat": -3.4317349,
      "lng": 119.2495121
    },
    {
      "suburb": {
        "id": 5294,
        "name": "Tapango",
        "lat": -3.3118839,
        "lng": 119.2437011
      },
      "city": {
        "id": 343,
        "name": "Polewali Mandar",
        "lat": -3.3419323,
        "lng": 119.1390642
      },
      "province": {
        "id": 27,
        "name": "Sulawesi Barat",
        "lat": -2.8441371,
        "lng": 119.2320784
      },
      "country": {
        "id": 228,
        "name": "INDONESIA",
        "code": "ID"
      },
      "id": 62066,
      "name": "Jambu Malea",
      "postcode": "91352",
      "lat": -3.3517475,
      "lng": 119.2131896
    },
    {
      "suburb": {
        "id": 5299,
        "name": "Tapalang Barat",
        "lat": -2.7766933,
        "lng": 118.8014121
      },
      "city": {
        "id": 345,
        "name": "Mamuju",
        "lat": -2.7293364,
        "lng": 118.9295737
      },
      "province": {
        "id": 27,
        "name": "Sulawesi Barat",
        "lat": -2.8441371,
        "lng": 119.2320784
      },
      "country": {
        "id": 228,
        "name": "INDONESIA",
        "code": "ID"
      },
      "id": 62067,
      "name": "Dungkait",
      "postcode": "91352",
      "lat": -2.8344302,
      "lng": 118.7839274
    },
    {
      "suburb": {
        "id": 5298,
        "name": "Tapalang",
        "lat": -2.8701096,
        "lng": 118.9295737
      },
      "city": {
        "id": 345,
        "name": "Mamuju",
        "lat": -2.7293364,
        "lng": 118.9295737
      },
      "province": {
        "id": 27,
        "name": "Sulawesi Barat",
        "lat": -2.8441371,
        "lng": 119.2320784
      },
      "country": {
        "id": 228,
        "name": "INDONESIA",
        "code": "ID"
      },
      "id": 62068,
      "name": "Galung",
      "postcode": "91352",
      "lat": -2.8218234,
      "lng": 118.9237505
    },
    {
      "suburb": {
        "id": 5294,
        "name": "Tapango",
        "lat": -3.3118839,
        "lng": 119.2437011
      },
      "city": {
        "id": 343,
        "name": "Polewali Mandar",
        "lat": -3.3419323,
        "lng": 119.1390642
      },
      "province": {
        "id": 27,
        "name": "Sulawesi Barat",
        "lat": -2.8441371,
        "lng": 119.2320784
      },
      "country": {
        "id": 228,
        "name": "INDONESIA",
        "code": "ID"
      },
      "id": 62069,
      "name": "Dakka",
      "postcode": "91352",
      "lat": -3.3591947,
      "lng": 119.2233608
    },
    {
      "suburb": {
        "id": 5295,
        "name": "Wonomulyo",
        "lat": -3.4185746,
        "lng": 119.2437011
      },
      "city": {
        "id": 343,
        "name": "Polewali Mandar",
        "lat": -3.3419323,
        "lng": 119.1390642
      },
      "province": {
        "id": 27,
        "name": "Sulawesi Barat",
        "lat": -2.8441371,
        "lng": 119.2320784
      },
      "country": {
        "id": 228,
        "name": "INDONESIA",
        "code": "ID"
      },
      "id": 62070,
      "name": "Campurjo",
      "postcode": "91352",
      "lat": -3.4034811,
      "lng": 119.2291726
    },
    {
      "suburb": {
        "id": 5294,
        "name": "Tapango",
        "lat": -3.3118839,
        "lng": 119.2437011
      },
      "city": {
        "id": 343,
        "name": "Polewali Mandar",
        "lat": -3.3419323,
        "lng": 119.1390642
      },
      "province": {
        "id": 27,
        "name": "Sulawesi Barat",
        "lat": -2.8441371,
        "lng": 119.2320784
      },
      "country": {
        "id": 228,
        "name": "INDONESIA",
        "code": "ID"
      },
      "id": 62071,
      "name": "Bussu",
      "postcode": "91352",
      "lat": -3.3083808,
      "lng": 119.2146426
    },
    {
      "suburb": {
        "id": 5295,
        "name": "Wonomulyo",
        "lat": -3.4185746,
        "lng": 119.2437011
      },
      "city": {
        "id": 343,
        "name": "Polewali Mandar",
        "lat": -3.3419323,
        "lng": 119.1390642
      },
      "province": {
        "id": 27,
        "name": "Sulawesi Barat",
        "lat": -2.8441371,
        "lng": 119.2320784
      },
      "country": {
        "id": 228,
        "name": "INDONESIA",
        "code": "ID"
      },
      "id": 62072,
      "name": "Bumiayu",
      "postcode": "91352",
      "lat": -3.4216719,
      "lng": 119.2175487
    },
    {
      "suburb": {
        "id": 5296,
        "name": "Matakali",
        "lat": -3.3636704,
        "lng": 119.2901829
      },
      "city": {
        "id": 343,
        "name": "Polewali Mandar",
        "lat": -3.3419323,
        "lng": 119.1390642
      },
      "province": {
        "id": 27,
        "name": "Sulawesi Barat",
        "lat": -2.8441371,
        "lng": 119.2320784
      },
      "country": {
        "id": 228,
        "name": "INDONESIA",
        "code": "ID"
      },
      "id": 62073,
      "name": "Bunga-Bunga",
      "postcode": "91352",
      "lat": -3.3878278,
      "lng": 119.2988966
    },
    {
      "suburb": {
        "id": 5295,
        "name": "Wonomulyo",
        "lat": -3.4185746,
        "lng": 119.2437011
      },
      "city": {
        "id": 343,
        "name": "Polewali Mandar",
        "lat": -3.3419323,
        "lng": 119.1390642
      },
      "province": {
        "id": 27,
        "name": "Sulawesi Barat",
        "lat": -2.8441371,
        "lng": 119.2320784
      },
      "country": {
        "id": 228,
        "name": "INDONESIA",
        "code": "ID"
      },
      "id": 62074,
      "name": "Bumi Mulyo",
      "postcode": "91352",
      "lat": -3.4346418,
      "lng": 119.2291726
    },
    {
      "suburb": {
        "id": 5298,
        "name": "Tapalang",
        "lat": -2.8701096,
        "lng": 118.9295737
      },
      "city": {
        "id": 345,
        "name": "Mamuju",
        "lat": -2.7293364,
        "lng": 118.9295737
      },
      "province": {
        "id": 27,
        "name": "Sulawesi Barat",
        "lat": -2.8441371,
        "lng": 119.2320784
      },
      "country": {
        "id": 228,
        "name": "INDONESIA",
        "code": "ID"
      },
      "id": 62075,
      "name": "Bela",
      "postcode": "91352",
      "lat": -2.9119083,
      "lng": 119.0110762
    },
    {
      "suburb": {
        "id": 5294,
        "name": "Tapango",
        "lat": -3.3118839,
        "lng": 119.2437011
      },
      "city": {
        "id": 343,
        "name": "Polewali Mandar",
        "lat": -3.3419323,
        "lng": 119.1390642
      },
      "province": {
        "id": 27,
        "name": "Sulawesi Barat",
        "lat": -2.8441371,
        "lng": 119.2320784
      },
      "country": {
        "id": 228,
        "name": "INDONESIA",
        "code": "ID"
      },
      "id": 62076,
      "name": "Batu",
      "postcode": "91352",
      "lat": -3.2987528,
      "lng": 119.2378899
    },
    {
      "suburb": {
        "id": 5295,
        "name": "Wonomulyo",
        "lat": -3.4185746,
        "lng": 119.2437011
      },
      "city": {
        "id": 343,
        "name": "Polewali Mandar",
        "lat": -3.3419323,
        "lng": 119.1390642
      },
      "province": {
        "id": 27,
        "name": "Sulawesi Barat",
        "lat": -2.8441371,
        "lng": 119.2320784
      },
      "country": {
        "id": 228,
        "name": "INDONESIA",
        "code": "ID"
      },
      "id": 62077,
      "name": "Banua Baru",
      "postcode": "91352",
      "lat": -3.3877077,
      "lng": 119.2015645
    },
    {
      "suburb": {
        "id": 5296,
        "name": "Matakali",
        "lat": -3.3636704,
        "lng": 119.2901829
      },
      "city": {
        "id": 343,
        "name": "Polewali Mandar",
        "lat": -3.3419323,
        "lng": 119.1390642
      },
      "province": {
        "id": 27,
        "name": "Sulawesi Barat",
        "lat": -2.8441371,
        "lng": 119.2320784
      },
      "country": {
        "id": 228,
        "name": "INDONESIA",
        "code": "ID"
      },
      "id": 62078,
      "name": "Barumbung",
      "postcode": "91352",
      "lat": -3.3505322,
      "lng": 119.2843735
    },
    {
      "suburb": {
        "id": 5295,
        "name": "Wonomulyo",
        "lat": -3.4185746,
        "lng": 119.2437011
      },
      "city": {
        "id": 343,
        "name": "Polewali Mandar",
        "lat": -3.3419323,
        "lng": 119.1390642
      },
      "province": {
        "id": 27,
        "name": "Sulawesi Barat",
        "lat": -2.8441371,
        "lng": 119.2320784
      },
      "country": {
        "id": 228,
        "name": "INDONESIA",
        "code": "ID"
      },
      "id": 62079,
      "name": "Bakka-Bakka",
      "postcode": "91352",
      "lat": -3.3777454,
      "lng": 119.2001113
    },
    {
      "suburb": {
        "id": 5294,
        "name": "Tapango",
        "lat": -3.3118839,
        "lng": 119.2437011
      },
      "city": {
        "id": 343,
        "name": "Polewali Mandar",
        "lat": -3.3419323,
        "lng": 119.1390642
      },
      "province": {
        "id": 27,
        "name": "Sulawesi Barat",
        "lat": -2.8441371,
        "lng": 119.2320784
      },
      "country": {
        "id": 228,
        "name": "INDONESIA",
        "code": "ID"
      },
      "id": 62080,
      "name": "Banato Rejo",
      "postcode": "91352",
      "lat": -3.3408481,
      "lng": 119.2407955
    },
    {
      "suburb": {
        "id": 5297,
        "name": "Matangnga",
        "lat": -3.1799696,
        "lng": 119.2088303
      },
      "city": {
        "id": 343,
        "name": "Polewali Mandar",
        "lat": -3.3419323,
        "lng": 119.1390642
      },
      "province": {
        "id": 27,
        "name": "Sulawesi Barat",
        "lat": -2.8441371,
        "lng": 119.2320784
      },
      "country": {
        "id": 228,
        "name": "INDONESIA",
        "code": "ID"
      },
      "id": 62081,
      "name": "Baba Tapua",
      "postcode": "91352",
      "lat": -3.2817442,
      "lng": 119.2146426
    },
    {
      "suburb": {
        "id": 5295,
        "name": "Wonomulyo",
        "lat": -3.4185746,
        "lng": 119.2437011
      },
      "city": {
        "id": 343,
        "name": "Polewali Mandar",
        "lat": -3.3419323,
        "lng": 119.1390642
      },
      "province": {
        "id": 27,
        "name": "Sulawesi Barat",
        "lat": -2.8441371,
        "lng": 119.2320784
      },
      "country": {
        "id": 228,
        "name": "INDONESIA",
        "code": "ID"
      },
      "id": 62082,
      "name": "Arjosari",
      "postcode": "91352",
      "lat": -3.4354195,
      "lng": 119.205924
    },
    {
      "suburb": {
        "id": 5299,
        "name": "Tapalang Barat",
        "lat": -2.7766933,
        "lng": 118.8014121
      },
      "city": {
        "id": 345,
        "name": "Mamuju",
        "lat": -2.7293364,
        "lng": 118.9295737
      },
      "province": {
        "id": 27,
        "name": "Sulawesi Barat",
        "lat": -2.8441371,
        "lng": 119.2320784
      },
      "country": {
        "id": 228,
        "name": "INDONESIA",
        "code": "ID"
      },
      "id": 62083,
      "name": "Ahu",
      "postcode": "91352",
      "lat": -2.8401714,
      "lng": 118.8159812
    },
    {
      "suburb": {
        "id": 5300,
        "name": "Binuang",
        "lat": -3.4208598,
        "lng": 119.4411476
      },
      "city": {
        "id": 343,
        "name": "Polewali Mandar",
        "lat": -3.3419323,
        "lng": 119.1390642
      },
      "province": {
        "id": 27,
        "name": "Sulawesi Barat",
        "lat": -2.8441371,
        "lng": 119.2320784
      },
      "country": {
        "id": 228,
        "name": "INDONESIA",
        "code": "ID"
      },
      "id": 62085,
      "name": "Paku",
      "postcode": "91351",
      "lat": -3.477668,
      "lng": 119.4701613
    },
    {
      "suburb": {
        "id": 5301,
        "name": "Polewali",
        "lat": -3.4154725,
        "lng": 119.3366501
      },
      "city": {
        "id": 343,
        "name": "Polewali Mandar",
        "lat": -3.3419323,
        "lng": 119.1390642
      },
      "province": {
        "id": 27,
        "name": "Sulawesi Barat",
        "lat": -2.8441371,
        "lng": 119.2320784
      },
      "country": {
        "id": 228,
        "name": "INDONESIA",
        "code": "ID"
      },
      "id": 62086,
      "name": "Wattang",
      "postcode": "91315",
      "lat": -3.4295861,
      "lng": 119.3468128
    },
    {
      "suburb": {
        "id": 5301,
        "name": "Polewali",
        "lat": -3.4154725,
        "lng": 119.3366501
      },
      "city": {
        "id": 343,
        "name": "Polewali Mandar",
        "lat": -3.3419323,
        "lng": 119.1390642
      },
      "province": {
        "id": 27,
        "name": "Sulawesi Barat",
        "lat": -2.8441371,
        "lng": 119.2320784
      },
      "country": {
        "id": 228,
        "name": "INDONESIA",
        "code": "ID"
      },
      "id": 62087,
      "name": "Madatte",
      "postcode": "91315",
      "lat": -3.4054204,
      "lng": 119.3047055
    },
    {
      "suburb": {
        "id": 5301,
        "name": "Polewali",
        "lat": -3.4154725,
        "lng": 119.3366501
      },
      "city": {
        "id": 343,
        "name": "Polewali Mandar",
        "lat": -3.3419323,
        "lng": 119.1390642
      },
      "province": {
        "id": 27,
        "name": "Sulawesi Barat",
        "lat": -2.8441371,
        "lng": 119.2320784
      },
      "country": {
        "id": 228,
        "name": "INDONESIA",
        "code": "ID"
      },
      "id": 62088,
      "name": "Sulewatang",
      "postcode": "91315",
      "lat": -3.4129581,
      "lng": 119.3453611
    },
    {
      "suburb": {
        "id": 5302,
        "name": "Anreapi",
        "lat": -3.3513534,
        "lng": 119.3947135
      },
      "city": {
        "id": 343,
        "name": "Polewali Mandar",
        "lat": -3.3419323,
        "lng": 119.1390642
      },
      "province": {
        "id": 27,
        "name": "Sulawesi Barat",
        "lat": -2.8441371,
        "lng": 119.2320784
      },
      "country": {
        "id": 228,
        "name": "INDONESIA",
        "code": "ID"
      },
      "id": 62089,
      "name": "Pappandangan",
      "postcode": "91315",
      "lat": -3.3397513,
      "lng": 119.3424575
    },
    {
      "suburb": {
        "id": 5302,
        "name": "Anreapi",
        "lat": -3.3513534,
        "lng": 119.3947135
      },
      "city": {
        "id": 343,
        "name": "Polewali Mandar",
        "lat": -3.3419323,
        "lng": 119.1390642
      },
      "province": {
        "id": 27,
        "name": "Sulawesi Barat",
        "lat": -2.8441371,
        "lng": 119.2320784
      },
      "country": {
        "id": 228,
        "name": "INDONESIA",
        "code": "ID"
      },
      "id": 62090,
      "name": "Kelapa Dua",
      "postcode": "91315",
      "lat": -3.3301167,
      "lng": 119.3656846
    },
    {
      "suburb": {
        "id": 5302,
        "name": "Anreapi",
        "lat": -3.3513534,
        "lng": 119.3947135
      },
      "city": {
        "id": 343,
        "name": "Polewali Mandar",
        "lat": -3.3419323,
        "lng": 119.1390642
      },
      "province": {
        "id": 27,
        "name": "Sulawesi Barat",
        "lat": -2.8441371,
        "lng": 119.2320784
      },
      "country": {
        "id": 228,
        "name": "INDONESIA",
        "code": "ID"
      },
      "id": 62091,
      "name": "Kunyi",
      "postcode": "91315",
      "lat": -3.3420976,
      "lng": 119.4063234
    },
    {
      "suburb": {
        "id": 5302,
        "name": "Anreapi",
        "lat": -3.3513534,
        "lng": 119.3947135
      },
      "city": {
        "id": 343,
        "name": "Polewali Mandar",
        "lat": -3.3419323,
        "lng": 119.1390642
      },
      "province": {
        "id": 27,
        "name": "Sulawesi Barat",
        "lat": -2.8441371,
        "lng": 119.2320784
      },
      "country": {
        "id": 228,
        "name": "INDONESIA",
        "code": "ID"
      },
      "id": 62092,
      "name": "Anreapi",
      "postcode": "91315",
      "lat": -3.3837783,
      "lng": 119.3540715
    },
    {
      "suburb": {
        "id": 5302,
        "name": "Anreapi",
        "lat": -3.3513534,
        "lng": 119.3947135
      },
      "city": {
        "id": 343,
        "name": "Polewali Mandar",
        "lat": -3.3419323,
        "lng": 119.1390642
      },
      "province": {
        "id": 27,
        "name": "Sulawesi Barat",
        "lat": -2.8441371,
        "lng": 119.2320784
      },
      "country": {
        "id": 228,
        "name": "INDONESIA",
        "code": "ID"
      },
      "id": 62093,
      "name": "Duampanua",
      "postcode": "91315",
      "lat": -3.3756608,
      "lng": 119.3308425
    },
    {
      "suburb": {
        "id": 5301,
        "name": "Polewali",
        "lat": -3.4154725,
        "lng": 119.3366501
      },
      "city": {
        "id": 343,
        "name": "Polewali Mandar",
        "lat": -3.3419323,
        "lng": 119.1390642
      },
      "province": {
        "id": 27,
        "name": "Sulawesi Barat",
        "lat": -2.8441371,
        "lng": 119.2320784
      },
      "country": {
        "id": 228,
        "name": "INDONESIA",
        "code": "ID"
      },
      "id": 62094,
      "name": "Darma",
      "postcode": "91314",
      "lat": -3.400201,
      "lng": 119.3279386
    },
    {
      "suburb": {
        "id": 5301,
        "name": "Polewali",
        "lat": -3.4154725,
        "lng": 119.3366501
      },
      "city": {
        "id": 343,
        "name": "Polewali Mandar",
        "lat": -3.3419323,
        "lng": 119.1390642
      },
      "province": {
        "id": 27,
        "name": "Sulawesi Barat",
        "lat": -2.8441371,
        "lng": 119.2320784
      },
      "country": {
        "id": 228,
        "name": "INDONESIA",
        "code": "ID"
      },
      "id": 62096,
      "name": "Lantora",
      "postcode": "91313",
      "lat": -3.4232066,
      "lng": 119.338102
    },
    {
      "suburb": {
        "id": 5300,
        "name": "Binuang",
        "lat": -3.4208598,
        "lng": 119.4411476
      },
      "city": {
        "id": 343,
        "name": "Polewali Mandar",
        "lat": -3.3419323,
        "lng": 119.1390642
      },
      "province": {
        "id": 27,
        "name": "Sulawesi Barat",
        "lat": -2.8441371,
        "lng": 119.2320784
      },
      "country": {
        "id": 228,
        "name": "INDONESIA",
        "code": "ID"
      },
      "id": 62097,
      "name": "Mirring",
      "postcode": "91312",
      "lat": -3.4428853,
      "lng": 119.4469508
    },
    {
      "suburb": {
        "id": 5300,
        "name": "Binuang",
        "lat": -3.4208598,
        "lng": 119.4411476
      },
      "city": {
        "id": 343,
        "name": "Polewali Mandar",
        "lat": -3.3419323,
        "lng": 119.1390642
      },
      "province": {
        "id": 27,
        "name": "Sulawesi Barat",
        "lat": -2.8441371,
        "lng": 119.2320784
      },
      "country": {
        "id": 228,
        "name": "INDONESIA",
        "code": "ID"
      },
      "id": 62098,
      "name": "Rea",
      "postcode": "91312",
      "lat": -3.4448478,
      "lng": 119.3889082
    },
    {
      "suburb": {
        "id": 5300,
        "name": "Binuang",
        "lat": -3.4208598,
        "lng": 119.4411476
      },
      "city": {
        "id": 343,
        "name": "Polewali Mandar",
        "lat": -3.3419323,
        "lng": 119.1390642
      },
      "province": {
        "id": 27,
        "name": "Sulawesi Barat",
        "lat": -2.8441371,
        "lng": 119.2320784
      },
      "country": {
        "id": 228,
        "name": "INDONESIA",
        "code": "ID"
      },
      "id": 62099,
      "name": "Amola",
      "postcode": "91312",
      "lat": -3.4399756,
      "lng": 119.4672602
    },
    {
      "suburb": {
        "id": 5300,
        "name": "Binuang",
        "lat": -3.4208598,
        "lng": 119.4411476
      },
      "city": {
        "id": 343,
        "name": "Polewali Mandar",
        "lat": -3.3419323,
        "lng": 119.1390642
      },
      "province": {
        "id": 27,
        "name": "Sulawesi Barat",
        "lat": -2.8441371,
        "lng": 119.2320784
      },
      "country": {
        "id": 228,
        "name": "INDONESIA",
        "code": "ID"
      },
      "id": 62100,
      "name": "Batetangnga",
      "postcode": "91312",
      "lat": -3.4131412,
      "lng": 119.4063234
    },
    {
      "suburb": {
        "id": 5300,
        "name": "Binuang",
        "lat": -3.4208598,
        "lng": 119.4411476
      },
      "city": {
        "id": 343,
        "name": "Polewali Mandar",
        "lat": -3.3419323,
        "lng": 119.1390642
      },
      "province": {
        "id": 27,
        "name": "Sulawesi Barat",
        "lat": -2.8441371,
        "lng": 119.2320784
      },
      "country": {
        "id": 228,
        "name": "INDONESIA",
        "code": "ID"
      },
      "id": 62101,
      "name": "Kaleok",
      "postcode": "91312",
      "lat": -3.3895748,
      "lng": 119.4469508
    },
    {
      "suburb": {
        "id": 5300,
        "name": "Binuang",
        "lat": -3.4208598,
        "lng": 119.4411476
      },
      "city": {
        "id": 343,
        "name": "Polewali Mandar",
        "lat": -3.3419323,
        "lng": 119.1390642
      },
      "province": {
        "id": 27,
        "name": "Sulawesi Barat",
        "lat": -2.8441371,
        "lng": 119.2320784
      },
      "country": {
        "id": 228,
        "name": "INDONESIA",
        "code": "ID"
      },
      "id": 62102,
      "name": "Amassangan",
      "postcode": "91312",
      "lat": -3.4529576,
      "lng": 119.412128
    },
    {
      "suburb": {
        "id": 5301,
        "name": "Polewali",
        "lat": -3.4154725,
        "lng": 119.3366501
      },
      "city": {
        "id": 343,
        "name": "Polewali Mandar",
        "lat": -3.3419323,
        "lng": 119.1390642
      },
      "province": {
        "id": 27,
        "name": "Sulawesi Barat",
        "lat": -2.8441371,
        "lng": 119.2320784
      },
      "country": {
        "id": 228,
        "name": "INDONESIA",
        "code": "ID"
      },
      "id": 62103,
      "name": "Takatidung",
      "postcode": "91311",
      "lat": -3.422435,
      "lng": 119.3279386
    },
    {
      "suburb": {
        "id": 5301,
        "name": "Polewali",
        "lat": -3.4154725,
        "lng": 119.3366501
      },
      "city": {
        "id": 343,
        "name": "Polewali Mandar",
        "lat": -3.3419323,
        "lng": 119.1390642
      },
      "province": {
        "id": 27,
        "name": "Sulawesi Barat",
        "lat": -2.8441371,
        "lng": 119.2320784
      },
      "country": {
        "id": 228,
        "name": "INDONESIA",
        "code": "ID"
      },
      "id": 62104,
      "name": "Pekkabata",
      "postcode": "91311",
      "lat": -3.4129613,
      "lng": 119.3119662
    },
    {
      "suburb": {
        "id": 5301,
        "name": "Polewali",
        "lat": -3.4154725,
        "lng": 119.3366501
      },
      "city": {
        "id": 343,
        "name": "Polewali Mandar",
        "lat": -3.3419323,
        "lng": 119.1390642
      },
      "province": {
        "id": 27,
        "name": "Sulawesi Barat",
        "lat": -2.8441371,
        "lng": 119.2320784
      },
      "country": {
        "id": 228,
        "name": "INDONESIA",
        "code": "ID"
      },
      "id": 62105,
      "name": "Polewali",
      "postcode": "91311",
      "lat": -3.4349998,
      "lng": 119.3511681
    },
    {
      "suburb": {
        "id": 5301,
        "name": "Polewali",
        "lat": -3.4154725,
        "lng": 119.3366501
      },
      "city": {
        "id": 343,
        "name": "Polewali Mandar",
        "lat": -3.3419323,
        "lng": 119.1390642
      },
      "province": {
        "id": 27,
        "name": "Sulawesi Barat",
        "lat": -2.8441371,
        "lng": 119.2320784
      },
      "country": {
        "id": 228,
        "name": "INDONESIA",
        "code": "ID"
      },
      "id": 62106,
      "name": "Manding",
      "postcode": "91311",
      "lat": -3.4187638,
      "lng": 119.3047055
    },
    {
      "suburb": {
        "id": 5300,
        "name": "Binuang",
        "lat": -3.4208598,
        "lng": 119.4411476
      },
      "city": {
        "id": 343,
        "name": "Polewali Mandar",
        "lat": -3.3419323,
        "lng": 119.1390642
      },
      "province": {
        "id": 27,
        "name": "Sulawesi Barat",
        "lat": -2.8441371,
        "lng": 119.2320784
      },
      "country": {
        "id": 228,
        "name": "INDONESIA",
        "code": "ID"
      },
      "id": 62107,
      "name": "Mammi",
      "postcode": "91311",
      "lat": -3.4100562,
      "lng": 119.3656846
    },
    {
      "suburb": {
        "id": 5303,
        "name": "Angkona",
        "lat": -2.5023655,
        "lng": 120.9646866
      },
      "city": {
        "id": 348,
        "name": "Luwu Timur",
        "lat": -2.5825518,
        "lng": 121.1710389
      },
      "province": {
        "id": 28,
        "name": "Sulawesi Selatan",
        "lat": -3.6687994,
        "lng": 119.9740534
      },
      "country": {
        "id": 228,
        "name": "INDONESIA",
        "code": "ID"
      },
      "id": 62108,
      "name": "Watangpanua",
      "postcode": "92985",
      "lat": -2.5023655,
      "lng": 120.9646866
    },
    {
      "suburb": {
        "id": 5303,
        "name": "Angkona",
        "lat": -2.5023655,
        "lng": 120.9646866
      },
      "city": {
        "id": 348,
        "name": "Luwu Timur",
        "lat": -2.5825518,
        "lng": 121.1710389
      },
      "province": {
        "id": 28,
        "name": "Sulawesi Selatan",
        "lat": -3.6687994,
        "lng": 119.9740534
      },
      "country": {
        "id": 228,
        "name": "INDONESIA",
        "code": "ID"
      },
      "id": 62109,
      "name": "Tawakua",
      "postcode": "92985",
      "lat": -2.4934974,
      "lng": 120.9761599
    },
    {
      "suburb": {
        "id": 5303,
        "name": "Angkona",
        "lat": -2.5023655,
        "lng": 120.9646866
      },
      "city": {
        "id": 348,
        "name": "Luwu Timur",
        "lat": -2.5825518,
        "lng": 121.1710389
      },
      "province": {
        "id": 28,
        "name": "Sulawesi Selatan",
        "lat": -3.6687994,
        "lng": 119.9740534
      },
      "country": {
        "id": 228,
        "name": "INDONESIA",
        "code": "ID"
      },
      "id": 62110,
      "name": "Wanasari",
      "postcode": "92985",
      "lat": -2.5023655,
      "lng": 120.9646866
    },
    {
      "suburb": {
        "id": 5303,
        "name": "Angkona",
        "lat": -2.5023655,
        "lng": 120.9646866
      },
      "city": {
        "id": 348,
        "name": "Luwu Timur",
        "lat": -2.5825518,
        "lng": 121.1710389
      },
      "province": {
        "id": 28,
        "name": "Sulawesi Selatan",
        "lat": -3.6687994,
        "lng": 119.9740534
      },
      "country": {
        "id": 228,
        "name": "INDONESIA",
        "code": "ID"
      },
      "id": 62111,
      "name": "Taripa",
      "postcode": "92985",
      "lat": -2.4096545,
      "lng": 120.907304
    },
    {
      "suburb": {
        "id": 5303,
        "name": "Angkona",
        "lat": -2.5023655,
        "lng": 120.9646866
      },
      "city": {
        "id": 348,
        "name": "Luwu Timur",
        "lat": -2.5825518,
        "lng": 121.1710389
      },
      "province": {
        "id": 28,
        "name": "Sulawesi Selatan",
        "lat": -3.6687994,
        "lng": 119.9740534
      },
      "country": {
        "id": 228,
        "name": "INDONESIA",
        "code": "ID"
      },
      "id": 62112,
      "name": "Solo",
      "postcode": "92985",
      "lat": -2.5499853,
      "lng": 120.9474747
    },
    {
      "suburb": {
        "id": 5303,
        "name": "Angkona",
        "lat": -2.5023655,
        "lng": 120.9646866
      },
      "city": {
        "id": 348,
        "name": "Luwu Timur",
        "lat": -2.5825518,
        "lng": 121.1710389
      },
      "province": {
        "id": 28,
        "name": "Sulawesi Selatan",
        "lat": -3.6687994,
        "lng": 119.9740534
      },
      "country": {
        "id": 228,
        "name": "INDONESIA",
        "code": "ID"
      },
      "id": 62113,
      "name": "Tampinna",
      "postcode": "92985",
      "lat": -2.6180662,
      "lng": 120.9704234
    },
    {
      "suburb": {
        "id": 5303,
        "name": "Angkona",
        "lat": -2.5023655,
        "lng": 120.9646866
      },
      "city": {
        "id": 348,
        "name": "Luwu Timur",
        "lat": -2.5825518,
        "lng": 121.1710389
      },
      "province": {
        "id": 28,
        "name": "Sulawesi Selatan",
        "lat": -3.6687994,
        "lng": 119.9740534
      },
      "country": {
        "id": 228,
        "name": "INDONESIA",
        "code": "ID"
      },
      "id": 62114,
      "name": "Maliwowo",
      "postcode": "92985",
      "lat": -2.6148669,
      "lng": 120.9302603
    },
    {
      "suburb": {
        "id": 5303,
        "name": "Angkona",
        "lat": -2.5023655,
        "lng": 120.9646866
      },
      "city": {
        "id": 348,
        "name": "Luwu Timur",
        "lat": -2.5825518,
        "lng": 121.1710389
      },
      "province": {
        "id": 28,
        "name": "Sulawesi Selatan",
        "lat": -3.6687994,
        "lng": 119.9740534
      },
      "country": {
        "id": 228,
        "name": "INDONESIA",
        "code": "ID"
      },
      "id": 62115,
      "name": "Mantadulu",
      "postcode": "92985",
      "lat": -2.4604253,
      "lng": 120.9302603
    },
    {
      "suburb": {
        "id": 5303,
        "name": "Angkona",
        "lat": -2.5023655,
        "lng": 120.9646866
      },
      "city": {
        "id": 348,
        "name": "Luwu Timur",
        "lat": -2.5825518,
        "lng": 121.1710389
      },
      "province": {
        "id": 28,
        "name": "Sulawesi Selatan",
        "lat": -3.6687994,
        "lng": 119.9740534
      },
      "country": {
        "id": 228,
        "name": "INDONESIA",
        "code": "ID"
      },
      "id": 62116,
      "name": "Balirejo",
      "postcode": "92985",
      "lat": -2.516278,
      "lng": 120.9245216
    },
    {
      "suburb": {
        "id": 5303,
        "name": "Angkona",
        "lat": -2.5023655,
        "lng": 120.9646866
      },
      "city": {
        "id": 348,
        "name": "Luwu Timur",
        "lat": -2.5825518,
        "lng": 121.1710389
      },
      "province": {
        "id": 28,
        "name": "Sulawesi Selatan",
        "lat": -3.6687994,
        "lng": 119.9740534
      },
      "country": {
        "id": 228,
        "name": "INDONESIA",
        "code": "ID"
      },
      "id": 62117,
      "name": "Lamaeto",
      "postcode": "92985",
      "lat": -2.5757375,
      "lng": 120.9474747
    },
    {
      "suburb": {
        "id": 5304,
        "name": "Wasuponda",
        "lat": -2.2807233,
        "lng": 120.9417368
      },
      "city": {
        "id": 348,
        "name": "Luwu Timur",
        "lat": -2.5825518,
        "lng": 121.1710389
      },
      "province": {
        "id": 28,
        "name": "Sulawesi Selatan",
        "lat": -3.6687994,
        "lng": 119.9740534
      },
      "country": {
        "id": 228,
        "name": "INDONESIA",
        "code": "ID"
      },
      "id": 62118,
      "name": "Wasuponda",
      "postcode": "92983",
      "lat": -2.5906788,
      "lng": 121.2654979
    },
    {
      "suburb": {
        "id": 5304,
        "name": "Wasuponda",
        "lat": -2.2807233,
        "lng": 120.9417368
      },
      "city": {
        "id": 348,
        "name": "Luwu Timur",
        "lat": -2.5825518,
        "lng": 121.1710389
      },
      "province": {
        "id": 28,
        "name": "Sulawesi Selatan",
        "lat": -3.6687994,
        "lng": 119.9740534
      },
      "country": {
        "id": 228,
        "name": "INDONESIA",
        "code": "ID"
      },
      "id": 62119,
      "name": "Tabarano",
      "postcode": "92983",
      "lat": -2.6047991,
      "lng": 121.2969674
    },
    {
      "suburb": {
        "id": 5305,
        "name": "Nuha",
        "lat": -2.4762506,
        "lng": 121.3084088
      },
      "city": {
        "id": 348,
        "name": "Luwu Timur",
        "lat": -2.5825518,
        "lng": 121.1710389
      },
      "province": {
        "id": 28,
        "name": "Sulawesi Selatan",
        "lat": -3.6687994,
        "lng": 119.9740534
      },
      "country": {
        "id": 228,
        "name": "INDONESIA",
        "code": "ID"
      },
      "id": 62120,
      "name": "Soroako/Soroaku",
      "postcode": "92983",
      "lat": -2.5509715,
      "lng": 121.3884671
    },
    {
      "suburb": {
        "id": 5304,
        "name": "Wasuponda",
        "lat": -2.2807233,
        "lng": 120.9417368
      },
      "city": {
        "id": 348,
        "name": "Luwu Timur",
        "lat": -2.5825518,
        "lng": 121.1710389
      },
      "province": {
        "id": 28,
        "name": "Sulawesi Selatan",
        "lat": -3.6687994,
        "lng": 119.9740534
      },
      "country": {
        "id": 228,
        "name": "INDONESIA",
        "code": "ID"
      },
      "id": 62121,
      "name": "Parumpanai",
      "postcode": "92983",
      "lat": -2.2807233,
      "lng": 120.9417368
    },
    {
      "suburb": {
        "id": 5305,
        "name": "Nuha",
        "lat": -2.4762506,
        "lng": 121.3084088
      },
      "city": {
        "id": 348,
        "name": "Luwu Timur",
        "lat": -2.5825518,
        "lng": 121.1710389
      },
      "province": {
        "id": 28,
        "name": "Sulawesi Selatan",
        "lat": -3.6687994,
        "lng": 119.9740534
      },
      "country": {
        "id": 228,
        "name": "INDONESIA",
        "code": "ID"
      },
      "id": 62122,
      "name": "Nikkel/Nekkel",
      "postcode": "92983",
      "lat": -2.5203762,
      "lng": 121.3548779
    },
    {
      "suburb": {
        "id": 5305,
        "name": "Nuha",
        "lat": -2.4762506,
        "lng": 121.3084088
      },
      "city": {
        "id": 348,
        "name": "Luwu Timur",
        "lat": -2.5825518,
        "lng": 121.1710389
      },
      "province": {
        "id": 28,
        "name": "Sulawesi Selatan",
        "lat": -3.6687994,
        "lng": 119.9740534
      },
      "country": {
        "id": 228,
        "name": "INDONESIA",
        "code": "ID"
      },
      "id": 62123,
      "name": "Nuha",
      "postcode": "92983",
      "lat": -2.4550011,
      "lng": 121.4684703
    },
    {
      "suburb": {
        "id": 5305,
        "name": "Nuha",
        "lat": -2.4762506,
        "lng": 121.3084088
      },
      "city": {
        "id": 348,
        "name": "Luwu Timur",
        "lat": -2.5825518,
        "lng": 121.1710389
      },
      "province": {
        "id": 28,
        "name": "Sulawesi Selatan",
        "lat": -3.6687994,
        "lng": 119.9740534
      },
      "country": {
        "id": 228,
        "name": "INDONESIA",
        "code": "ID"
      },
      "id": 62124,
      "name": "Magani",
      "postcode": "92983",
      "lat": -2.5192546,
      "lng": 121.2969674
    },
    {
      "suburb": {
        "id": 5305,
        "name": "Nuha",
        "lat": -2.4762506,
        "lng": 121.3084088
      },
      "city": {
        "id": 348,
        "name": "Luwu Timur",
        "lat": -2.5825518,
        "lng": 121.1710389
      },
      "province": {
        "id": 28,
        "name": "Sulawesi Selatan",
        "lat": -3.6687994,
        "lng": 119.9740534
      },
      "country": {
        "id": 228,
        "name": "INDONESIA",
        "code": "ID"
      },
      "id": 62125,
      "name": "Matano",
      "postcode": "92983",
      "lat": -2.3950449,
      "lng": 121.1481284
    },
    {
      "suburb": {
        "id": 5304,
        "name": "Wasuponda",
        "lat": -2.2807233,
        "lng": 120.9417368
      },
      "city": {
        "id": 348,
        "name": "Luwu Timur",
        "lat": -2.5825518,
        "lng": 121.1710389
      },
      "province": {
        "id": 28,
        "name": "Sulawesi Selatan",
        "lat": -3.6687994,
        "lng": 119.9740534
      },
      "country": {
        "id": 228,
        "name": "INDONESIA",
        "code": "ID"
      },
      "id": 62126,
      "name": "Kawata",
      "postcode": "92983",
      "lat": -2.5317791,
      "lng": 121.1481284
    },
    {
      "suburb": {
        "id": 5304,
        "name": "Wasuponda",
        "lat": -2.2807233,
        "lng": 120.9417368
      },
      "city": {
        "id": 348,
        "name": "Luwu Timur",
        "lat": -2.5825518,
        "lng": 121.1710389
      },
      "province": {
        "id": 28,
        "name": "Sulawesi Selatan",
        "lat": -3.6687994,
        "lng": 119.9740534
      },
      "country": {
        "id": 228,
        "name": "INDONESIA",
        "code": "ID"
      },
      "id": 62127,
      "name": "Ledu-Ledu",
      "postcode": "92983",
      "lat": -2.5718054,
      "lng": 121.2511908
    },
    {
      "suburb": {
        "id": 5306,
        "name": "Towuti",
        "lat": -2.60542,
        "lng": 121.5826642
      },
      "city": {
        "id": 348,
        "name": "Luwu Timur",
        "lat": -2.5825518,
        "lng": 121.1710389
      },
      "province": {
        "id": 28,
        "name": "Sulawesi Selatan",
        "lat": -3.6687994,
        "lng": 119.9740534
      },
      "country": {
        "id": 228,
        "name": "INDONESIA",
        "code": "ID"
      },
      "id": 62128,
      "name": "Wawondula",
      "postcode": "92982",
      "lat": -2.6356797,
      "lng": 121.3697296
    },
    {
      "suburb": {
        "id": 5304,
        "name": "Wasuponda",
        "lat": -2.2807233,
        "lng": 120.9417368
      },
      "city": {
        "id": 348,
        "name": "Luwu Timur",
        "lat": -2.5825518,
        "lng": 121.1710389
      },
      "province": {
        "id": 28,
        "name": "Sulawesi Selatan",
        "lat": -3.6687994,
        "lng": 119.9740534
      },
      "country": {
        "id": 228,
        "name": "INDONESIA",
        "code": "ID"
      },
      "id": 62129,
      "name": "Balambano",
      "postcode": "92983",
      "lat": -2.6320917,
      "lng": 121.2397438
    },
    {
      "suburb": {
        "id": 5306,
        "name": "Towuti",
        "lat": -2.60542,
        "lng": 121.5826642
      },
      "city": {
        "id": 348,
        "name": "Luwu Timur",
        "lat": -2.5825518,
        "lng": 121.1710389
      },
      "province": {
        "id": 28,
        "name": "Sulawesi Selatan",
        "lat": -3.6687994,
        "lng": 119.9740534
      },
      "country": {
        "id": 228,
        "name": "INDONESIA",
        "code": "ID"
      },
      "id": 62130,
      "name": "Tokalimbo",
      "postcode": "92982",
      "lat": -2.9707439,
      "lng": 121.422761
    },
    {
      "suburb": {
        "id": 5306,
        "name": "Towuti",
        "lat": -2.60542,
        "lng": 121.5826642
      },
      "city": {
        "id": 348,
        "name": "Luwu Timur",
        "lat": -2.5825518,
        "lng": 121.1710389
      },
      "province": {
        "id": 28,
        "name": "Sulawesi Selatan",
        "lat": -3.6687994,
        "lng": 119.9740534
      },
      "country": {
        "id": 228,
        "name": "INDONESIA",
        "code": "ID"
      },
      "id": 62131,
      "name": "Tole",
      "postcode": "92982",
      "lat": -2.60542,
      "lng": 121.5826642
    },
    {
      "suburb": {
        "id": 5306,
        "name": "Towuti",
        "lat": -2.60542,
        "lng": 121.5826642
      },
      "city": {
        "id": 348,
        "name": "Luwu Timur",
        "lat": -2.5825518,
        "lng": 121.1710389
      },
      "province": {
        "id": 28,
        "name": "Sulawesi Selatan",
        "lat": -3.6687994,
        "lng": 119.9740534
      },
      "country": {
        "id": 228,
        "name": "INDONESIA",
        "code": "ID"
      },
      "id": 62132,
      "name": "Timampu",
      "postcode": "92982",
      "lat": -2.7311367,
      "lng": 121.3770336
    },
    {
      "suburb": {
        "id": 5306,
        "name": "Towuti",
        "lat": -2.60542,
        "lng": 121.5826642
      },
      "city": {
        "id": 348,
        "name": "Luwu Timur",
        "lat": -2.5825518,
        "lng": 121.1710389
      },
      "province": {
        "id": 28,
        "name": "Sulawesi Selatan",
        "lat": -3.6687994,
        "lng": 119.9740534
      },
      "country": {
        "id": 228,
        "name": "INDONESIA",
        "code": "ID"
      },
      "id": 62133,
      "name": "Matompi",
      "postcode": "92982",
      "lat": -2.60542,
      "lng": 121.5826642
    },
    {
      "suburb": {
        "id": 5306,
        "name": "Towuti",
        "lat": -2.60542,
        "lng": 121.5826642
      },
      "city": {
        "id": 348,
        "name": "Luwu Timur",
        "lat": -2.5825518,
        "lng": 121.1710389
      },
      "province": {
        "id": 28,
        "name": "Sulawesi Selatan",
        "lat": -3.6687994,
        "lng": 119.9740534
      },
      "country": {
        "id": 228,
        "name": "INDONESIA",
        "code": "ID"
      },
      "id": 62134,
      "name": "Pekaloa",
      "postcode": "92982",
      "lat": -2.6174726,
      "lng": 121.4570447
    },
    {
      "suburb": {
        "id": 5306,
        "name": "Towuti",
        "lat": -2.60542,
        "lng": 121.5826642
      },
      "city": {
        "id": 348,
        "name": "Luwu Timur",
        "lat": -2.5825518,
        "lng": 121.1710389
      },
      "province": {
        "id": 28,
        "name": "Sulawesi Selatan",
        "lat": -3.6687994,
        "lng": 119.9740534
      },
      "country": {
        "id": 228,
        "name": "INDONESIA",
        "code": "ID"
      },
      "id": 62135,
      "name": "Rante Angin",
      "postcode": "92982",
      "lat": -2.7560464,
      "lng": 121.6967438
    },
    {
      "suburb": {
        "id": 5306,
        "name": "Towuti",
        "lat": -2.60542,
        "lng": 121.5826642
      },
      "city": {
        "id": 348,
        "name": "Luwu Timur",
        "lat": -2.5825518,
        "lng": 121.1710389
      },
      "province": {
        "id": 28,
        "name": "Sulawesi Selatan",
        "lat": -3.6687994,
        "lng": 119.9740534
      },
      "country": {
        "id": 228,
        "name": "INDONESIA",
        "code": "ID"
      },
      "id": 62136,
      "name": "Mahalona",
      "postcode": "92982",
      "lat": -2.5371627,
      "lng": 121.5826642
    },
    {
      "suburb": {
        "id": 5306,
        "name": "Towuti",
        "lat": -2.60542,
        "lng": 121.5826642
      },
      "city": {
        "id": 348,
        "name": "Luwu Timur",
        "lat": -2.5825518,
        "lng": 121.1710389
      },
      "province": {
        "id": 28,
        "name": "Sulawesi Selatan",
        "lat": -3.6687994,
        "lng": 119.9740534
      },
      "country": {
        "id": 228,
        "name": "INDONESIA",
        "code": "ID"
      },
      "id": 62137,
      "name": "Masiku",
      "postcode": "92982",
      "lat": -2.8692589,
      "lng": 121.6397184
    },
    {
      "suburb": {
        "id": 5306,
        "name": "Towuti",
        "lat": -2.60542,
        "lng": 121.5826642
      },
      "city": {
        "id": 348,
        "name": "Luwu Timur",
        "lat": -2.5825518,
        "lng": 121.1710389
      },
      "province": {
        "id": 28,
        "name": "Sulawesi Selatan",
        "lat": -3.6687994,
        "lng": 119.9740534
      },
      "country": {
        "id": 228,
        "name": "INDONESIA",
        "code": "ID"
      },
      "id": 62138,
      "name": "Lioka",
      "postcode": "92982",
      "lat": -2.638428,
      "lng": 121.3198491
    },
    {
      "suburb": {
        "id": 5306,
        "name": "Towuti",
        "lat": -2.60542,
        "lng": 121.5826642
      },
      "city": {
        "id": 348,
        "name": "Luwu Timur",
        "lat": -2.5825518,
        "lng": 121.1710389
      },
      "province": {
        "id": 28,
        "name": "Sulawesi Selatan",
        "lat": -3.6687994,
        "lng": 119.9740534
      },
      "country": {
        "id": 228,
        "name": "INDONESIA",
        "code": "ID"
      },
      "id": 62139,
      "name": "Loeha",
      "postcode": "92982",
      "lat": -2.7731319,
      "lng": 121.5541264
    },
    {
      "suburb": {
        "id": 5306,
        "name": "Towuti",
        "lat": -2.60542,
        "lng": 121.5826642
      },
      "city": {
        "id": 348,
        "name": "Luwu Timur",
        "lat": -2.5825518,
        "lng": 121.1710389
      },
      "province": {
        "id": 28,
        "name": "Sulawesi Selatan",
        "lat": -3.6687994,
        "lng": 119.9740534
      },
      "country": {
        "id": 228,
        "name": "INDONESIA",
        "code": "ID"
      },
      "id": 62140,
      "name": "Langkea Raya",
      "postcode": "92982",
      "lat": -2.6421531,
      "lng": 121.3693701
    },
    {
      "suburb": {
        "id": 5306,
        "name": "Towuti",
        "lat": -2.60542,
        "lng": 121.5826642
      },
      "city": {
        "id": 348,
        "name": "Luwu Timur",
        "lat": -2.5825518,
        "lng": 121.1710389
      },
      "province": {
        "id": 28,
        "name": "Sulawesi Selatan",
        "lat": -3.6687994,
        "lng": 119.9740534
      },
      "country": {
        "id": 228,
        "name": "INDONESIA",
        "code": "ID"
      },
      "id": 62141,
      "name": "Libukan Mandiri",
      "postcode": "92982",
      "lat": -2.60542,
      "lng": 121.5826642
    },
    {
      "suburb": {
        "id": 5306,
        "name": "Towuti",
        "lat": -2.60542,
        "lng": 121.5826642
      },
      "city": {
        "id": 348,
        "name": "Luwu Timur",
        "lat": -2.5825518,
        "lng": 121.1710389
      },
      "province": {
        "id": 28,
        "name": "Sulawesi Selatan",
        "lat": -3.6687994,
        "lng": 119.9740534
      },
      "country": {
        "id": 228,
        "name": "INDONESIA",
        "code": "ID"
      },
      "id": 62142,
      "name": "Baruga",
      "postcode": "92982",
      "lat": -2.6587259,
      "lng": 121.3598812
    },
    {
      "suburb": {
        "id": 5306,
        "name": "Towuti",
        "lat": -2.60542,
        "lng": 121.5826642
      },
      "city": {
        "id": 348,
        "name": "Luwu Timur",
        "lat": -2.5825518,
        "lng": 121.1710389
      },
      "province": {
        "id": 28,
        "name": "Sulawesi Selatan",
        "lat": -3.6687994,
        "lng": 119.9740534
      },
      "country": {
        "id": 228,
        "name": "INDONESIA",
        "code": "ID"
      },
      "id": 62143,
      "name": "Buangin",
      "postcode": "92982",
      "lat": -2.5813907,
      "lng": 121.6026364
    },
    {
      "suburb": {
        "id": 5306,
        "name": "Towuti",
        "lat": -2.60542,
        "lng": 121.5826642
      },
      "city": {
        "id": 348,
        "name": "Luwu Timur",
        "lat": -2.5825518,
        "lng": 121.1710389
      },
      "province": {
        "id": 28,
        "name": "Sulawesi Selatan",
        "lat": -3.6687994,
        "lng": 119.9740534
      },
      "country": {
        "id": 228,
        "name": "INDONESIA",
        "code": "ID"
      },
      "id": 62144,
      "name": "Kalosi",
      "postcode": "92982",
      "lat": -2.60542,
      "lng": 121.5826642
    },
    {
      "suburb": {
        "id": 5306,
        "name": "Towuti",
        "lat": -2.60542,
        "lng": 121.5826642
      },
      "city": {
        "id": 348,
        "name": "Luwu Timur",
        "lat": -2.5825518,
        "lng": 121.1710389
      },
      "province": {
        "id": 28,
        "name": "Sulawesi Selatan",
        "lat": -3.6687994,
        "lng": 119.9740534
      },
      "country": {
        "id": 228,
        "name": "INDONESIA",
        "code": "ID"
      },
      "id": 62145,
      "name": "Asuli",
      "postcode": "92982",
      "lat": -2.6035353,
      "lng": 121.3427262
    },
    {
      "suburb": {
        "id": 5306,
        "name": "Towuti",
        "lat": -2.60542,
        "lng": 121.5826642
      },
      "city": {
        "id": 348,
        "name": "Luwu Timur",
        "lat": -2.5825518,
        "lng": 121.1710389
      },
      "province": {
        "id": 28,
        "name": "Sulawesi Selatan",
        "lat": -3.6687994,
        "lng": 119.9740534
      },
      "country": {
        "id": 228,
        "name": "INDONESIA",
        "code": "ID"
      },
      "id": 62146,
      "name": "Bantilang",
      "postcode": "92982",
      "lat": -2.871366,
      "lng": 121.57125
    },
    {
      "suburb": {
        "id": 5307,
        "name": "Malili",
        "lat": -2.7033561,
        "lng": 121.1481284
      },
      "city": {
        "id": 348,
        "name": "Luwu Timur",
        "lat": -2.5825518,
        "lng": 121.1710389
      },
      "province": {
        "id": 28,
        "name": "Sulawesi Selatan",
        "lat": -3.6687994,
        "lng": 119.9740534
      },
      "country": {
        "id": 228,
        "name": "INDONESIA",
        "code": "ID"
      },
      "id": 62147,
      "name": "Tarabbi",
      "postcode": "92981",
      "lat": -2.5437087,
      "lng": 121.0220422
    },
    {
      "suburb": {
        "id": 5307,
        "name": "Malili",
        "lat": -2.7033561,
        "lng": 121.1481284
      },
      "city": {
        "id": 348,
        "name": "Luwu Timur",
        "lat": -2.5825518,
        "lng": 121.1710389
      },
      "province": {
        "id": 28,
        "name": "Sulawesi Selatan",
        "lat": -3.6687994,
        "lng": 119.9740534
      },
      "country": {
        "id": 228,
        "name": "INDONESIA",
        "code": "ID"
      },
      "id": 62148,
      "name": "Manurung",
      "postcode": "92981",
      "lat": -2.6117289,
      "lng": 121.0449768
    },
    {
      "suburb": {
        "id": 5307,
        "name": "Malili",
        "lat": -2.7033561,
        "lng": 121.1481284
      },
      "city": {
        "id": 348,
        "name": "Luwu Timur",
        "lat": -2.5825518,
        "lng": 121.1710389
      },
      "province": {
        "id": 28,
        "name": "Sulawesi Selatan",
        "lat": -3.6687994,
        "lng": 119.9740534
      },
      "country": {
        "id": 228,
        "name": "INDONESIA",
        "code": "ID"
      },
      "id": 62149,
      "name": "Pongkeru",
      "postcode": "92981",
      "lat": -2.7460329,
      "lng": 121.1595842
    },
    {
      "suburb": {
        "id": 5307,
        "name": "Malili",
        "lat": -2.7033561,
        "lng": 121.1481284
      },
      "city": {
        "id": 348,
        "name": "Luwu Timur",
        "lat": -2.5825518,
        "lng": 121.1710389
      },
      "province": {
        "id": 28,
        "name": "Sulawesi Selatan",
        "lat": -3.6687994,
        "lng": 119.9740534
      },
      "country": {
        "id": 228,
        "name": "INDONESIA",
        "code": "ID"
      },
      "id": 62150,
      "name": "Harapan",
      "postcode": "92981",
      "lat": -2.7645804,
      "lng": 121.1137544
    },
    {
      "suburb": {
        "id": 5307,
        "name": "Malili",
        "lat": -2.7033561,
        "lng": 121.1481284
      },
      "city": {
        "id": 348,
        "name": "Luwu Timur",
        "lat": -2.5825518,
        "lng": 121.1710389
      },
      "province": {
        "id": 28,
        "name": "Sulawesi Selatan",
        "lat": -3.6687994,
        "lng": 119.9740534
      },
      "country": {
        "id": 228,
        "name": "INDONESIA",
        "code": "ID"
      },
      "id": 62151,
      "name": "Lakawali",
      "postcode": "92981",
      "lat": -2.5999452,
      "lng": 121.0048384
    },
    {
      "suburb": {
        "id": 5307,
        "name": "Malili",
        "lat": -2.7033561,
        "lng": 121.1481284
      },
      "city": {
        "id": 348,
        "name": "Luwu Timur",
        "lat": -2.5825518,
        "lng": 121.1710389
      },
      "province": {
        "id": 28,
        "name": "Sulawesi Selatan",
        "lat": -3.6687994,
        "lng": 119.9740534
      },
      "country": {
        "id": 228,
        "name": "INDONESIA",
        "code": "ID"
      },
      "id": 62152,
      "name": "Atue",
      "postcode": "92981",
      "lat": -2.542485,
      "lng": 121.067907
    },
    {
      "suburb": {
        "id": 5308,
        "name": "Burau",
        "lat": -2.5439433,
        "lng": 120.6890055
      },
      "city": {
        "id": 348,
        "name": "Luwu Timur",
        "lat": -2.5825518,
        "lng": 121.1710389
      },
      "province": {
        "id": 28,
        "name": "Sulawesi Selatan",
        "lat": -3.6687994,
        "lng": 119.9740534
      },
      "country": {
        "id": 228,
        "name": "INDONESIA",
        "code": "ID"
      },
      "id": 62153,
      "name": "Mabonta",
      "postcode": "92975",
      "lat": -2.6204962,
      "lng": 120.7234992
    },
    {
      "suburb": {
        "id": 5308,
        "name": "Burau",
        "lat": -2.5439433,
        "lng": 120.6890055
      },
      "city": {
        "id": 348,
        "name": "Luwu Timur",
        "lat": -2.5825518,
        "lng": 121.1710389
      },
      "province": {
        "id": 28,
        "name": "Sulawesi Selatan",
        "lat": -3.6687994,
        "lng": 119.9740534
      },
      "country": {
        "id": 228,
        "name": "INDONESIA",
        "code": "ID"
      },
      "id": 62154,
      "name": "Lewonu",
      "postcode": "92975",
      "lat": -2.5484974,
      "lng": 120.7608567
    },
    {
      "suburb": {
        "id": 5308,
        "name": "Burau",
        "lat": -2.5439433,
        "lng": 120.6890055
      },
      "city": {
        "id": 348,
        "name": "Luwu Timur",
        "lat": -2.5825518,
        "lng": 121.1710389
      },
      "province": {
        "id": 28,
        "name": "Sulawesi Selatan",
        "lat": -3.6687994,
        "lng": 119.9740534
      },
      "country": {
        "id": 228,
        "name": "INDONESIA",
        "code": "ID"
      },
      "id": 62155,
      "name": "Lumbewe",
      "postcode": "92975",
      "lat": -2.5893579,
      "lng": 120.6803806
    },
    {
      "suburb": {
        "id": 5308,
        "name": "Burau",
        "lat": -2.5439433,
        "lng": 120.6890055
      },
      "city": {
        "id": 348,
        "name": "Luwu Timur",
        "lat": -2.5825518,
        "lng": 121.1710389
      },
      "province": {
        "id": 28,
        "name": "Sulawesi Selatan",
        "lat": -3.6687994,
        "lng": 119.9740534
      },
      "country": {
        "id": 228,
        "name": "INDONESIA",
        "code": "ID"
      },
      "id": 62156,
      "name": "Laro",
      "postcode": "92975",
      "lat": -2.5751787,
      "lng": 120.7680395
    },
    {
      "suburb": {
        "id": 5308,
        "name": "Burau",
        "lat": -2.5439433,
        "lng": 120.6890055
      },
      "city": {
        "id": 348,
        "name": "Luwu Timur",
        "lat": -2.5825518,
        "lng": 121.1710389
      },
      "province": {
        "id": 28,
        "name": "Sulawesi Selatan",
        "lat": -3.6687994,
        "lng": 119.9740534
      },
      "country": {
        "id": 228,
        "name": "INDONESIA",
        "code": "ID"
      },
      "id": 62157,
      "name": "Lauwo",
      "postcode": "92975",
      "lat": -2.541605,
      "lng": 120.6142365
    },
    {
      "suburb": {
        "id": 5308,
        "name": "Burau",
        "lat": -2.5439433,
        "lng": 120.6890055
      },
      "city": {
        "id": 348,
        "name": "Luwu Timur",
        "lat": -2.5825518,
        "lng": 121.1710389
      },
      "province": {
        "id": 28,
        "name": "Sulawesi Selatan",
        "lat": -3.6687994,
        "lng": 119.9740534
      },
      "country": {
        "id": 228,
        "name": "INDONESIA",
        "code": "ID"
      },
      "id": 62158,
      "name": "Lambarese",
      "postcode": "92975",
      "lat": -2.5755225,
      "lng": 120.7148767
    },
    {
      "suburb": {
        "id": 5308,
        "name": "Burau",
        "lat": -2.5439433,
        "lng": 120.6890055
      },
      "city": {
        "id": 348,
        "name": "Luwu Timur",
        "lat": -2.5825518,
        "lng": 121.1710389
      },
      "province": {
        "id": 28,
        "name": "Sulawesi Selatan",
        "lat": -3.6687994,
        "lng": 119.9740534
      },
      "country": {
        "id": 228,
        "name": "INDONESIA",
        "code": "ID"
      },
      "id": 62159,
      "name": "Lanosi",
      "postcode": "92975",
      "lat": -2.5616996,
      "lng": 120.7493632
    },
    {
      "suburb": {
        "id": 5308,
        "name": "Burau",
        "lat": -2.5439433,
        "lng": 120.6890055
      },
      "city": {
        "id": 348,
        "name": "Luwu Timur",
        "lat": -2.5825518,
        "lng": 121.1710389
      },
      "province": {
        "id": 28,
        "name": "Sulawesi Selatan",
        "lat": -3.6687994,
        "lng": 119.9740534
      },
      "country": {
        "id": 228,
        "name": "INDONESIA",
        "code": "ID"
      },
      "id": 62160,
      "name": "Kalatiri",
      "postcode": "92975",
      "lat": -2.5439433,
      "lng": 120.6890055
    },
    {
      "suburb": {
        "id": 5308,
        "name": "Burau",
        "lat": -2.5439433,
        "lng": 120.6890055
      },
      "city": {
        "id": 348,
        "name": "Luwu Timur",
        "lat": -2.5825518,
        "lng": 121.1710389
      },
      "province": {
        "id": 28,
        "name": "Sulawesi Selatan",
        "lat": -3.6687994,
        "lng": 119.9740534
      },
      "country": {
        "id": 228,
        "name": "INDONESIA",
        "code": "ID"
      },
      "id": 62161,
      "name": "Lagego",
      "postcode": "92975",
      "lat": -2.5687495,
      "lng": 120.6458749
    },
    {
      "suburb": {
        "id": 5308,
        "name": "Burau",
        "lat": -2.5439433,
        "lng": 120.6890055
      },
      "city": {
        "id": 348,
        "name": "Luwu Timur",
        "lat": -2.5825518,
        "lng": 121.1710389
      },
      "province": {
        "id": 28,
        "name": "Sulawesi Selatan",
        "lat": -3.6687994,
        "lng": 119.9740534
      },
      "country": {
        "id": 228,
        "name": "INDONESIA",
        "code": "ID"
      },
      "id": 62162,
      "name": "Cendana",
      "postcode": "92975",
      "lat": -2.5184464,
      "lng": 120.6775054
    },
    {
      "suburb": {
        "id": 5308,
        "name": "Burau",
        "lat": -2.5439433,
        "lng": 120.6890055
      },
      "city": {
        "id": 348,
        "name": "Luwu Timur",
        "lat": -2.5825518,
        "lng": 121.1710389
      },
      "province": {
        "id": 28,
        "name": "Sulawesi Selatan",
        "lat": -3.6687994,
        "lng": 119.9740534
      },
      "country": {
        "id": 228,
        "name": "INDONESIA",
        "code": "ID"
      },
      "id": 62163,
      "name": "Harapan",
      "postcode": "92975",
      "lat": -2.5439433,
      "lng": 120.6890055
    },
    {
      "suburb": {
        "id": 5308,
        "name": "Burau",
        "lat": -2.5439433,
        "lng": 120.6890055
      },
      "city": {
        "id": 348,
        "name": "Luwu Timur",
        "lat": -2.5825518,
        "lng": 121.1710389
      },
      "province": {
        "id": 28,
        "name": "Sulawesi Selatan",
        "lat": -3.6687994,
        "lng": 119.9740534
      },
      "country": {
        "id": 228,
        "name": "INDONESIA",
        "code": "ID"
      },
      "id": 62164,
      "name": "Jalajja",
      "postcode": "92975",
      "lat": -2.5908174,
      "lng": 120.7062535
    },
    {
      "suburb": {
        "id": 5308,
        "name": "Burau",
        "lat": -2.5439433,
        "lng": 120.6890055
      },
      "city": {
        "id": 348,
        "name": "Luwu Timur",
        "lat": -2.5825518,
        "lng": 121.1710389
      },
      "province": {
        "id": 28,
        "name": "Sulawesi Selatan",
        "lat": -3.6687994,
        "lng": 119.9740534
      },
      "country": {
        "id": 228,
        "name": "INDONESIA",
        "code": "ID"
      },
      "id": 62165,
      "name": "Burau Pantai",
      "postcode": "92975",
      "lat": -2.6342046,
      "lng": 120.6947551
    },
    {
      "suburb": {
        "id": 5308,
        "name": "Burau",
        "lat": -2.5439433,
        "lng": 120.6890055
      },
      "city": {
        "id": 348,
        "name": "Luwu Timur",
        "lat": -2.5825518,
        "lng": 121.1710389
      },
      "province": {
        "id": 28,
        "name": "Sulawesi Selatan",
        "lat": -3.6687994,
        "lng": 119.9740534
      },
      "country": {
        "id": 228,
        "name": "INDONESIA",
        "code": "ID"
      },
      "id": 62166,
      "name": "Benteng",
      "postcode": "92975",
      "lat": -2.5560871,
      "lng": 120.7177509
    },
    {
      "suburb": {
        "id": 5308,
        "name": "Burau",
        "lat": -2.5439433,
        "lng": 120.6890055
      },
      "city": {
        "id": 348,
        "name": "Luwu Timur",
        "lat": -2.5825518,
        "lng": 121.1710389
      },
      "province": {
        "id": 28,
        "name": "Sulawesi Selatan",
        "lat": -3.6687994,
        "lng": 119.9740534
      },
      "country": {
        "id": 228,
        "name": "INDONESIA",
        "code": "ID"
      },
      "id": 62167,
      "name": "Bonepute",
      "postcode": "92975",
      "lat": -2.5577045,
      "lng": 120.7378688
    },
    {
      "suburb": {
        "id": 5308,
        "name": "Burau",
        "lat": -2.5439433,
        "lng": 120.6890055
      },
      "city": {
        "id": 348,
        "name": "Luwu Timur",
        "lat": -2.5825518,
        "lng": 121.1710389
      },
      "province": {
        "id": 28,
        "name": "Sulawesi Selatan",
        "lat": -3.6687994,
        "lng": 119.9740534
      },
      "country": {
        "id": 228,
        "name": "INDONESIA",
        "code": "ID"
      },
      "id": 62168,
      "name": "Burau",
      "postcode": "92975",
      "lat": -2.6089722,
      "lng": 120.671755
    },
    {
      "suburb": {
        "id": 5308,
        "name": "Burau",
        "lat": -2.5439433,
        "lng": 120.6890055
      },
      "city": {
        "id": 348,
        "name": "Luwu Timur",
        "lat": -2.5825518,
        "lng": 121.1710389
      },
      "province": {
        "id": 28,
        "name": "Sulawesi Selatan",
        "lat": -3.6687994,
        "lng": 119.9740534
      },
      "country": {
        "id": 228,
        "name": "INDONESIA",
        "code": "ID"
      },
      "id": 62169,
      "name": "Batu Putih",
      "postcode": "92975",
      "lat": -2.4852539,
      "lng": 120.6314948
    },
    {
      "suburb": {
        "id": 5309,
        "name": "Mangkutana",
        "lat": -2.2872696,
        "lng": 120.6660044
      },
      "city": {
        "id": 348,
        "name": "Luwu Timur",
        "lat": -2.5825518,
        "lng": 121.1710389
      },
      "province": {
        "id": 28,
        "name": "Sulawesi Selatan",
        "lat": -3.6687994,
        "lng": 119.9740534
      },
      "country": {
        "id": 228,
        "name": "INDONESIA",
        "code": "ID"
      },
      "id": 62170,
      "name": "Wonorejo Timur",
      "postcode": "92973",
      "lat": -2.2872696,
      "lng": 120.6660044
    },
    {
      "suburb": {
        "id": 5308,
        "name": "Burau",
        "lat": -2.5439433,
        "lng": 120.6890055
      },
      "city": {
        "id": 348,
        "name": "Luwu Timur",
        "lat": -2.5825518,
        "lng": 121.1710389
      },
      "province": {
        "id": 28,
        "name": "Sulawesi Selatan",
        "lat": -3.6687994,
        "lng": 119.9740534
      },
      "country": {
        "id": 228,
        "name": "INDONESIA",
        "code": "ID"
      },
      "id": 62171,
      "name": "Asana",
      "postcode": "92975",
      "lat": -2.5439433,
      "lng": 120.6890055
    },
    {
      "suburb": {
        "id": 5309,
        "name": "Mangkutana",
        "lat": -2.2872696,
        "lng": 120.6660044
      },
      "city": {
        "id": 348,
        "name": "Luwu Timur",
        "lat": -2.5825518,
        "lng": 121.1710389
      },
      "province": {
        "id": 28,
        "name": "Sulawesi Selatan",
        "lat": -3.6687994,
        "lng": 119.9740534
      },
      "country": {
        "id": 228,
        "name": "INDONESIA",
        "code": "ID"
      },
      "id": 62172,
      "name": "Teromu",
      "postcode": "92973",
      "lat": -2.4243733,
      "lng": 120.8326663
    },
    {
      "suburb": {
        "id": 5309,
        "name": "Mangkutana",
        "lat": -2.2872696,
        "lng": 120.6660044
      },
      "city": {
        "id": 348,
        "name": "Luwu Timur",
        "lat": -2.5825518,
        "lng": 121.1710389
      },
      "province": {
        "id": 28,
        "name": "Sulawesi Selatan",
        "lat": -3.6687994,
        "lng": 119.9740534
      },
      "country": {
        "id": 228,
        "name": "INDONESIA",
        "code": "ID"
      },
      "id": 62173,
      "name": "Wonorejo",
      "postcode": "92973",
      "lat": -2.3430115,
      "lng": 120.6602534
    },
    {
      "suburb": {
        "id": 5310,
        "name": "Kalaena",
        "lat": -2.445058,
        "lng": 120.8613785
      },
      "city": {
        "id": 348,
        "name": "Luwu Timur",
        "lat": -2.5825518,
        "lng": 121.1710389
      },
      "province": {
        "id": 28,
        "name": "Sulawesi Selatan",
        "lat": -3.6687994,
        "lng": 119.9740534
      },
      "country": {
        "id": 228,
        "name": "INDONESIA",
        "code": "ID"
      },
      "id": 62174,
      "name": "Sumber Makmur",
      "postcode": "92973",
      "lat": -2.445058,
      "lng": 120.8613785
    },
    {
      "suburb": {
        "id": 5309,
        "name": "Mangkutana",
        "lat": -2.2872696,
        "lng": 120.6660044
      },
      "city": {
        "id": 348,
        "name": "Luwu Timur",
        "lat": -2.5825518,
        "lng": 121.1710389
      },
      "province": {
        "id": 28,
        "name": "Sulawesi Selatan",
        "lat": -3.6687994,
        "lng": 119.9740534
      },
      "country": {
        "id": 228,
        "name": "INDONESIA",
        "code": "ID"
      },
      "id": 62175,
      "name": "Sindu Agung",
      "postcode": "92973",
      "lat": -2.2872696,
      "lng": 120.6660044
    },
    {
      "suburb": {
        "id": 5310,
        "name": "Kalaena",
        "lat": -2.445058,
        "lng": 120.8613785
      },
      "city": {
        "id": 348,
        "name": "Luwu Timur",
        "lat": -2.5825518,
        "lng": 121.1710389
      },
      "province": {
        "id": 28,
        "name": "Sulawesi Selatan",
        "lat": -3.6687994,
        "lng": 119.9740534
      },
      "country": {
        "id": 228,
        "name": "INDONESIA",
        "code": "ID"
      },
      "id": 62176,
      "name": "Pertasi Kencana",
      "postcode": "92973",
      "lat": -2.4561341,
      "lng": 120.8470232
    },
    {
      "suburb": {
        "id": 5310,
        "name": "Kalaena",
        "lat": -2.445058,
        "lng": 120.8613785
      },
      "city": {
        "id": 348,
        "name": "Luwu Timur",
        "lat": -2.5825518,
        "lng": 121.1710389
      },