{
  "metadata": {
    "path": "/v3/location/areas?limit=1000&page=37",
    "http_status_code": 200,
    "http_status": "OK",
    "timestamp": 1647336584
  },
  "data": [
    {
      "suburb": {
        "id": 3075,
        "name": "Penajam",
        "lat": -1.1875639,
        "lng": 116.5609857
      },
      "city": {
        "id": 185,
        "name": "Penajam Paser Utara",
        "lat": -1.2917094,
        "lng": 116.5137964
      },
      "province": {
        "id": 15,
        "name": "Kalimantan Timur",
        "lat": 0.5386586,
        "lng": 116.419389
      },
      "country": {
        "id": 228,
        "name": "INDONESIA",
        "code": "ID"
      },
      "id": 36012,
      "name": "Riko",
      "postcode": "76145",
      "lat": -1.1021157,
      "lng": 116.4901981
    },
    {
      "suburb": {
        "id": 3075,
        "name": "Penajam",
        "lat": -1.1875639,
        "lng": 116.5609857
      },
      "city": {
        "id": 185,
        "name": "Penajam Paser Utara",
        "lat": -1.2917094,
        "lng": 116.5137964
      },
      "province": {
        "id": 15,
        "name": "Kalimantan Timur",
        "lat": 0.5386586,
        "lng": 116.419389
      },
      "country": {
        "id": 228,
        "name": "INDONESIA",
        "code": "ID"
      },
      "id": 36013,
      "name": "Sepan",
      "postcode": "76145",
      "lat": -1.1783351,
      "lng": 116.6199587
    },
    {
      "suburb": {
        "id": 3075,
        "name": "Penajam",
        "lat": -1.1875639,
        "lng": 116.5609857
      },
      "city": {
        "id": 185,
        "name": "Penajam Paser Utara",
        "lat": -1.2917094,
        "lng": 116.5137964
      },
      "province": {
        "id": 15,
        "name": "Kalimantan Timur",
        "lat": 0.5386586,
        "lng": 116.419389
      },
      "country": {
        "id": 228,
        "name": "INDONESIA",
        "code": "ID"
      },
      "id": 36014,
      "name": "Petung",
      "postcode": "76144",
      "lat": -1.3634919,
      "lng": 116.6808684
    },
    {
      "suburb": {
        "id": 3075,
        "name": "Penajam",
        "lat": -1.1875639,
        "lng": 116.5609857
      },
      "city": {
        "id": 185,
        "name": "Penajam Paser Utara",
        "lat": -1.2917094,
        "lng": 116.5137964
      },
      "province": {
        "id": 15,
        "name": "Kalimantan Timur",
        "lat": 0.5386586,
        "lng": 116.419389
      },
      "country": {
        "id": 228,
        "name": "INDONESIA",
        "code": "ID"
      },
      "id": 36015,
      "name": "Sotek",
      "postcode": "76144",
      "lat": -1.2300682,
      "lng": 116.6199587
    },
    {
      "suburb": {
        "id": 3075,
        "name": "Penajam",
        "lat": -1.1875639,
        "lng": 116.5609857
      },
      "city": {
        "id": 185,
        "name": "Penajam Paser Utara",
        "lat": -1.2917094,
        "lng": 116.5137964
      },
      "province": {
        "id": 15,
        "name": "Kalimantan Timur",
        "lat": 0.5386586,
        "lng": 116.419389
      },
      "country": {
        "id": 228,
        "name": "INDONESIA",
        "code": "ID"
      },
      "id": 36016,
      "name": "Gersik",
      "postcode": "76145",
      "lat": -1.1732393,
      "lng": 116.6966006
    },
    {
      "suburb": {
        "id": 3075,
        "name": "Penajam",
        "lat": -1.1875639,
        "lng": 116.5609857
      },
      "city": {
        "id": 185,
        "name": "Penajam Paser Utara",
        "lat": -1.2917094,
        "lng": 116.5137964
      },
      "province": {
        "id": 15,
        "name": "Kalimantan Timur",
        "lat": 0.5386586,
        "lng": 116.419389
      },
      "country": {
        "id": 228,
        "name": "INDONESIA",
        "code": "ID"
      },
      "id": 36017,
      "name": "Tanjung Tengah",
      "postcode": "76143",
      "lat": -1.3873235,
      "lng": 116.6641784
    },
    {
      "suburb": {
        "id": 3075,
        "name": "Penajam",
        "lat": -1.1875639,
        "lng": 116.5609857
      },
      "city": {
        "id": 185,
        "name": "Penajam Paser Utara",
        "lat": -1.2917094,
        "lng": 116.5137964
      },
      "province": {
        "id": 15,
        "name": "Kalimantan Timur",
        "lat": 0.5386586,
        "lng": 116.419389
      },
      "country": {
        "id": 228,
        "name": "INDONESIA",
        "code": "ID"
      },
      "id": 36018,
      "name": "Bulu Minung",
      "postcode": "76144",
      "lat": -1.2465558,
      "lng": 116.690706
    },
    {
      "suburb": {
        "id": 3075,
        "name": "Penajam",
        "lat": -1.1875639,
        "lng": 116.5609857
      },
      "city": {
        "id": 185,
        "name": "Penajam Paser Utara",
        "lat": -1.2917094,
        "lng": 116.5137964
      },
      "province": {
        "id": 15,
        "name": "Kalimantan Timur",
        "lat": 0.5386586,
        "lng": 116.419389
      },
      "country": {
        "id": 228,
        "name": "INDONESIA",
        "code": "ID"
      },
      "id": 36019,
      "name": "Sidorejo",
      "postcode": "76143",
      "lat": -1.3618006,
      "lng": 116.6834622
    },
    {
      "suburb": {
        "id": 3075,
        "name": "Penajam",
        "lat": -1.1875639,
        "lng": 116.5609857
      },
      "city": {
        "id": 185,
        "name": "Penajam Paser Utara",
        "lat": -1.2917094,
        "lng": 116.5137964
      },
      "province": {
        "id": 15,
        "name": "Kalimantan Timur",
        "lat": 0.5386586,
        "lng": 116.419389
      },
      "country": {
        "id": 228,
        "name": "INDONESIA",
        "code": "ID"
      },
      "id": 36020,
      "name": "Pejala",
      "postcode": "76143",
      "lat": -1.3693684,
      "lng": 116.7172305
    },
    {
      "suburb": {
        "id": 3075,
        "name": "Penajam",
        "lat": -1.1875639,
        "lng": 116.5609857
      },
      "city": {
        "id": 185,
        "name": "Penajam Paser Utara",
        "lat": -1.2917094,
        "lng": 116.5137964
      },
      "province": {
        "id": 15,
        "name": "Kalimantan Timur",
        "lat": 0.5386586,
        "lng": 116.419389
      },
      "country": {
        "id": 228,
        "name": "INDONESIA",
        "code": "ID"
      },
      "id": 36021,
      "name": "Saloloang",
      "postcode": "76143",
      "lat": -1.3805787,
      "lng": 116.6848112
    },
    {
      "suburb": {
        "id": 3075,
        "name": "Penajam",
        "lat": -1.1875639,
        "lng": 116.5609857
      },
      "city": {
        "id": 185,
        "name": "Penajam Paser Utara",
        "lat": -1.2917094,
        "lng": 116.5137964
      },
      "province": {
        "id": 15,
        "name": "Kalimantan Timur",
        "lat": 0.5386586,
        "lng": 116.419389
      },
      "country": {
        "id": 228,
        "name": "INDONESIA",
        "code": "ID"
      },
      "id": 36022,
      "name": "Sesumpu",
      "postcode": "76142",
      "lat": -1.3541939,
      "lng": 116.7201775
    },
    {
      "suburb": {
        "id": 3075,
        "name": "Penajam",
        "lat": -1.1875639,
        "lng": 116.5609857
      },
      "city": {
        "id": 185,
        "name": "Penajam Paser Utara",
        "lat": -1.2917094,
        "lng": 116.5137964
      },
      "province": {
        "id": 15,
        "name": "Kalimantan Timur",
        "lat": 0.5386586,
        "lng": 116.419389
      },
      "country": {
        "id": 228,
        "name": "INDONESIA",
        "code": "ID"
      },
      "id": 36023,
      "name": "Giripurwa",
      "postcode": "76143",
      "lat": -1.1875639,
      "lng": 116.5609857
    },
    {
      "suburb": {
        "id": 3075,
        "name": "Penajam",
        "lat": -1.1875639,
        "lng": 116.5609857
      },
      "city": {
        "id": 185,
        "name": "Penajam Paser Utara",
        "lat": -1.2917094,
        "lng": 116.5137964
      },
      "province": {
        "id": 15,
        "name": "Kalimantan Timur",
        "lat": 0.5386586,
        "lng": 116.419389
      },
      "country": {
        "id": 228,
        "name": "INDONESIA",
        "code": "ID"
      },
      "id": 36024,
      "name": "Kampung Baru",
      "postcode": "76143",
      "lat": -1.3604348,
      "lng": 116.7408052
    },
    {
      "suburb": {
        "id": 3075,
        "name": "Penajam",
        "lat": -1.1875639,
        "lng": 116.5609857
      },
      "city": {
        "id": 185,
        "name": "Penajam Paser Utara",
        "lat": -1.2917094,
        "lng": 116.5137964
      },
      "province": {
        "id": 15,
        "name": "Kalimantan Timur",
        "lat": 0.5386586,
        "lng": 116.419389
      },
      "country": {
        "id": 228,
        "name": "INDONESIA",
        "code": "ID"
      },
      "id": 36025,
      "name": "Nipah Nipah",
      "postcode": "76142",
      "lat": -1.2939658,
      "lng": 116.6966006
    },
    {
      "suburb": {
        "id": 3075,
        "name": "Penajam",
        "lat": -1.1875639,
        "lng": 116.5609857
      },
      "city": {
        "id": 185,
        "name": "Penajam Paser Utara",
        "lat": -1.2917094,
        "lng": 116.5137964
      },
      "province": {
        "id": 15,
        "name": "Kalimantan Timur",
        "lat": 0.5386586,
        "lng": 116.419389
      },
      "country": {
        "id": 228,
        "name": "INDONESIA",
        "code": "ID"
      },
      "id": 36026,
      "name": "Sei/Sungai Parit",
      "postcode": "76142",
      "lat": -1.3193397,
      "lng": 116.7437518
    },
    {
      "suburb": {
        "id": 3075,
        "name": "Penajam",
        "lat": -1.1875639,
        "lng": 116.5609857
      },
      "city": {
        "id": 185,
        "name": "Penajam Paser Utara",
        "lat": -1.2917094,
        "lng": 116.5137964
      },
      "province": {
        "id": 15,
        "name": "Kalimantan Timur",
        "lat": 0.5386586,
        "lng": 116.419389
      },
      "country": {
        "id": 228,
        "name": "INDONESIA",
        "code": "ID"
      },
      "id": 36027,
      "name": "Penajam",
      "postcode": "76141",
      "lat": -1.2695307,
      "lng": 116.7584845
    },
    {
      "suburb": {
        "id": 3075,
        "name": "Penajam",
        "lat": -1.1875639,
        "lng": 116.5609857
      },
      "city": {
        "id": 185,
        "name": "Penajam Paser Utara",
        "lat": -1.2917094,
        "lng": 116.5137964
      },
      "province": {
        "id": 15,
        "name": "Kalimantan Timur",
        "lat": 0.5386586,
        "lng": 116.419389
      },
      "country": {
        "id": 228,
        "name": "INDONESIA",
        "code": "ID"
      },
      "id": 36028,
      "name": "Lawe Lawe",
      "postcode": "76142",
      "lat": -1.3115152,
      "lng": 116.6730213
    },
    {
      "suburb": {
        "id": 3075,
        "name": "Penajam",
        "lat": -1.1875639,
        "lng": 116.5609857
      },
      "city": {
        "id": 185,
        "name": "Penajam Paser Utara",
        "lat": -1.2917094,
        "lng": 116.5137964
      },
      "province": {
        "id": 15,
        "name": "Kalimantan Timur",
        "lat": 0.5386586,
        "lng": 116.419389
      },
      "country": {
        "id": 228,
        "name": "INDONESIA",
        "code": "ID"
      },
      "id": 36029,
      "name": "Gunung Seteleng",
      "postcode": "76141",
      "lat": -1.2502868,
      "lng": 116.7437518
    },
    {
      "suburb": {
        "id": 3075,
        "name": "Penajam",
        "lat": -1.1875639,
        "lng": 116.5609857
      },
      "city": {
        "id": 185,
        "name": "Penajam Paser Utara",
        "lat": -1.2917094,
        "lng": 116.5137964
      },
      "province": {
        "id": 15,
        "name": "Kalimantan Timur",
        "lat": 0.5386586,
        "lng": 116.419389
      },
      "country": {
        "id": 228,
        "name": "INDONESIA",
        "code": "ID"
      },
      "id": 36030,
      "name": "Nenang",
      "postcode": "76141",
      "lat": -1.2849306,
      "lng": 116.7319649
    },
    {
      "suburb": {
        "id": 3075,
        "name": "Penajam",
        "lat": -1.1875639,
        "lng": 116.5609857
      },
      "city": {
        "id": 185,
        "name": "Penajam Paser Utara",
        "lat": -1.2917094,
        "lng": 116.5137964
      },
      "province": {
        "id": 15,
        "name": "Kalimantan Timur",
        "lat": 0.5386586,
        "lng": 116.419389
      },
      "country": {
        "id": 228,
        "name": "INDONESIA",
        "code": "ID"
      },
      "id": 36031,
      "name": "Bukit Subur",
      "postcode": "76141",
      "lat": -1.205061,
      "lng": 116.5373923
    },
    {
      "suburb": {
        "id": 3075,
        "name": "Penajam",
        "lat": -1.1875639,
        "lng": 116.5609857
      },
      "city": {
        "id": 185,
        "name": "Penajam Paser Utara",
        "lat": -1.2917094,
        "lng": 116.5137964
      },
      "province": {
        "id": 15,
        "name": "Kalimantan Timur",
        "lat": 0.5386586,
        "lng": 116.419389
      },
      "country": {
        "id": 228,
        "name": "INDONESIA",
        "code": "ID"
      },
      "id": 36032,
      "name": "Giri Mukti",
      "postcode": "76141",
      "lat": -1.3478544,
      "lng": 116.6722206
    },
    {
      "suburb": {
        "id": 3076,
        "name": "Balikpapan Utara",
        "lat": -1.1584618,
        "lng": 116.8792553
      },
      "city": {
        "id": 187,
        "name": "Balikpapan",
        "lat": -1.1487418,
        "lng": 116.8715474
      },
      "province": {
        "id": 15,
        "name": "Kalimantan Timur",
        "lat": 0.5386586,
        "lng": 116.419389
      },
      "country": {
        "id": 228,
        "name": "INDONESIA",
        "code": "ID"
      },
      "id": 36033,
      "name": "Batu Ampar",
      "postcode": "76136",
      "lat": -1.2103055,
      "lng": 116.8556955
    },
    {
      "suburb": {
        "id": 3077,
        "name": "Balikpapan Barat",
        "lat": -1.0989332,
        "lng": 116.8203511
      },
      "city": {
        "id": 187,
        "name": "Balikpapan",
        "lat": -1.1487418,
        "lng": 116.8715474
      },
      "province": {
        "id": 15,
        "name": "Kalimantan Timur",
        "lat": 0.5386586,
        "lng": 116.419389
      },
      "country": {
        "id": 228,
        "name": "INDONESIA",
        "code": "ID"
      },
      "id": 36034,
      "name": "Baru Tengah",
      "postcode": "76132",
      "lat": -1.2333367,
      "lng": 116.8159326
    },
    {
      "suburb": {
        "id": 3077,
        "name": "Balikpapan Barat",
        "lat": -1.0989332,
        "lng": 116.8203511
      },
      "city": {
        "id": 187,
        "name": "Balikpapan",
        "lat": -1.1487418,
        "lng": 116.8715474
      },
      "province": {
        "id": 15,
        "name": "Kalimantan Timur",
        "lat": 0.5386586,
        "lng": 116.419389
      },
      "country": {
        "id": 228,
        "name": "INDONESIA",
        "code": "ID"
      },
      "id": 36035,
      "name": "Baru Ulu",
      "postcode": "76133",
      "lat": -1.224755,
      "lng": 116.8129869
    },
    {
      "suburb": {
        "id": 3077,
        "name": "Balikpapan Barat",
        "lat": -1.0989332,
        "lng": 116.8203511
      },
      "city": {
        "id": 187,
        "name": "Balikpapan",
        "lat": -1.1487418,
        "lng": 116.8715474
      },
      "province": {
        "id": 15,
        "name": "Kalimantan Timur",
        "lat": 0.5386586,
        "lng": 116.419389
      },
      "country": {
        "id": 228,
        "name": "INDONESIA",
        "code": "ID"
      },
      "id": 36036,
      "name": "Kariangau",
      "postcode": "76134",
      "lat": -1.0989332,
      "lng": 116.8203511
    },
    {
      "suburb": {
        "id": 3077,
        "name": "Balikpapan Barat",
        "lat": -1.0989332,
        "lng": 116.8203511
      },
      "city": {
        "id": 187,
        "name": "Balikpapan",
        "lat": -1.1487418,
        "lng": 116.8715474
      },
      "province": {
        "id": 15,
        "name": "Kalimantan Timur",
        "lat": 0.5386586,
        "lng": 116.419389
      },
      "country": {
        "id": 228,
        "name": "INDONESIA",
        "code": "ID"
      },
      "id": 36037,
      "name": "Margo Mulyo",
      "postcode": "76131",
      "lat": -1.222443,
      "lng": 116.827715
    },
    {
      "suburb": {
        "id": 3078,
        "name": "Anggana",
        "lat": -0.6349893,
        "lng": 117.4086488
      },
      "city": {
        "id": 188,
        "name": "Kutai Kartanegara",
        "lat": -0.1336655,
        "lng": 116.6081653
      },
      "province": {
        "id": 15,
        "name": "Kalimantan Timur",
        "lat": 0.5386586,
        "lng": 116.419389
      },
      "country": {
        "id": 228,
        "name": "INDONESIA",
        "code": "ID"
      },
      "id": 36038,
      "name": "Sidomulyo",
      "postcode": "76131",
      "lat": -0.5093392,
      "lng": 117.2793685
    },
    {
      "suburb": {
        "id": 3077,
        "name": "Balikpapan Barat",
        "lat": -1.0989332,
        "lng": 116.8203511
      },
      "city": {
        "id": 187,
        "name": "Balikpapan",
        "lat": -1.1487418,
        "lng": 116.8715474
      },
      "province": {
        "id": 15,
        "name": "Kalimantan Timur",
        "lat": 0.5386586,
        "lng": 116.419389
      },
      "country": {
        "id": 228,
        "name": "INDONESIA",
        "code": "ID"
      },
      "id": 36039,
      "name": "Baru Ilir",
      "postcode": "76131",
      "lat": -1.2332726,
      "lng": 116.8218239
    },
    {
      "suburb": {
        "id": 3077,
        "name": "Balikpapan Barat",
        "lat": -1.0989332,
        "lng": 116.8203511
      },
      "city": {
        "id": 187,
        "name": "Balikpapan",
        "lat": -1.1487418,
        "lng": 116.8715474
      },
      "province": {
        "id": 15,
        "name": "Kalimantan Timur",
        "lat": 0.5386586,
        "lng": 116.419389
      },
      "country": {
        "id": 228,
        "name": "INDONESIA",
        "code": "ID"
      },
      "id": 36040,
      "name": "Marga Sari",
      "postcode": "76131",
      "lat": -1.2369928,
      "lng": 116.8215307
    },
    {
      "suburb": {
        "id": 3076,
        "name": "Balikpapan Utara",
        "lat": -1.1584618,
        "lng": 116.8792553
      },
      "city": {
        "id": 187,
        "name": "Balikpapan",
        "lat": -1.1487418,
        "lng": 116.8715474
      },
      "province": {
        "id": 15,
        "name": "Kalimantan Timur",
        "lat": 0.5386586,
        "lng": 116.419389
      },
      "country": {
        "id": 228,
        "name": "INDONESIA",
        "code": "ID"
      },
      "id": 36041,
      "name": "Graha Indah",
      "postcode": "76129",
      "lat": -1.1584618,
      "lng": 116.8792553
    },
    {
      "suburb": {
        "id": 3076,
        "name": "Balikpapan Utara",
        "lat": -1.1584618,
        "lng": 116.8792553
      },
      "city": {
        "id": 187,
        "name": "Balikpapan",
        "lat": -1.1487418,
        "lng": 116.8715474
      },
      "province": {
        "id": 15,
        "name": "Kalimantan Timur",
        "lat": 0.5386586,
        "lng": 116.419389
      },
      "country": {
        "id": 228,
        "name": "INDONESIA",
        "code": "ID"
      },
      "id": 36042,
      "name": "Karang Joang",
      "postcode": "76127",
      "lat": -1.1412804,
      "lng": 116.8792553
    },
    {
      "suburb": {
        "id": 3076,
        "name": "Balikpapan Utara",
        "lat": -1.1584618,
        "lng": 116.8792553
      },
      "city": {
        "id": 187,
        "name": "Balikpapan",
        "lat": -1.1487418,
        "lng": 116.8715474
      },
      "province": {
        "id": 15,
        "name": "Kalimantan Timur",
        "lat": 0.5386586,
        "lng": 116.419389
      },
      "country": {
        "id": 228,
        "name": "INDONESIA",
        "code": "ID"
      },
      "id": 36043,
      "name": "Gunung Samarinda Baru",
      "postcode": "76128",
      "lat": -1.218229,
      "lng": 116.8261791
    },
    {
      "suburb": {
        "id": 3076,
        "name": "Balikpapan Utara",
        "lat": -1.1584618,
        "lng": 116.8792553
      },
      "city": {
        "id": 187,
        "name": "Balikpapan",
        "lat": -1.1487418,
        "lng": 116.8715474
      },
      "province": {
        "id": 15,
        "name": "Kalimantan Timur",
        "lat": 0.5386586,
        "lng": 116.419389
      },
      "country": {
        "id": 228,
        "name": "INDONESIA",
        "code": "ID"
      },
      "id": 36044,
      "name": "Gunung Samarinda",
      "postcode": "76125",
      "lat": -1.2339482,
      "lng": 116.8586406
    },
    {
      "suburb": {
        "id": 3076,
        "name": "Balikpapan Utara",
        "lat": -1.1584618,
        "lng": 116.8792553
      },
      "city": {
        "id": 187,
        "name": "Balikpapan",
        "lat": -1.1487418,
        "lng": 116.8715474
      },
      "province": {
        "id": 15,
        "name": "Kalimantan Timur",
        "lat": 0.5386586,
        "lng": 116.419389
      },
      "country": {
        "id": 228,
        "name": "INDONESIA",
        "code": "ID"
      },
      "id": 36045,
      "name": "Muara Rapak",
      "postcode": "76125",
      "lat": -1.234205,
      "lng": 116.8350786
    },
    {
      "suburb": {
        "id": 3079,
        "name": "Balikpapan Tengah",
        "lat": -1.2697732,
        "lng": 116.8361873
      },
      "city": {
        "id": 187,
        "name": "Balikpapan",
        "lat": -1.1487418,
        "lng": 116.8715474
      },
      "province": {
        "id": 15,
        "name": "Kalimantan Timur",
        "lat": 0.5386586,
        "lng": 116.419389
      },
      "country": {
        "id": 228,
        "name": "INDONESIA",
        "code": "ID"
      },
      "id": 36046,
      "name": "Sumber Rejo",
      "postcode": "76124",
      "lat": -1.2469326,
      "lng": 116.8527504
    },
    {
      "suburb": {
        "id": 3079,
        "name": "Balikpapan Tengah",
        "lat": -1.2697732,
        "lng": 116.8361873
      },
      "city": {
        "id": 187,
        "name": "Balikpapan",
        "lat": -1.1487418,
        "lng": 116.8715474
      },
      "province": {
        "id": 15,
        "name": "Kalimantan Timur",
        "lat": 0.5386586,
        "lng": 116.419389
      },
      "country": {
        "id": 228,
        "name": "INDONESIA",
        "code": "ID"
      },
      "id": 36047,
      "name": "Karang Jati",
      "postcode": "76123",
      "lat": -1.2589601,
      "lng": 116.8365513
    },
    {
      "suburb": {
        "id": 3079,
        "name": "Balikpapan Tengah",
        "lat": -1.2697732,
        "lng": 116.8361873
      },
      "city": {
        "id": 187,
        "name": "Balikpapan",
        "lat": -1.1487418,
        "lng": 116.8715474
      },
      "province": {
        "id": 15,
        "name": "Kalimantan Timur",
        "lat": 0.5386586,
        "lng": 116.419389
      },
      "country": {
        "id": 228,
        "name": "INDONESIA",
        "code": "ID"
      },
      "id": 36048,
      "name": "Karang Rejo",
      "postcode": "76124",
      "lat": -1.2438477,
      "lng": 116.8394967
    },
    {
      "suburb": {
        "id": 3079,
        "name": "Balikpapan Tengah",
        "lat": -1.2697732,
        "lng": 116.8361873
      },
      "city": {
        "id": 187,
        "name": "Balikpapan",
        "lat": -1.1487418,
        "lng": 116.8715474
      },
      "province": {
        "id": 15,
        "name": "Kalimantan Timur",
        "lat": 0.5386586,
        "lng": 116.419389
      },
      "country": {
        "id": 228,
        "name": "INDONESIA",
        "code": "ID"
      },
      "id": 36049,
      "name": "Gunung Sari Ulu",
      "postcode": "76122",
      "lat": -1.2697732,
      "lng": 116.8361873
    },
    {
      "suburb": {
        "id": 3079,
        "name": "Balikpapan Tengah",
        "lat": -1.2697732,
        "lng": 116.8361873
      },
      "city": {
        "id": 187,
        "name": "Balikpapan",
        "lat": -1.1487418,
        "lng": 116.8715474
      },
      "province": {
        "id": 15,
        "name": "Kalimantan Timur",
        "lat": 0.5386586,
        "lng": 116.419389
      },
      "country": {
        "id": 228,
        "name": "INDONESIA",
        "code": "ID"
      },
      "id": 36050,
      "name": "Mekar Sari",
      "postcode": "76122",
      "lat": -1.2472569,
      "lng": 116.8232967
    },
    {
      "suburb": {
        "id": 3079,
        "name": "Balikpapan Tengah",
        "lat": -1.2697732,
        "lng": 116.8361873
      },
      "city": {
        "id": 187,
        "name": "Balikpapan",
        "lat": -1.1487418,
        "lng": 116.8715474
      },
      "province": {
        "id": 15,
        "name": "Kalimantan Timur",
        "lat": 0.5386586,
        "lng": 116.419389
      },
      "country": {
        "id": 228,
        "name": "INDONESIA",
        "code": "ID"
      },
      "id": 36051,
      "name": "Gunung Sari Ilir",
      "postcode": "76121",
      "lat": -1.2697732,
      "lng": 116.8361873
    },
    {
      "suburb": {
        "id": 3080,
        "name": "Balikpapan Timur",
        "lat": -1.1662034,
        "lng": 116.9616941
      },
      "city": {
        "id": 187,
        "name": "Balikpapan",
        "lat": -1.1487418,
        "lng": 116.8715474
      },
      "province": {
        "id": 15,
        "name": "Kalimantan Timur",
        "lat": 0.5386586,
        "lng": 116.419389
      },
      "country": {
        "id": 228,
        "name": "INDONESIA",
        "code": "ID"
      },
      "id": 36052,
      "name": "Lamaru",
      "postcode": "76117",
      "lat": -1.1706813,
      "lng": 116.9440313
    },
    {
      "suburb": {
        "id": 3080,
        "name": "Balikpapan Timur",
        "lat": -1.1662034,
        "lng": 116.9616941
      },
      "city": {
        "id": 187,
        "name": "Balikpapan",
        "lat": -1.1487418,
        "lng": 116.8715474
      },
      "province": {
        "id": 15,
        "name": "Kalimantan Timur",
        "lat": 0.5386586,
        "lng": 116.419389
      },
      "country": {
        "id": 228,
        "name": "INDONESIA",
        "code": "ID"
      },
      "id": 36053,
      "name": "Teritip",
      "postcode": "76118",
      "lat": -1.1403279,
      "lng": 116.9734685
    },
    {
      "suburb": {
        "id": 3080,
        "name": "Balikpapan Timur",
        "lat": -1.1662034,
        "lng": 116.9616941
      },
      "city": {
        "id": 187,
        "name": "Balikpapan",
        "lat": -1.1487418,
        "lng": 116.8715474
      },
      "province": {
        "id": 15,
        "name": "Kalimantan Timur",
        "lat": 0.5386586,
        "lng": 116.419389
      },
      "country": {
        "id": 228,
        "name": "INDONESIA",
        "code": "ID"
      },
      "id": 36054,
      "name": "Manggar",
      "postcode": "76116",
      "lat": -1.2095489,
      "lng": 116.9263671
    },
    {
      "suburb": {
        "id": 3080,
        "name": "Balikpapan Timur",
        "lat": -1.1662034,
        "lng": 116.9616941
      },
      "city": {
        "id": 187,
        "name": "Balikpapan",
        "lat": -1.1487418,
        "lng": 116.8715474
      },
      "province": {
        "id": 15,
        "name": "Kalimantan Timur",
        "lat": 0.5386586,
        "lng": 116.419389
      },
      "country": {
        "id": 228,
        "name": "INDONESIA",
        "code": "ID"
      },
      "id": 36055,
      "name": "Manggar Baru",
      "postcode": "76116",
      "lat": -1.2069889,
      "lng": 116.9646378
    },
    {
      "suburb": {
        "id": 3081,
        "name": "Balikpapan Selatan",
        "lat": -1.244228,
        "lng": 116.9028125
      },
      "city": {
        "id": 187,
        "name": "Balikpapan",
        "lat": -1.1487418,
        "lng": 116.8715474
      },
      "province": {
        "id": 15,
        "name": "Kalimantan Timur",
        "lat": 0.5386586,
        "lng": 116.419389
      },
      "country": {
        "id": 228,
        "name": "INDONESIA",
        "code": "ID"
      },
      "id": 36056,
      "name": "Sepinggan Baru",
      "postcode": "76115",
      "lat": -1.2529334,
      "lng": 116.9043959
    },
    {
      "suburb": {
        "id": 3081,
        "name": "Balikpapan Selatan",
        "lat": -1.244228,
        "lng": 116.9028125
      },
      "city": {
        "id": 187,
        "name": "Balikpapan",
        "lat": -1.1487418,
        "lng": 116.8715474
      },
      "province": {
        "id": 15,
        "name": "Kalimantan Timur",
        "lat": 0.5386586,
        "lng": 116.419389
      },
      "country": {
        "id": 228,
        "name": "INDONESIA",
        "code": "ID"
      },
      "id": 36057,
      "name": "Sepinggan Raya",
      "postcode": "76115",
      "lat": -1.2577963,
      "lng": 116.9041534
    },
    {
      "suburb": {
        "id": 3081,
        "name": "Balikpapan Selatan",
        "lat": -1.244228,
        "lng": 116.9028125
      },
      "city": {
        "id": 187,
        "name": "Balikpapan",
        "lat": -1.1487418,
        "lng": 116.8715474
      },
      "province": {
        "id": 15,
        "name": "Kalimantan Timur",
        "lat": 0.5386586,
        "lng": 116.419389
      },
      "country": {
        "id": 228,
        "name": "INDONESIA",
        "code": "ID"
      },
      "id": 36058,
      "name": "Sepinggan",
      "postcode": "76115",
      "lat": -1.2577963,
      "lng": 116.9041534
    },
    {
      "suburb": {
        "id": 3081,
        "name": "Balikpapan Selatan",
        "lat": -1.244228,
        "lng": 116.9028125
      },
      "city": {
        "id": 187,
        "name": "Balikpapan",
        "lat": -1.1487418,
        "lng": 116.8715474
      },
      "province": {
        "id": 15,
        "name": "Kalimantan Timur",
        "lat": 0.5386586,
        "lng": 116.419389
      },
      "country": {
        "id": 228,
        "name": "INDONESIA",
        "code": "ID"
      },
      "id": 36059,
      "name": "Gunung Bahagia",
      "postcode": "76114",
      "lat": -1.2552871,
      "lng": 116.8763104
    },
    {
      "suburb": {
        "id": 3081,
        "name": "Balikpapan Selatan",
        "lat": -1.244228,
        "lng": 116.9028125
      },
      "city": {
        "id": 187,
        "name": "Balikpapan",
        "lat": -1.1487418,
        "lng": 116.8715474
      },
      "province": {
        "id": 15,
        "name": "Kalimantan Timur",
        "lat": 0.5386586,
        "lng": 116.419389
      },
      "country": {
        "id": 228,
        "name": "INDONESIA",
        "code": "ID"
      },
      "id": 36060,
      "name": "Sungai Nangka",
      "postcode": "76114",
      "lat": -1.244228,
      "lng": 116.9028125
    },
    {
      "suburb": {
        "id": 3081,
        "name": "Balikpapan Selatan",
        "lat": -1.244228,
        "lng": 116.9028125
      },
      "city": {
        "id": 187,
        "name": "Balikpapan",
        "lat": -1.1487418,
        "lng": 116.8715474
      },
      "province": {
        "id": 15,
        "name": "Kalimantan Timur",
        "lat": 0.5386586,
        "lng": 116.419389
      },
      "country": {
        "id": 228,
        "name": "INDONESIA",
        "code": "ID"
      },
      "id": 36061,
      "name": "Damai Baru",
      "postcode": "76114",
      "lat": -1.2494192,
      "lng": 116.8725283
    },
    {
      "suburb": {
        "id": 3081,
        "name": "Balikpapan Selatan",
        "lat": -1.244228,
        "lng": 116.9028125
      },
      "city": {
        "id": 187,
        "name": "Balikpapan",
        "lat": -1.1487418,
        "lng": 116.8715474
      },
      "province": {
        "id": 15,
        "name": "Kalimantan Timur",
        "lat": 0.5386586,
        "lng": 116.419389
      },
      "country": {
        "id": 228,
        "name": "INDONESIA",
        "code": "ID"
      },
      "id": 36062,
      "name": "Damai Bahagia",
      "postcode": "76114",
      "lat": -1.2494192,
      "lng": 116.8725283
    },
    {
      "suburb": {
        "id": 3082,
        "name": "Balikpapan Kota",
        "lat": -1.2379274,
        "lng": 116.8528526
      },
      "city": {
        "id": 187,
        "name": "Balikpapan",
        "lat": -1.1487418,
        "lng": 116.8715474
      },
      "province": {
        "id": 15,
        "name": "Kalimantan Timur",
        "lat": 0.5386586,
        "lng": 116.419389
      },
      "country": {
        "id": 228,
        "name": "INDONESIA",
        "code": "ID"
      },
      "id": 36063,
      "name": "Klandasan Ilir",
      "postcode": "76113",
      "lat": -1.2717914,
      "lng": 116.8453873
    },
    {
      "suburb": {
        "id": 3082,
        "name": "Balikpapan Kota",
        "lat": -1.2379274,
        "lng": 116.8528526
      },
      "city": {
        "id": 187,
        "name": "Balikpapan",
        "lat": -1.1487418,
        "lng": 116.8715474
      },
      "province": {
        "id": 15,
        "name": "Kalimantan Timur",
        "lat": 0.5386586,
        "lng": 116.419389
      },
      "country": {
        "id": 228,
        "name": "INDONESIA",
        "code": "ID"
      },
      "id": 36064,
      "name": "Damai",
      "postcode": "76114",
      "lat": -1.2597917,
      "lng": 116.8586406
    },
    {
      "suburb": {
        "id": 3082,
        "name": "Balikpapan Kota",
        "lat": -1.2379274,
        "lng": 116.8528526
      },
      "city": {
        "id": 187,
        "name": "Balikpapan",
        "lat": -1.1487418,
        "lng": 116.8715474
      },
      "province": {
        "id": 15,
        "name": "Kalimantan Timur",
        "lat": 0.5386586,
        "lng": 116.419389
      },
      "country": {
        "id": 228,
        "name": "INDONESIA",
        "code": "ID"
      },
      "id": 36065,
      "name": "Telaga Sari",
      "postcode": "76111",
      "lat": -1.26874,
      "lng": 116.8291877
    },
    {
      "suburb": {
        "id": 3082,
        "name": "Balikpapan Kota",
        "lat": -1.2379274,
        "lng": 116.8528526
      },
      "city": {
        "id": 187,
        "name": "Balikpapan",
        "lat": -1.1487418,
        "lng": 116.8715474
      },
      "province": {
        "id": 15,
        "name": "Kalimantan Timur",
        "lat": 0.5386586,
        "lng": 116.419389
      },
      "country": {
        "id": 228,
        "name": "INDONESIA",
        "code": "ID"
      },
      "id": 36066,
      "name": "Klandasan Ulu",
      "postcode": "76112",
      "lat": -1.2762682,
      "lng": 116.8306605
    },
    {
      "suburb": {
        "id": 3082,
        "name": "Balikpapan Kota",
        "lat": -1.2379274,
        "lng": 116.8528526
      },
      "city": {
        "id": 187,
        "name": "Balikpapan",
        "lat": -1.1487418,
        "lng": 116.8715474
      },
      "province": {
        "id": 15,
        "name": "Kalimantan Timur",
        "lat": 0.5386586,
        "lng": 116.419389
      },
      "country": {
        "id": 228,
        "name": "INDONESIA",
        "code": "ID"
      },
      "id": 36067,
      "name": "Prapatan",
      "postcode": "76111",
      "lat": -1.2688719,
      "lng": 116.8174054
    },
    {
      "suburb": {
        "id": 3083,
        "name": "Long Hubung",
        "lat": 0.2364406,
        "lng": 115.5207358
      },
      "city": {
        "id": 502,
        "name": "Mahakam Ulu",
        "lat": 0,
        "lng": 0
      },
      "province": {
        "id": 15,
        "name": "Kalimantan Timur",
        "lat": 0.5386586,
        "lng": 116.419389
      },
      "country": {
        "id": 228,
        "name": "INDONESIA",
        "code": "ID"
      },
      "id": 36068,
      "name": "Tripati Makmur",
      "postcode": "75866",
      "lat": 0.2364406,
      "lng": 115.5207358
    },
    {
      "suburb": {
        "id": 3083,
        "name": "Long Hubung",
        "lat": 0.2364406,
        "lng": 115.5207358
      },
      "city": {
        "id": 502,
        "name": "Mahakam Ulu",
        "lat": 0,
        "lng": 0
      },
      "province": {
        "id": 15,
        "name": "Kalimantan Timur",
        "lat": 0.5386586,
        "lng": 116.419389
      },
      "country": {
        "id": 228,
        "name": "INDONESIA",
        "code": "ID"
      },
      "id": 36069,
      "name": "Wana Pariq",
      "postcode": "75866",
      "lat": 0.3553326,
      "lng": 115.4970466
    },
    {
      "suburb": {
        "id": 3083,
        "name": "Long Hubung",
        "lat": 0.2364406,
        "lng": 115.5207358
      },
      "city": {
        "id": 502,
        "name": "Mahakam Ulu",
        "lat": 0,
        "lng": 0
      },
      "province": {
        "id": 15,
        "name": "Kalimantan Timur",
        "lat": 0.5386586,
        "lng": 116.419389
      },
      "country": {
        "id": 228,
        "name": "INDONESIA",
        "code": "ID"
      },
      "id": 36070,
      "name": "Sirau",
      "postcode": "75866",
      "lat": 0.1601241,
      "lng": 115.6273131
    },
    {
      "suburb": {
        "id": 3084,
        "name": "Laham",
        "lat": 0.2034371,
        "lng": 114.9991464
      },
      "city": {
        "id": 502,
        "name": "Mahakam Ulu",
        "lat": 0,
        "lng": 0
      },
      "province": {
        "id": 15,
        "name": "Kalimantan Timur",
        "lat": 0.5386586,
        "lng": 116.419389
      },
      "country": {
        "id": 228,
        "name": "INDONESIA",
        "code": "ID"
      },
      "id": 36071,
      "name": "Nyaribungan",
      "postcode": "75867",
      "lat": 0.0338107,
      "lng": 115.0465991
    },
    {
      "suburb": {
        "id": 3083,
        "name": "Long Hubung",
        "lat": 0.2364406,
        "lng": 115.5207358
      },
      "city": {
        "id": 502,
        "name": "Mahakam Ulu",
        "lat": 0,
        "lng": 0
      },
      "province": {
        "id": 15,
        "name": "Kalimantan Timur",
        "lat": 0.5386586,
        "lng": 116.419389
      },
      "country": {
        "id": 228,
        "name": "INDONESIA",
        "code": "ID"
      },
      "id": 36072,
      "name": "Memahak Teboq",
      "postcode": "75866",
      "lat": 0.0843416,
      "lng": 115.4022706
    },
    {
      "suburb": {
        "id": 3084,
        "name": "Laham",
        "lat": 0.2034371,
        "lng": 114.9991464
      },
      "city": {
        "id": 502,
        "name": "Mahakam Ulu",
        "lat": 0,
        "lng": 0
      },
      "province": {
        "id": 15,
        "name": "Kalimantan Timur",
        "lat": 0.5386586,
        "lng": 116.419389
      },
      "country": {
        "id": 228,
        "name": "INDONESIA",
        "code": "ID"
      },
      "id": 36073,
      "name": "Muara Ratah",
      "postcode": "75867",
      "lat": 0.2205712,
      "lng": 114.9279547
    },
    {
      "suburb": {
        "id": 3083,
        "name": "Long Hubung",
        "lat": 0.2364406,
        "lng": 115.5207358
      },
      "city": {
        "id": 502,
        "name": "Mahakam Ulu",
        "lat": 0,
        "lng": 0
      },
      "province": {
        "id": 15,
        "name": "Kalimantan Timur",
        "lat": 0.5386586,
        "lng": 116.419389
      },
      "country": {
        "id": 228,
        "name": "INDONESIA",
        "code": "ID"
      },
      "id": 36074,
      "name": "Lutan",
      "postcode": "75866",
      "lat": 0.0337582,
      "lng": 115.2363408
    },
    {
      "suburb": {
        "id": 3083,
        "name": "Long Hubung",
        "lat": 0.2364406,
        "lng": 115.5207358
      },
      "city": {
        "id": 502,
        "name": "Mahakam Ulu",
        "lat": 0,
        "lng": 0
      },
      "province": {
        "id": 15,
        "name": "Kalimantan Timur",
        "lat": 0.5386586,
        "lng": 116.419389
      },
      "country": {
        "id": 228,
        "name": "INDONESIA",
        "code": "ID"
      },
      "id": 36075,
      "name": "Mata Libaq",
      "postcode": "75866",
      "lat": 0.2360661,
      "lng": 115.7101789
    },
    {
      "suburb": {
        "id": 3083,
        "name": "Long Hubung",
        "lat": 0.2364406,
        "lng": 115.5207358
      },
      "city": {
        "id": 502,
        "name": "Mahakam Ulu",
        "lat": 0,
        "lng": 0
      },
      "province": {
        "id": 15,
        "name": "Kalimantan Timur",
        "lat": 0.5386586,
        "lng": 116.419389
      },
      "country": {
        "id": 228,
        "name": "INDONESIA",
        "code": "ID"
      },
      "id": 36076,
      "name": "Long Hubung",
      "postcode": "75866",
      "lat": 0.2874852,
      "lng": 115.4496624
    },
    {
      "suburb": {
        "id": 3084,
        "name": "Laham",
        "lat": 0.2034371,
        "lng": 114.9991464
      },
      "city": {
        "id": 502,
        "name": "Mahakam Ulu",
        "lat": 0,
        "lng": 0
      },
      "province": {
        "id": 15,
        "name": "Kalimantan Timur",
        "lat": 0.5386586,
        "lng": 116.419389
      },
      "country": {
        "id": 228,
        "name": "INDONESIA",
        "code": "ID"
      },
      "id": 36077,
      "name": "Long Gelawang",
      "postcode": "75867",
      "lat": 0.1775109,
      "lng": 115.2956118
    },
    {
      "suburb": {
        "id": 3084,
        "name": "Laham",
        "lat": 0.2034371,
        "lng": 114.9991464
      },
      "city": {
        "id": 502,
        "name": "Mahakam Ulu",
        "lat": 0,
        "lng": 0
      },
      "province": {
        "id": 15,
        "name": "Kalimantan Timur",
        "lat": 0.5386586,
        "lng": 116.419389
      },
      "country": {
        "id": 228,
        "name": "INDONESIA",
        "code": "ID"
      },
      "id": 36078,
      "name": "Laham",
      "postcode": "75867",
      "lat": 0.3222181,
      "lng": 115.1652008
    },
    {
      "suburb": {
        "id": 3083,
        "name": "Long Hubung",
        "lat": 0.2364406,
        "lng": 115.5207358
      },
      "city": {
        "id": 502,
        "name": "Mahakam Ulu",
        "lat": 0,
        "lng": 0
      },
      "province": {
        "id": 15,
        "name": "Kalimantan Timur",
        "lat": 0.5386586,
        "lng": 116.419389
      },
      "country": {
        "id": 228,
        "name": "INDONESIA",
        "code": "ID"
      },
      "id": 36079,
      "name": "Datah Bilang Ulu",
      "postcode": "75866",
      "lat": 0.213279,
      "lng": 115.4467006
    },
    {
      "suburb": {
        "id": 3083,
        "name": "Long Hubung",
        "lat": 0.2364406,
        "lng": 115.5207358
      },
      "city": {
        "id": 502,
        "name": "Mahakam Ulu",
        "lat": 0,
        "lng": 0
      },
      "province": {
        "id": 15,
        "name": "Kalimantan Timur",
        "lat": 0.5386586,
        "lng": 116.419389
      },
      "country": {
        "id": 228,
        "name": "INDONESIA",
        "code": "ID"
      },
      "id": 36080,
      "name": "Datah Bilang Ilir",
      "postcode": "75866",
      "lat": 0.2238107,
      "lng": 115.4792784
    },
    {
      "suburb": {
        "id": 3084,
        "name": "Laham",
        "lat": 0.2034371,
        "lng": 114.9991464
      },
      "city": {
        "id": 502,
        "name": "Mahakam Ulu",
        "lat": 0,
        "lng": 0
      },
      "province": {
        "id": 15,
        "name": "Kalimantan Timur",
        "lat": 0.5386586,
        "lng": 116.419389
      },
      "country": {
        "id": 228,
        "name": "INDONESIA",
        "code": "ID"
      },
      "id": 36081,
      "name": "Danum Paroy/Paroi",
      "postcode": "75867",
      "lat": 0.2200591,
      "lng": 115.2126293
    },
    {
      "suburb": {
        "id": 3083,
        "name": "Long Hubung",
        "lat": 0.2364406,
        "lng": 115.5207358
      },
      "city": {
        "id": 502,
        "name": "Mahakam Ulu",
        "lat": 0,
        "lng": 0
      },
      "province": {
        "id": 15,
        "name": "Kalimantan Timur",
        "lat": 0.5386586,
        "lng": 116.419389
      },
      "country": {
        "id": 228,
        "name": "INDONESIA",
        "code": "ID"
      },
      "id": 36082,
      "name": "Datah Bilang Baru",
      "postcode": "75866",
      "lat": 0.2239208,
      "lng": 115.4200434
    },
    {
      "suburb": {
        "id": 3085,
        "name": "Bentian Besar",
        "lat": -0.9193287,
        "lng": 115.7101789
      },
      "city": {
        "id": 189,
        "name": "Kutai Barat",
        "lat": -0.4051796,
        "lng": 115.8521764
      },
      "province": {
        "id": 15,
        "name": "Kalimantan Timur",
        "lat": 0.5386586,
        "lng": 116.419389
      },
      "country": {
        "id": 228,
        "name": "INDONESIA",
        "code": "ID"
      },
      "id": 36083,
      "name": "Tuquk/Tukuq",
      "postcode": "75778",
      "lat": -1.0447085,
      "lng": 115.692424
    },
    {
      "suburb": {
        "id": 3085,
        "name": "Bentian Besar",
        "lat": -0.9193287,
        "lng": 115.7101789
      },
      "city": {
        "id": 189,
        "name": "Kutai Barat",
        "lat": -0.4051796,
        "lng": 115.8521764
      },
      "province": {
        "id": 15,
        "name": "Kalimantan Timur",
        "lat": 0.5386586,
        "lng": 116.419389
      },
      "country": {
        "id": 228,
        "name": "INDONESIA",
        "code": "ID"
      },
      "id": 36084,
      "name": "Suakong",
      "postcode": "75778",
      "lat": -0.7899953,
      "lng": 115.7456852
    },
    {
      "suburb": {
        "id": 3085,
        "name": "Bentian Besar",
        "lat": -0.9193287,
        "lng": 115.7101789
      },
      "city": {
        "id": 189,
        "name": "Kutai Barat",
        "lat": -0.4051796,
        "lng": 115.8521764
      },
      "province": {
        "id": 15,
        "name": "Kalimantan Timur",
        "lat": 0.5386586,
        "lng": 116.419389
      },
      "country": {
        "id": 228,
        "name": "INDONESIA",
        "code": "ID"
      },
      "id": 36085,
      "name": "Tende",
      "postcode": "75778",
      "lat": -1.0481472,
      "lng": 115.7930198
    },
    {
      "suburb": {
        "id": 3085,
        "name": "Bentian Besar",
        "lat": -0.9193287,
        "lng": 115.7101789
      },
      "city": {
        "id": 189,
        "name": "Kutai Barat",
        "lat": -0.4051796,
        "lng": 115.8521764
      },
      "province": {
        "id": 15,
        "name": "Kalimantan Timur",
        "lat": 0.5386586,
        "lng": 116.419389
      },
      "country": {
        "id": 228,
        "name": "INDONESIA",
        "code": "ID"
      },
      "id": 36086,
      "name": "Randa Empas",
      "postcode": "75778",
      "lat": -1.0614882,
      "lng": 115.7516025
    },
    {
      "suburb": {
        "id": 3085,
        "name": "Bentian Besar",
        "lat": -0.9193287,
        "lng": 115.7101789
      },
      "city": {
        "id": 189,
        "name": "Kutai Barat",
        "lat": -0.4051796,
        "lng": 115.8521764
      },
      "province": {
        "id": 15,
        "name": "Kalimantan Timur",
        "lat": 0.5386586,
        "lng": 116.419389
      },
      "country": {
        "id": 228,
        "name": "INDONESIA",
        "code": "ID"
      },
      "id": 36087,
      "name": "Sambung",
      "postcode": "75778",
      "lat": -0.9796316,
      "lng": 115.7220148
    },
    {
      "suburb": {
        "id": 3085,
        "name": "Bentian Besar",
        "lat": -0.9193287,
        "lng": 115.7101789
      },
      "city": {
        "id": 189,
        "name": "Kutai Barat",
        "lat": -0.4051796,
        "lng": 115.8521764
      },
      "province": {
        "id": 15,
        "name": "Kalimantan Timur",
        "lat": 0.5386586,
        "lng": 116.419389
      },
      "country": {
        "id": 228,
        "name": "INDONESIA",
        "code": "ID"
      },
      "id": 36088,
      "name": "Jelmu Sibak",
      "postcode": "75778",
      "lat": -0.9015507,
      "lng": 115.7811869
    },
    {
      "suburb": {
        "id": 3085,
        "name": "Bentian Besar",
        "lat": -0.9193287,
        "lng": 115.7101789
      },
      "city": {
        "id": 189,
        "name": "Kutai Barat",
        "lat": -0.4051796,
        "lng": 115.8521764
      },
      "province": {
        "id": 15,
        "name": "Kalimantan Timur",
        "lat": 0.5386586,
        "lng": 116.419389
      },
      "country": {
        "id": 228,
        "name": "INDONESIA",
        "code": "ID"
      },
      "id": 36089,
      "name": "Penarung",
      "postcode": "75778",
      "lat": -0.6529621,
      "lng": 115.7220148
    },
    {
      "suburb": {
        "id": 3085,
        "name": "Bentian Besar",
        "lat": -0.9193287,
        "lng": 115.7101789
      },
      "city": {
        "id": 189,
        "name": "Kutai Barat",
        "lat": -0.4051796,
        "lng": 115.8521764
      },
      "province": {
        "id": 15,
        "name": "Kalimantan Timur",
        "lat": 0.5386586,
        "lng": 116.419389
      },
      "country": {
        "id": 228,
        "name": "INDONESIA",
        "code": "ID"
      },
      "id": 36090,
      "name": "Dilang Puti",
      "postcode": "75778",
      "lat": -0.6957094,
      "lng": 115.7338502
    },
    {
      "suburb": {
        "id": 3085,
        "name": "Bentian Besar",
        "lat": -0.9193287,
        "lng": 115.7101789
      },
      "city": {
        "id": 189,
        "name": "Kutai Barat",
        "lat": -0.4051796,
        "lng": 115.8521764
      },
      "province": {
        "id": 15,
        "name": "Kalimantan Timur",
        "lat": 0.5386586,
        "lng": 116.419389
      },
      "country": {
        "id": 228,
        "name": "INDONESIA",
        "code": "ID"
      },
      "id": 36091,
      "name": "Anan Jaya",
      "postcode": "75778",
      "lat": -0.9022689,
      "lng": 115.6865054
    },
    {
      "suburb": {
        "id": 3086,
        "name": "Damai",
        "lat": -0.6454913,
        "lng": 115.5207358
      },
      "city": {
        "id": 189,
        "name": "Kutai Barat",
        "lat": -0.4051796,
        "lng": 115.8521764
      },
      "province": {
        "id": 15,
        "name": "Kalimantan Timur",
        "lat": 0.5386586,
        "lng": 116.419389
      },
      "country": {
        "id": 228,
        "name": "INDONESIA",
        "code": "ID"
      },
      "id": 36092,
      "name": "Sempatn",
      "postcode": "75777",
      "lat": -0.4099765,
      "lng": 115.692424
    },
    {
      "suburb": {
        "id": 3087,
        "name": "Nyuatan",
        "lat": -0.3386631,
        "lng": 115.3785719
      },
      "city": {
        "id": 189,
        "name": "Kutai Barat",
        "lat": -0.4051796,
        "lng": 115.8521764
      },
      "province": {
        "id": 15,
        "name": "Kalimantan Timur",
        "lat": 0.5386586,
        "lng": 116.419389
      },
      "country": {
        "id": 228,
        "name": "INDONESIA",
        "code": "ID"
      },
      "id": 36093,
      "name": "Temula",
      "postcode": "75777",
      "lat": -0.2788035,
      "lng": 115.5325797
    },
    {
      "suburb": {
        "id": 3086,
        "name": "Damai",
        "lat": -0.6454913,
        "lng": 115.5207358
      },
      "city": {
        "id": 189,
        "name": "Kutai Barat",
        "lat": -0.4051796,
        "lng": 115.8521764
      },
      "province": {
        "id": 15,
        "name": "Kalimantan Timur",
        "lat": 0.5386586,
        "lng": 116.419389
      },
      "country": {
        "id": 228,
        "name": "INDONESIA",
        "code": "ID"
      },
      "id": 36094,
      "name": "Tepulang",
      "postcode": "75777",
      "lat": -0.3803621,
      "lng": 115.6509915
    },
    {
      "suburb": {
        "id": 3086,
        "name": "Damai",
        "lat": -0.6454913,
        "lng": 115.5207358
      },
      "city": {
        "id": 189,
        "name": "Kutai Barat",
        "lat": -0.4051796,
        "lng": 115.8521764
      },
      "province": {
        "id": 15,
        "name": "Kalimantan Timur",
        "lat": 0.5386586,
        "lng": 116.419389
      },
      "country": {
        "id": 228,
        "name": "INDONESIA",
        "code": "ID"
      },
      "id": 36095,
      "name": "Muara Tokong",
      "postcode": "75777",
      "lat": -0.4315603,
      "lng": 115.6036327
    },
    {
      "suburb": {
        "id": 3087,
        "name": "Nyuatan",
        "lat": -0.3386631,
        "lng": 115.3785719
      },
      "city": {
        "id": 189,
        "name": "Kutai Barat",
        "lat": -0.4051796,
        "lng": 115.8521764
      },
      "province": {
        "id": 15,
        "name": "Kalimantan Timur",
        "lat": 0.5386586,
        "lng": 116.419389
      },
      "country": {
        "id": 228,
        "name": "INDONESIA",
        "code": "ID"
      },
      "id": 36096,
      "name": "Sembuan",
      "postcode": "75777",
      "lat": -0.355752,
      "lng": 115.3548713
    },
    {
      "suburb": {
        "id": 3086,
        "name": "Damai",
        "lat": -0.6454913,
        "lng": 115.5207358
      },
      "city": {
        "id": 189,
        "name": "Kutai Barat",
        "lat": -0.4051796,
        "lng": 115.8521764
      },
      "province": {
        "id": 15,
        "name": "Kalimantan Timur",
        "lat": 0.5386586,
        "lng": 116.419389
      },
      "country": {
        "id": 228,
        "name": "INDONESIA",
        "code": "ID"
      },
      "id": 36097,
      "name": "Muara Nilik",
      "postcode": "75777",
      "lat": -0.5944552,
      "lng": 115.4496624
    },
    {
      "suburb": {
        "id": 3086,
        "name": "Damai",
        "lat": -0.6454913,
        "lng": 115.5207358
      },
      "city": {
        "id": 189,
        "name": "Kutai Barat",
        "lat": -0.4051796,
        "lng": 115.8521764
      },
      "province": {
        "id": 15,
        "name": "Kalimantan Timur",
        "lat": 0.5386586,
        "lng": 116.419389
      },
      "country": {
        "id": 228,
        "name": "INDONESIA",
        "code": "ID"
      },
      "id": 36098,
      "name": "Muara Nyahing",
      "postcode": "75777",
      "lat": -0.5336629,
      "lng": 115.6509915
    },
    {
      "suburb": {
        "id": 3086,
        "name": "Damai",
        "lat": -0.6454913,
        "lng": 115.5207358
      },
      "city": {
        "id": 189,
        "name": "Kutai Barat",
        "lat": -0.4051796,
        "lng": 115.8521764
      },
      "province": {
        "id": 15,
        "name": "Kalimantan Timur",
        "lat": 0.5386586,
        "lng": 116.419389
      },
      "country": {
        "id": 228,
        "name": "INDONESIA",
        "code": "ID"
      },
      "id": 36099,
      "name": "Mendika",
      "postcode": "75777",
      "lat": -0.4545639,
      "lng": 115.7131379
    },
    {
      "suburb": {
        "id": 3086,
        "name": "Damai",
        "lat": -0.6454913,
        "lng": 115.5207358
      },
      "city": {
        "id": 189,
        "name": "Kutai Barat",
        "lat": -0.4051796,
        "lng": 115.8521764
      },
      "province": {
        "id": 15,
        "name": "Kalimantan Timur",
        "lat": 0.5386586,
        "lng": 116.419389
      },
      "country": {
        "id": 228,
        "name": "INDONESIA",
        "code": "ID"
      },
      "id": 36100,
      "name": "Muara Bomboy",
      "postcode": "75777",
      "lat": -0.5036779,
      "lng": 115.6805868
    },
    {
      "suburb": {
        "id": 3086,
        "name": "Damai",
        "lat": -0.6454913,
        "lng": 115.5207358
      },
      "city": {
        "id": 189,
        "name": "Kutai Barat",
        "lat": -0.4051796,
        "lng": 115.8521764
      },
      "province": {
        "id": 15,
        "name": "Kalimantan Timur",
        "lat": 0.5386586,
        "lng": 116.419389
      },
      "country": {
        "id": 228,
        "name": "INDONESIA",
        "code": "ID"
      },
      "id": 36101,
      "name": "Lumpat Dahuq",
      "postcode": "75777",
      "lat": -0.4655403,
      "lng": 115.6273131
    },
    {
      "suburb": {
        "id": 3086,
        "name": "Damai",
        "lat": -0.6454913,
        "lng": 115.5207358
      },
      "city": {
        "id": 189,
        "name": "Kutai Barat",
        "lat": -0.4051796,
        "lng": 115.8521764
      },
      "province": {
        "id": 15,
        "name": "Kalimantan Timur",
        "lat": 0.5386586,
        "lng": 116.419389
      },
      "country": {
        "id": 228,
        "name": "INDONESIA",
        "code": "ID"
      },
      "id": 36102,
      "name": "Mantar",
      "postcode": "75777",
      "lat": -0.5264252,
      "lng": 115.3548713
    },
    {
      "suburb": {
        "id": 3086,
        "name": "Damai",
        "lat": -0.6454913,
        "lng": 115.5207358
      },
      "city": {
        "id": 189,
        "name": "Kutai Barat",
        "lat": -0.4051796,
        "lng": 115.8521764
      },
      "province": {
        "id": 15,
        "name": "Kalimantan Timur",
        "lat": 0.5386586,
        "lng": 116.419389
      },
      "country": {
        "id": 228,
        "name": "INDONESIA",
        "code": "ID"
      },
      "id": 36103,
      "name": "Keay",
      "postcode": "75777",
      "lat": -0.3461782,
      "lng": 115.7220148
    },
    {
      "suburb": {
        "id": 3087,
        "name": "Nyuatan",
        "lat": -0.3386631,
        "lng": 115.3785719
      },
      "city": {
        "id": 189,
        "name": "Kutai Barat",
        "lat": -0.4051796,
        "lng": 115.8521764
      },
      "province": {
        "id": 15,
        "name": "Kalimantan Timur",
        "lat": 0.5386586,
        "lng": 116.419389
      },
      "country": {
        "id": 228,
        "name": "INDONESIA",
        "code": "ID"
      },
      "id": 36104,
      "name": "Jontai",
      "postcode": "75777",
      "lat": -0.3340644,
      "lng": 115.5029691
    },
    {
      "suburb": {
        "id": 3086,
        "name": "Damai",
        "lat": -0.6454913,
        "lng": 115.5207358
      },
      "city": {
        "id": 189,
        "name": "Kutai Barat",
        "lat": -0.4051796,
        "lng": 115.8521764
      },
      "province": {
        "id": 15,
        "name": "Kalimantan Timur",
        "lat": 0.5386586,
        "lng": 116.419389
      },
      "country": {
        "id": 228,
        "name": "INDONESIA",
        "code": "ID"
      },
      "id": 36105,
      "name": "Jengan Danum",
      "postcode": "75777",
      "lat": -0.414125,
      "lng": 115.7220148
    },
    {
      "suburb": {
        "id": 3087,
        "name": "Nyuatan",
        "lat": -0.3386631,
        "lng": 115.3785719
      },
      "city": {
        "id": 189,
        "name": "Kutai Barat",
        "lat": -0.4051796,
        "lng": 115.8521764
      },
      "province": {
        "id": 15,
        "name": "Kalimantan Timur",
        "lat": 0.5386586,
        "lng": 116.419389
      },
      "country": {
        "id": 228,
        "name": "INDONESIA",
        "code": "ID"
      },
      "id": 36106,
      "name": "Intu Lingau",
      "postcode": "75777",
      "lat": -0.2538392,
      "lng": 115.3074646
    },
    {
      "suburb": {
        "id": 3086,
        "name": "Damai",
        "lat": -0.6454913,
        "lng": 115.5207358
      },
      "city": {
        "id": 189,
        "name": "Kutai Barat",
        "lat": -0.4051796,
        "lng": 115.8521764
      },
      "province": {
        "id": 15,
        "name": "Kalimantan Timur",
        "lat": 0.5386586,
        "lng": 116.419389
      },
      "country": {
        "id": 228,
        "name": "INDONESIA",
        "code": "ID"
      },
      "id": 36107,
      "name": "Damai Seberang",
      "postcode": "75777",
      "lat": -0.4780146,
      "lng": 115.7042607
    },
    {
      "suburb": {
        "id": 3087,
        "name": "Nyuatan",
        "lat": -0.3386631,
        "lng": 115.3785719
      },
      "city": {
        "id": 189,
        "name": "Kutai Barat",
        "lat": -0.4051796,
        "lng": 115.8521764
      },
      "province": {
        "id": 15,
        "name": "Kalimantan Timur",
        "lat": 0.5386586,
        "lng": 116.419389
      },
      "country": {
        "id": 228,
        "name": "INDONESIA",
        "code": "ID"
      },
      "id": 36108,
      "name": "Dempar",
      "postcode": "75777",
      "lat": -0.4235905,
      "lng": 115.4496624
    },
    {
      "suburb": {
        "id": 3086,
        "name": "Damai",
        "lat": -0.6454913,
        "lng": 115.5207358
      },
      "city": {
        "id": 189,
        "name": "Kutai Barat",
        "lat": -0.4051796,
        "lng": 115.8521764
      },
      "province": {
        "id": 15,
        "name": "Kalimantan Timur",
        "lat": 0.5386586,
        "lng": 116.419389
      },
      "country": {
        "id": 228,
        "name": "INDONESIA",
        "code": "ID"
      },
      "id": 36109,
      "name": "Besiq (Besik)",
      "postcode": "75777",
      "lat": -0.7658298,
      "lng": 115.4970466
    },
    {
      "suburb": {
        "id": 3086,
        "name": "Damai",
        "lat": -0.6454913,
        "lng": 115.5207358
      },
      "city": {
        "id": 189,
        "name": "Kutai Barat",
        "lat": -0.4051796,
        "lng": 115.8521764
      },
      "province": {
        "id": 15,
        "name": "Kalimantan Timur",
        "lat": 0.5386586,
        "lng": 116.419389
      },
      "country": {
        "id": 228,
        "name": "INDONESIA",
        "code": "ID"
      },
      "id": 36110,
      "name": "Damai Kota",
      "postcode": "75777",
      "lat": -0.437588,
      "lng": 115.7013016
    },
    {
      "suburb": {
        "id": 3086,
        "name": "Damai",
        "lat": -0.6454913,
        "lng": 115.5207358
      },
      "city": {
        "id": 189,
        "name": "Kutai Barat",
        "lat": -0.4051796,
        "lng": 115.8521764
      },
      "province": {
        "id": 15,
        "name": "Kalimantan Timur",
        "lat": 0.5386586,
        "lng": 116.419389
      },
      "country": {
        "id": 228,
        "name": "INDONESIA",
        "code": "ID"
      },
      "id": 36111,
      "name": "Bermai",
      "postcode": "75777",
      "lat": -0.7308656,
      "lng": 115.5917918
    },
    {
      "suburb": {
        "id": 3086,
        "name": "Damai",
        "lat": -0.6454913,
        "lng": 115.5207358
      },
      "city": {
        "id": 189,
        "name": "Kutai Barat",
        "lat": -0.4051796,
        "lng": 115.8521764
      },
      "province": {
        "id": 15,
        "name": "Kalimantan Timur",
        "lat": 0.5386586,
        "lng": 116.419389
      },
      "country": {
        "id": 228,
        "name": "INDONESIA",
        "code": "ID"
      },
      "id": 36112,
      "name": "Benung",
      "postcode": "75777",
      "lat": -0.3421228,
      "lng": 115.6569108
    },
    {
      "suburb": {
        "id": 3088,
        "name": "Barong Tongkok",
        "lat": -0.2332283,
        "lng": 115.6860664
      },
      "city": {
        "id": 189,
        "name": "Kutai Barat",
        "lat": -0.4051796,
        "lng": 115.8521764
      },
      "province": {
        "id": 15,
        "name": "Kalimantan Timur",
        "lat": 0.5386586,
        "lng": 116.419389
      },
      "country": {
        "id": 228,
        "name": "INDONESIA",
        "code": "ID"
      },
      "id": 36113,
      "name": "Sumber Sari",
      "postcode": "75776",
      "lat": -0.2381633,
      "lng": 115.7190559
    },
    {
      "suburb": {
        "id": 3087,
        "name": "Nyuatan",
        "lat": -0.3386631,
        "lng": 115.3785719
      },
      "city": {
        "id": 189,
        "name": "Kutai Barat",
        "lat": -0.4051796,
        "lng": 115.8521764
      },
      "province": {
        "id": 15,
        "name": "Kalimantan Timur",
        "lat": 0.5386586,
        "lng": 116.419389
      },
      "country": {
        "id": 228,
        "name": "INDONESIA",
        "code": "ID"
      },
      "id": 36114,
      "name": "Terajuk",
      "postcode": "75776",
      "lat": -0.3635134,
      "lng": 115.6036327
    },
    {
      "suburb": {
        "id": 3088,
        "name": "Barong Tongkok",
        "lat": -0.2332283,
        "lng": 115.6860664
      },
      "city": {
        "id": 189,
        "name": "Kutai Barat",
        "lat": -0.4051796,
        "lng": 115.8521764
      },
      "province": {
        "id": 15,
        "name": "Kalimantan Timur",
        "lat": 0.5386586,
        "lng": 116.419389
      },
      "country": {
        "id": 228,
        "name": "INDONESIA",
        "code": "ID"
      },
      "id": 36115,
      "name": "Sendawar",
      "postcode": "75776",
      "lat": -0.1472874,
      "lng": 115.7634366
    },
    {
      "suburb": {
        "id": 3088,
        "name": "Barong Tongkok",
        "lat": -0.2332283,
        "lng": 115.6860664
      },
      "city": {
        "id": 189,
        "name": "Kutai Barat",
        "lat": -0.4051796,
        "lng": 115.8521764
      },
      "province": {
        "id": 15,
        "name": "Kalimantan Timur",
        "lat": 0.5386586,
        "lng": 116.419389
      },
      "country": {
        "id": 228,
        "name": "INDONESIA",
        "code": "ID"
      },
      "id": 36116,
      "name": "Simpang Raya",
      "postcode": "75776",
      "lat": -0.2487948,
      "lng": 115.692424
    },
    {
      "suburb": {
        "id": 3087,
        "name": "Nyuatan",
        "lat": -0.3386631,
        "lng": 115.3785719
      },
      "city": {
        "id": 189,
        "name": "Kutai Barat",
        "lat": -0.4051796,
        "lng": 115.8521764
      },
      "province": {
        "id": 15,
        "name": "Kalimantan Timur",
        "lat": 0.5386586,
        "lng": 116.419389
      },
      "country": {
        "id": 228,
        "name": "INDONESIA",
        "code": "ID"
      },
      "id": 36117,
      "name": "Sentalar",
      "postcode": "75776",
      "lat": -0.3806635,
      "lng": 115.556266
    },
    {
      "suburb": {
        "id": 3088,
        "name": "Barong Tongkok",
        "lat": -0.2332283,
        "lng": 115.6860664
      },
      "city": {
        "id": 189,
        "name": "Kutai Barat",
        "lat": -0.4051796,
        "lng": 115.8521764
      },
      "province": {
        "id": 15,
        "name": "Kalimantan Timur",
        "lat": 0.5386586,
        "lng": 116.419389
      },
      "country": {
        "id": 228,
        "name": "INDONESIA",
        "code": "ID"
      },
      "id": 36118,
      "name": "Rejo Basuki",
      "postcode": "75776",
      "lat": -0.2678903,
      "lng": 115.6717085
    },
    {
      "suburb": {
        "id": 3088,
        "name": "Barong Tongkok",
        "lat": -0.2332283,
        "lng": 115.6860664
      },
      "city": {
        "id": 189,
        "name": "Kutai Barat",
        "lat": -0.4051796,
        "lng": 115.8521764
      },
      "province": {
        "id": 15,
        "name": "Kalimantan Timur",
        "lat": 0.5386586,
        "lng": 116.419389
      },
      "country": {
        "id": 228,
        "name": "INDONESIA",
        "code": "ID"
      },
      "id": 36119,
      "name": "Pepas Eheng",
      "postcode": "75776",
      "lat": -0.291342,
      "lng": 115.609553
    },
    {
      "suburb": {
        "id": 3088,
        "name": "Barong Tongkok",
        "lat": -0.2332283,
        "lng": 115.6860664
      },
      "city": {
        "id": 189,
        "name": "Kutai Barat",
        "lat": -0.4051796,
        "lng": 115.8521764
      },
      "province": {
        "id": 15,
        "name": "Kalimantan Timur",
        "lat": 0.5386586,
        "lng": 116.419389
      },
      "country": {
        "id": 228,
        "name": "INDONESIA",
        "code": "ID"
      },
      "id": 36120,
      "name": "Pepas/Pepes Asa",
      "postcode": "75776",
      "lat": -0.1558312,
      "lng": 115.6805868
    },
    {
      "suburb": {
        "id": 3088,
        "name": "Barong Tongkok",
        "lat": -0.2332283,
        "lng": 115.6860664
      },
      "city": {
        "id": 189,
        "name": "Kutai Barat",
        "lat": -0.4051796,
        "lng": 115.8521764
      },
      "province": {
        "id": 15,
        "name": "Kalimantan Timur",
        "lat": 0.5386586,
        "lng": 116.419389
      },
      "country": {
        "id": 228,
        "name": "INDONESIA",
        "code": "ID"
      },
      "id": 36121,
      "name": "Ombau Asa",
      "postcode": "75776",
      "lat": -0.1979892,
      "lng": 115.7279326
    },
    {
      "suburb": {
        "id": 3088,
        "name": "Barong Tongkok",
        "lat": -0.2332283,
        "lng": 115.6860664
      },
      "city": {
        "id": 189,
        "name": "Kutai Barat",
        "lat": -0.4051796,
        "lng": 115.8521764
      },
      "province": {
        "id": 15,
        "name": "Kalimantan Timur",
        "lat": 0.5386586,
        "lng": 116.419389
      },
      "country": {
        "id": 228,
        "name": "INDONESIA",
        "code": "ID"
      },
      "id": 36122,
      "name": "Ongko Asa",
      "postcode": "75776",
      "lat": -0.1726855,
      "lng": 115.7042607
    },
    {
      "suburb": {
        "id": 3088,
        "name": "Barong Tongkok",
        "lat": -0.2332283,
        "lng": 115.6860664
      },
      "city": {
        "id": 189,
        "name": "Kutai Barat",
        "lat": -0.4051796,
        "lng": 115.8521764
      },
      "province": {
        "id": 15,
        "name": "Kalimantan Timur",
        "lat": 0.5386586,
        "lng": 116.419389
      },
      "country": {
        "id": 228,
        "name": "INDONESIA",
        "code": "ID"
      },
      "id": 36123,
      "name": "Muara Asa",
      "postcode": "75776",
      "lat": -0.1262771,
      "lng": 115.6983424
    },
    {
      "suburb": {
        "id": 3088,
        "name": "Barong Tongkok",
        "lat": -0.2332283,
        "lng": 115.6860664
      },
      "city": {
        "id": 189,
        "name": "Kutai Barat",
        "lat": -0.4051796,
        "lng": 115.8521764
      },
      "province": {
        "id": 15,
        "name": "Kalimantan Timur",
        "lat": 0.5386586,
        "lng": 116.419389
      },
      "country": {
        "id": 228,
        "name": "INDONESIA",
        "code": "ID"
      },
      "id": 36124,
      "name": "Ngenyan Asa",
      "postcode": "75776",
      "lat": -0.2063982,
      "lng": 115.7516025
    },
    {
      "suburb": {
        "id": 3087,
        "name": "Nyuatan",
        "lat": -0.3386631,
        "lng": 115.3785719
      },
      "city": {
        "id": 189,
        "name": "Kutai Barat",
        "lat": -0.4051796,
        "lng": 115.8521764
      },
      "province": {
        "id": 15,
        "name": "Kalimantan Timur",
        "lat": 0.5386586,
        "lng": 116.419389
      },
      "country": {
        "id": 228,
        "name": "INDONESIA",
        "code": "ID"
      },
      "id": 36125,
      "name": "Muut",
      "postcode": "75751",
      "lat": -0.3168225,
      "lng": 115.5977123
    },
    {
      "suburb": {
        "id": 3087,
        "name": "Nyuatan",
        "lat": -0.3386631,
        "lng": 115.3785719
      },
      "city": {
        "id": 189,
        "name": "Kutai Barat",
        "lat": -0.4051796,
        "lng": 115.8521764
      },
      "province": {
        "id": 15,
        "name": "Kalimantan Timur",
        "lat": 0.5386586,
        "lng": 116.419389
      },
      "country": {
        "id": 228,
        "name": "INDONESIA",
        "code": "ID"
      },
      "id": 36126,
      "name": "Lakan Bilem",
      "postcode": "75776",
      "lat": -0.1858224,
      "lng": 115.4022706
    },
    {
      "suburb": {
        "id": 3088,
        "name": "Barong Tongkok",
        "lat": -0.2332283,
        "lng": 115.6860664
      },
      "city": {
        "id": 189,
        "name": "Kutai Barat",
        "lat": -0.4051796,
        "lng": 115.8521764
      },
      "province": {
        "id": 15,
        "name": "Kalimantan Timur",
        "lat": 0.5386586,
        "lng": 116.419389
      },
      "country": {
        "id": 228,
        "name": "INDONESIA",
        "code": "ID"
      },
      "id": 36127,
      "name": "Juhan Asa",
      "postcode": "75776",
      "lat": -0.2109267,
      "lng": 115.5799503
    },
    {
      "suburb": {
        "id": 3088,
        "name": "Barong Tongkok",
        "lat": -0.2332283,
        "lng": 115.6860664
      },
      "city": {
        "id": 189,
        "name": "Kutai Barat",
        "lat": -0.4051796,
        "lng": 115.8521764
      },
      "province": {
        "id": 15,
        "name": "Kalimantan Timur",
        "lat": 0.5386586,
        "lng": 116.419389
      },
      "country": {
        "id": 228,
        "name": "INDONESIA",
        "code": "ID"
      },
      "id": 36128,
      "name": "Mencimai",
      "postcode": "75776",
      "lat": -0.2784171,
      "lng": 115.6983424
    },
    {
      "suburb": {
        "id": 3088,
        "name": "Barong Tongkok",
        "lat": -0.2332283,
        "lng": 115.6860664
      },
      "city": {
        "id": 189,
        "name": "Kutai Barat",
        "lat": -0.4051796,
        "lng": 115.8521764
      },
      "province": {
        "id": 15,
        "name": "Kalimantan Timur",
        "lat": 0.5386586,
        "lng": 116.419389
      },
      "country": {
        "id": 228,
        "name": "INDONESIA",
        "code": "ID"
      },
      "id": 36129,
      "name": "Gemuhan Asa",
      "postcode": "75776",
      "lat": -0.1810229,
      "lng": 115.7752703
    },
    {
      "suburb": {
        "id": 3088,
        "name": "Barong Tongkok",
        "lat": -0.2332283,
        "lng": 115.6860664
      },
      "city": {
        "id": 189,
        "name": "Kutai Barat",
        "lat": -0.4051796,
        "lng": 115.8521764
      },
      "province": {
        "id": 15,
        "name": "Kalimantan Timur",
        "lat": 0.5386586,
        "lng": 116.419389
      },
      "country": {
        "id": 228,
        "name": "INDONESIA",
        "code": "ID"
      },
      "id": 36130,
      "name": "Juaq Asa",
      "postcode": "75776",
      "lat": -0.1895977,
      "lng": 115.692424
    },
    {
      "suburb": {
        "id": 3088,
        "name": "Barong Tongkok",
        "lat": -0.2332283,
        "lng": 115.6860664
      },
      "city": {
        "id": 189,
        "name": "Kutai Barat",
        "lat": -0.4051796,
        "lng": 115.8521764
      },
      "province": {
        "id": 15,
        "name": "Kalimantan Timur",
        "lat": 0.5386586,
        "lng": 116.419389
      },
      "country": {
        "id": 228,
        "name": "INDONESIA",
        "code": "ID"
      },
      "id": 36131,
      "name": "Engkuni Pasek",
      "postcode": "75776",
      "lat": -0.2997041,
      "lng": 115.6569108
    },
    {
      "suburb": {
        "id": 3088,
        "name": "Barong Tongkok",
        "lat": -0.2332283,
        "lng": 115.6860664
      },
      "city": {
        "id": 189,
        "name": "Kutai Barat",
        "lat": -0.4051796,
        "lng": 115.8521764
      },
      "province": {
        "id": 15,
        "name": "Kalimantan Timur",
        "lat": 0.5386586,
        "lng": 116.419389
      },
      "country": {
        "id": 228,
        "name": "INDONESIA",
        "code": "ID"
      },
      "id": 36132,
      "name": "Geleo Asa",
      "postcode": "75776",
      "lat": -0.1540233,
      "lng": 115.7379241
    },
    {
      "suburb": {
        "id": 3088,
        "name": "Barong Tongkok",
        "lat": -0.2332283,
        "lng": 115.6860664
      },
      "city": {
        "id": 189,
        "name": "Kutai Barat",
        "lat": -0.4051796,
        "lng": 115.8521764
      },
      "province": {
        "id": 15,
        "name": "Kalimantan Timur",
        "lat": 0.5386586,
        "lng": 116.419389
      },
      "country": {
        "id": 228,
        "name": "INDONESIA",
        "code": "ID"
      },
      "id": 36133,
      "name": "Geleo Baru",
      "postcode": "75776",
      "lat": -0.1747315,
      "lng": 115.7486438
    },
    {
      "suburb": {
        "id": 3088,
        "name": "Barong Tongkok",
        "lat": -0.2332283,
        "lng": 115.6860664
      },
      "city": {
        "id": 189,
        "name": "Kutai Barat",
        "lat": -0.4051796,
        "lng": 115.8521764
      },
      "province": {
        "id": 15,
        "name": "Kalimantan Timur",
        "lat": 0.5386586,
        "lng": 116.419389
      },
      "country": {
        "id": 228,
        "name": "INDONESIA",
        "code": "ID"
      },
      "id": 36134,
      "name": "Barong Tongkok",
      "postcode": "75776",
      "lat": -0.2276302,
      "lng": 115.6983424
    },
    {
      "suburb": {
        "id": 3088,
        "name": "Barong Tongkok",
        "lat": -0.2332283,
        "lng": 115.6860664
      },
      "city": {
        "id": 189,
        "name": "Kutai Barat",
        "lat": -0.4051796,
        "lng": 115.8521764
      },
      "province": {
        "id": 15,
        "name": "Kalimantan Timur",
        "lat": 0.5386586,
        "lng": 116.419389
      },
      "country": {
        "id": 228,
        "name": "INDONESIA",
        "code": "ID"
      },
      "id": 36135,
      "name": "Belempung Ulaq",
      "postcode": "75776",
      "lat": -0.2317789,
      "lng": 115.7397678
    },
    {
      "suburb": {
        "id": 3088,
        "name": "Barong Tongkok",
        "lat": -0.2332283,
        "lng": 115.6860664
      },
      "city": {
        "id": 189,
        "name": "Kutai Barat",
        "lat": -0.4051796,
        "lng": 115.8521764
      },
      "province": {
        "id": 15,
        "name": "Kalimantan Timur",
        "lat": 0.5386586,
        "lng": 116.419389
      },
      "country": {
        "id": 228,
        "name": "INDONESIA",
        "code": "ID"
      },
      "id": 36136,
      "name": "Balok Asa",
      "postcode": "75776",
      "lat": -0.2066035,
      "lng": 115.6332329
    },
    {
      "suburb": {
        "id": 3087,
        "name": "Nyuatan",
        "lat": -0.3386631,
        "lng": 115.3785719
      },
      "city": {
        "id": 189,
        "name": "Kutai Barat",
        "lat": -0.4051796,
        "lng": 115.8521764
      },
      "province": {
        "id": 15,
        "name": "Kalimantan Timur",
        "lat": 0.5386586,
        "lng": 116.419389
      },
      "country": {
        "id": 228,
        "name": "INDONESIA",
        "code": "ID"
      },
      "id": 36137,
      "name": "Awai",
      "postcode": "75776",
      "lat": -0.2681161,
      "lng": 115.5710689
    },
    {
      "suburb": {
        "id": 3088,
        "name": "Barong Tongkok",
        "lat": -0.2332283,
        "lng": 115.6860664
      },
      "city": {
        "id": 189,
        "name": "Kutai Barat",
        "lat": -0.4051796,
        "lng": 115.8521764
      },
      "province": {
        "id": 15,
        "name": "Kalimantan Timur",
        "lat": 0.5386586,
        "lng": 116.419389
      },
      "country": {
        "id": 228,
        "name": "INDONESIA",
        "code": "ID"
      },
      "id": 36138,
      "name": "Asa",
      "postcode": "75776",
      "lat": -0.1980877,
      "lng": 115.6687491
    },
    {
      "suburb": {
        "id": 3089,
        "name": "Muara Lawa",
        "lat": -0.5245546,
        "lng": 115.7811869
      },
      "city": {
        "id": 189,
        "name": "Kutai Barat",
        "lat": -0.4051796,
        "lng": 115.8521764
      },
      "province": {
        "id": 15,
        "name": "Kalimantan Timur",
        "lat": 0.5386586,
        "lng": 116.419389
      },
      "country": {
        "id": 228,
        "name": "INDONESIA",
        "code": "ID"
      },
      "id": 36139,
      "name": "Payang",
      "postcode": "75775",
      "lat": -0.512001,
      "lng": 115.7279326
    },
    {
      "suburb": {
        "id": 3089,
        "name": "Muara Lawa",
        "lat": -0.5245546,
        "lng": 115.7811869
      },
      "city": {
        "id": 189,
        "name": "Kutai Barat",
        "lat": -0.4051796,
        "lng": 115.8521764
      },
      "province": {
        "id": 15,
        "name": "Kalimantan Timur",
        "lat": 0.5386586,
        "lng": 116.419389
      },
      "country": {
        "id": 228,
        "name": "INDONESIA",
        "code": "ID"
      },
      "id": 36140,
      "name": "Muara Begai",
      "postcode": "75775",
      "lat": -0.5930449,
      "lng": 115.7338502
    },
    {
      "suburb": {
        "id": 3089,
        "name": "Muara Lawa",
        "lat": -0.5245546,
        "lng": 115.7811869
      },
      "city": {
        "id": 189,
        "name": "Kutai Barat",
        "lat": -0.4051796,
        "lng": 115.8521764
      },
      "province": {
        "id": 15,
        "name": "Kalimantan Timur",
        "lat": 0.5386586,
        "lng": 116.419389
      },
      "country": {
        "id": 228,
        "name": "INDONESIA",
        "code": "ID"
      },
      "id": 36141,
      "name": "Muara Lawa",
      "postcode": "75775",
      "lat": -0.4714742,
      "lng": 115.7427265
    },
    {
      "suburb": {
        "id": 3089,
        "name": "Muara Lawa",
        "lat": -0.5245546,
        "lng": 115.7811869
      },
      "city": {
        "id": 189,
        "name": "Kutai Barat",
        "lat": -0.4051796,
        "lng": 115.8521764
      },
      "province": {
        "id": 15,
        "name": "Kalimantan Timur",
        "lat": 0.5386586,
        "lng": 116.419389
      },
      "country": {
        "id": 228,
        "name": "INDONESIA",
        "code": "ID"
      },
      "id": 36142,
      "name": "Lambing",
      "postcode": "75775",
      "lat": -0.4267308,
      "lng": 115.7634366
    },
    {
      "suburb": {
        "id": 3089,
        "name": "Muara Lawa",
        "lat": -0.5245546,
        "lng": 115.7811869
      },
      "city": {
        "id": 189,
        "name": "Kutai Barat",
        "lat": -0.4051796,
        "lng": 115.8521764
      },
      "province": {
        "id": 15,
        "name": "Kalimantan Timur",
        "lat": 0.5386586,
        "lng": 116.419389
      },
      "country": {
        "id": 228,
        "name": "INDONESIA",
        "code": "ID"
      },
      "id": 36143,
      "name": "Lataq/Lotaq",
      "postcode": "75775",
      "lat": -0.5331324,
      "lng": 115.7693535
    },
    {
      "suburb": {
        "id": 3089,
        "name": "Muara Lawa",
        "lat": -0.5245546,
        "lng": 115.7811869
      },
      "city": {
        "id": 189,
        "name": "Kutai Barat",
        "lat": -0.4051796,
        "lng": 115.8521764
      },
      "province": {
        "id": 15,
        "name": "Kalimantan Timur",
        "lat": 0.5386586,
        "lng": 116.419389
      },
      "country": {
        "id": 228,
        "name": "INDONESIA",
        "code": "ID"
      },
      "id": 36144,
      "name": "Cempedas",
      "postcode": "75775",
      "lat": -0.4863884,
      "lng": 115.7397678
    },
    {
      "suburb": {
        "id": 3089,
        "name": "Muara Lawa",
        "lat": -0.5245546,
        "lng": 115.7811869
      },
      "city": {
        "id": 189,
        "name": "Kutai Barat",
        "lat": -0.4051796,
        "lng": 115.8521764
      },
      "province": {
        "id": 15,
        "name": "Kalimantan Timur",
        "lat": 0.5386586,
        "lng": 116.419389
      },
      "country": {
        "id": 228,
        "name": "INDONESIA",
        "code": "ID"
      },
      "id": 36145,
      "name": "Dingin",
      "postcode": "75775",
      "lat": -0.4478794,
      "lng": 115.7930198
    },
    {
      "suburb": {
        "id": 3089,
        "name": "Muara Lawa",
        "lat": -0.5245546,
        "lng": 115.7811869
      },
      "city": {
        "id": 189,
        "name": "Kutai Barat",
        "lat": -0.4051796,
        "lng": 115.8521764
      },
      "province": {
        "id": 15,
        "name": "Kalimantan Timur",
        "lat": 0.5386586,
        "lng": 116.419389
      },
      "country": {
        "id": 228,
        "name": "INDONESIA",
        "code": "ID"
      },
      "id": 36146,
      "name": "Benggeris",
      "postcode": "75775",
      "lat": -0.4608451,
      "lng": 115.7397678
    },
    {
      "suburb": {
        "id": 3090,
        "name": "Muara Pahu",
        "lat": -0.3265769,
        "lng": 116.0607708
      },
      "city": {
        "id": 189,
        "name": "Kutai Barat",
        "lat": -0.4051796,
        "lng": 115.8521764
      },
      "province": {
        "id": 15,
        "name": "Kalimantan Timur",
        "lat": 0.5386586,
        "lng": 116.419389
      },
      "country": {
        "id": 228,
        "name": "INDONESIA",
        "code": "ID"
      },
      "id": 36147,
      "name": "Tepian Ulaq",
      "postcode": "75774",
      "lat": -0.2521282,
      "lng": 116.1123078
    },
    {
      "suburb": {
        "id": 3091,
        "name": "Siluq Ngurai",
        "lat": -0.7803932,
        "lng": 115.8994923
      },
      "city": {
        "id": 189,
        "name": "Kutai Barat",
        "lat": -0.4051796,
        "lng": 115.8521764
      },
      "province": {
        "id": 15,
        "name": "Kalimantan Timur",
        "lat": 0.5386586,
        "lng": 116.419389
      },
      "country": {
        "id": 228,
        "name": "INDONESIA",
        "code": "ID"
      },
      "id": 36148,
      "name": "Tendiq",
      "postcode": "75774",
      "lat": -0.7893649,
      "lng": 115.8403461
    },
    {
      "suburb": {
        "id": 3090,
        "name": "Muara Pahu",
        "lat": -0.3265769,
        "lng": 116.0607708
      },
      "city": {
        "id": 189,
        "name": "Kutai Barat",
        "lat": -0.4051796,
        "lng": 115.8521764
      },
      "province": {
        "id": 15,
        "name": "Kalimantan Timur",
        "lat": 0.5386586,
        "lng": 116.419389
      },
      "country": {
        "id": 228,
        "name": "INDONESIA",
        "code": "ID"
      },
      "id": 36149,
      "name": "Teluk Tempudau",
      "postcode": "75774",
      "lat": -0.417183,
      "lng": 116.0591205
    },
    {
      "suburb": {
        "id": 3090,
        "name": "Muara Pahu",
        "lat": -0.3265769,
        "lng": 116.0607708
      },
      "city": {
        "id": 189,
        "name": "Kutai Barat",
        "lat": -0.4051796,
        "lng": 115.8521764
      },
      "province": {
        "id": 15,
        "name": "Kalimantan Timur",
        "lat": 0.5386586,
        "lng": 116.419389
      },
      "country": {
        "id": 228,
        "name": "INDONESIA",
        "code": "ID"
      },
      "id": 36150,
      "name": "Tanjung Pagar",
      "postcode": "75774",
      "lat": -0.3115672,
      "lng": 115.9822747
    },
    {
      "suburb": {
        "id": 3091,
        "name": "Siluq Ngurai",
        "lat": -0.7803932,
        "lng": 115.8994923
      },
      "city": {
        "id": 189,
        "name": "Kutai Barat",
        "lat": -0.4051796,
        "lng": 115.8521764
      },
      "province": {
        "id": 15,
        "name": "Kalimantan Timur",
        "lat": 0.5386586,
        "lng": 116.419389
      },
      "country": {
        "id": 228,
        "name": "INDONESIA",
        "code": "ID"
      },
      "id": 36151,
      "name": "Tebisaq",
      "postcode": "75774",
      "lat": -0.4344934,
      "lng": 115.9645378
    },
    {
      "suburb": {
        "id": 3090,
        "name": "Muara Pahu",
        "lat": -0.3265769,
        "lng": 116.0607708
      },
      "city": {
        "id": 189,
        "name": "Kutai Barat",
        "lat": -0.4051796,
        "lng": 115.8521764
      },
      "province": {
        "id": 15,
        "name": "Kalimantan Timur",
        "lat": 0.5386586,
        "lng": 116.419389
      },
      "country": {
        "id": 228,
        "name": "INDONESIA",
        "code": "ID"
      },
      "id": 36152,
      "name": "Tanjung Laong",
      "postcode": "75774",
      "lat": -0.3792233,
      "lng": 116.005922
    },
    {
      "suburb": {
        "id": 3091,
        "name": "Siluq Ngurai",
        "lat": -0.7803932,
        "lng": 115.8994923
      },
      "city": {
        "id": 189,
        "name": "Kutai Barat",
        "lat": -0.4051796,
        "lng": 115.8521764
      },
      "province": {
        "id": 15,
        "name": "Kalimantan Timur",
        "lat": 0.5386586,
        "lng": 116.419389
      },
      "country": {
        "id": 228,
        "name": "INDONESIA",
        "code": "ID"
      },
      "id": 36153,
      "name": "Tanah Mea (Tana Mea)",
      "postcode": "75774",
      "lat": -0.4515211,
      "lng": 115.9527126
    },
    {
      "suburb": {
        "id": 3090,
        "name": "Muara Pahu",
        "lat": -0.3265769,
        "lng": 116.0607708
      },
      "city": {
        "id": 189,
        "name": "Kutai Barat",
        "lat": -0.4051796,
        "lng": 115.8521764
      },
      "province": {
        "id": 15,
        "name": "Kalimantan Timur",
        "lat": 0.5386586,
        "lng": 116.419389
      },
      "country": {
        "id": 228,
        "name": "INDONESIA",
        "code": "ID"
      },
      "id": 36154,
      "name": "Sebelang",
      "postcode": "75774",
      "lat": -0.2944764,
      "lng": 116.0532101
    },
    {
      "suburb": {
        "id": 3091,
        "name": "Siluq Ngurai",
        "lat": -0.7803932,
        "lng": 115.8994923
      },
      "city": {
        "id": 189,
        "name": "Kutai Barat",
        "lat": -0.4051796,
        "lng": 115.8521764
      },
      "province": {
        "id": 15,
        "name": "Kalimantan Timur",
        "lat": 0.5386586,
        "lng": 116.419389
      },
      "country": {
        "id": 228,
        "name": "INDONESIA",
        "code": "ID"
      },
      "id": 36155,
      "name": "Rikong",
      "postcode": "75774",
      "lat": -0.7285365,
      "lng": 115.9704503
    },
    {
      "suburb": {
        "id": 3091,
        "name": "Siluq Ngurai",
        "lat": -0.7803932,
        "lng": 115.8994923
      },
      "city": {
        "id": 189,
        "name": "Kutai Barat",
        "lat": -0.4051796,
        "lng": 115.8521764
      },
      "province": {
        "id": 15,
        "name": "Kalimantan Timur",
        "lat": 0.5386586,
        "lng": 116.419389
      },
      "country": {
        "id": 228,
        "name": "INDONESIA",
        "code": "ID"
      },
      "id": 36156,
      "name": "Sang Sang (Sansang)",
      "postcode": "75774",
      "lat": -0.4984442,
      "lng": 115.91132
    },
    {
      "suburb": {
        "id": 3091,
        "name": "Siluq Ngurai",
        "lat": -0.7803932,
        "lng": 115.8994923
      },
      "city": {
        "id": 189,
        "name": "Kutai Barat",
        "lat": -0.4051796,
        "lng": 115.8521764
      },
      "province": {
        "id": 15,
        "name": "Kalimantan Timur",
        "lat": 0.5386586,
        "lng": 116.419389
      },
      "country": {
        "id": 228,
        "name": "INDONESIA",
        "code": "ID"
      },
      "id": 36157,
      "name": "Penawang",
      "postcode": "75774",
      "lat": -0.8235441,
      "lng": 115.8640062
    },
    {
      "suburb": {
        "id": 3092,
        "name": "Manor Bulatin (Mook Manaar Bulatn)",
        "lat": 0.0335718,
        "lng": 115.8994923
      },
      "city": {
        "id": 189,
        "name": "Kutai Barat",
        "lat": -0.4051796,
        "lng": 115.8521764
      },
      "province": {
        "id": 15,
        "name": "Kalimantan Timur",
        "lat": 0.5386586,
        "lng": 116.419389
      },
      "country": {
        "id": 228,
        "name": "INDONESIA",
        "code": "ID"
      },
      "id": 36158,
      "name": "Rembayan / Rambayan",
      "postcode": "75774",
      "lat": -0.28001,
      "lng": 115.9201904
    },
    {
      "suburb": {
        "id": 3091,
        "name": "Siluq Ngurai",
        "lat": -0.7803932,
        "lng": 115.8994923
      },
      "city": {
        "id": 189,
        "name": "Kutai Barat",
        "lat": -0.4051796,
        "lng": 115.8521764
      },
      "province": {
        "id": 15,
        "name": "Kalimantan Timur",
        "lat": 0.5386586,
        "lng": 116.419389
      },
      "country": {
        "id": 228,
        "name": "INDONESIA",
        "code": "ID"
      },
      "id": 36159,
      "name": "Muhur",
      "postcode": "75774",
      "lat": -0.566347,
      "lng": 115.9586253
    },
    {
      "suburb": {
        "id": 3091,
        "name": "Siluq Ngurai",
        "lat": -0.7803932,
        "lng": 115.8994923
      },
      "city": {
        "id": 189,
        "name": "Kutai Barat",
        "lat": -0.4051796,
        "lng": 115.8521764
      },
      "province": {
        "id": 15,
        "name": "Kalimantan Timur",
        "lat": 0.5386586,
        "lng": 116.419389
      },
      "country": {
        "id": 228,
        "name": "INDONESIA",
        "code": "ID"
      },
      "id": 36160,
      "name": "Muara Kelawit",
      "postcode": "75774",
      "lat": -0.5711514,
      "lng": 115.8462613
    },
    {
      "suburb": {
        "id": 3091,
        "name": "Siluq Ngurai",
        "lat": -0.7803932,
        "lng": 115.8994923
      },
      "city": {
        "id": 189,
        "name": "Kutai Barat",
        "lat": -0.4051796,
        "lng": 115.8521764
      },
      "province": {
        "id": 15,
        "name": "Kalimantan Timur",
        "lat": 0.5386586,
        "lng": 116.419389
      },
      "country": {
        "id": 228,
        "name": "INDONESIA",
        "code": "ID"
      },
      "id": 36161,
      "name": "Muara Ponaq",
      "postcode": "75774",
      "lat": -0.6601334,
      "lng": 115.9704503
    },
    {
      "suburb": {
        "id": 3092,
        "name": "Manor Bulatin (Mook Manaar Bulatn)",
        "lat": 0.0335718,
        "lng": 115.8994923
      },
      "city": {
        "id": 189,
        "name": "Kutai Barat",
        "lat": -0.4051796,
        "lng": 115.8521764
      },
      "province": {
        "id": 15,
        "name": "Kalimantan Timur",
        "lat": 0.5386586,
        "lng": 116.419389
      },
      "country": {
        "id": 228,
        "name": "INDONESIA",
        "code": "ID"
      },
      "id": 36162,
      "name": "Muara Jawaq",
      "postcode": "75774",
      "lat": -0.2567206,
      "lng": 115.9408868
    },
    {
      "suburb": {
        "id": 3090,
        "name": "Muara Pahu",
        "lat": -0.3265769,
        "lng": 116.0607708
      },
      "city": {
        "id": 189,
        "name": "Kutai Barat",
        "lat": -0.4051796,
        "lng": 115.8521764
      },
      "province": {
        "id": 15,
        "name": "Kalimantan Timur",
        "lat": 0.5386586,
        "lng": 116.419389
      },
      "country": {
        "id": 228,
        "name": "INDONESIA",
        "code": "ID"
      },
      "id": 36163,
      "name": "Muara Baroh",
      "postcode": "75774",
      "lat": -0.3832862,
      "lng": 116.0591205
    },
    {
      "suburb": {
        "id": 3090,
        "name": "Muara Pahu",
        "lat": -0.3265769,
        "lng": 116.0607708
      },
      "city": {
        "id": 189,
        "name": "Kutai Barat",
        "lat": -0.4051796,
        "lng": 115.8521764
      },
      "province": {
        "id": 15,
        "name": "Kalimantan Timur",
        "lat": 0.5386586,
        "lng": 116.419389
      },
      "country": {
        "id": 228,
        "name": "INDONESIA",
        "code": "ID"
      },
      "id": 36164,
      "name": "Muara Beloan",
      "postcode": "75774",
      "lat": -0.3456253,
      "lng": 115.91132
    },
    {
      "suburb": {
        "id": 3091,
        "name": "Siluq Ngurai",
        "lat": -0.7803932,
        "lng": 115.8994923
      },
      "city": {
        "id": 189,
        "name": "Kutai Barat",
        "lat": -0.4051796,
        "lng": 115.8521764
      },
      "province": {
        "id": 15,
        "name": "Kalimantan Timur",
        "lat": 0.5386586,
        "lng": 116.419389
      },
      "country": {
        "id": 228,
        "name": "INDONESIA",
        "code": "ID"
      },
      "id": 36165,
      "name": "Lendian Liang Nayuk/Nayung",
      "postcode": "75774",
      "lat": -1.0558432,
      "lng": 115.8994923
    },
    {
      "suburb": {
        "id": 3090,
        "name": "Muara Pahu",
        "lat": -0.3265769,
        "lng": 116.0607708
      },
      "city": {
        "id": 189,
        "name": "Kutai Barat",
        "lat": -0.4051796,
        "lng": 115.8521764
      },
      "province": {
        "id": 15,
        "name": "Kalimantan Timur",
        "lat": 0.5386586,
        "lng": 116.419389
      },
      "country": {
        "id": 228,
        "name": "INDONESIA",
        "code": "ID"
      },
      "id": 36166,
      "name": "Mendung",
      "postcode": "75774",
      "lat": -0.42639,
      "lng": 115.8580914
    },
    {
      "suburb": {
        "id": 3091,
        "name": "Siluq Ngurai",
        "lat": -0.7803932,
        "lng": 115.8994923
      },
      "city": {
        "id": 189,
        "name": "Kutai Barat",
        "lat": -0.4051796,
        "lng": 115.8521764
      },
      "province": {
        "id": 15,
        "name": "Kalimantan Timur",
        "lat": 0.5386586,
        "lng": 116.419389
      },
      "country": {
        "id": 228,
        "name": "INDONESIA",
        "code": "ID"
      },
      "id": 36167,
      "name": "Kiaq",
      "postcode": "75774",
      "lat": -0.7207735,
      "lng": 115.8403461
    },
    {
      "suburb": {
        "id": 3091,
        "name": "Siluq Ngurai",
        "lat": -0.7803932,
        "lng": 115.8994923
      },
      "city": {
        "id": 189,
        "name": "Kutai Barat",
        "lat": -0.4051796,
        "lng": 115.8521764
      },
      "province": {
        "id": 15,
        "name": "Kalimantan Timur",
        "lat": 0.5386586,
        "lng": 116.419389
      },
      "country": {
        "id": 228,
        "name": "INDONESIA",
        "code": "ID"
      },
      "id": 36168,
      "name": "Kenyanyan",
      "postcode": "75774",
      "lat": -0.617881,
      "lng": 115.8876641
    },
    {
      "suburb": {
        "id": 3091,
        "name": "Siluq Ngurai",
        "lat": -0.7803932,
        "lng": 115.8994923
      },
      "city": {
        "id": 189,
        "name": "Kutai Barat",
        "lat": -0.4051796,
        "lng": 115.8521764
      },
      "province": {
        "id": 15,
        "name": "Kalimantan Timur",
        "lat": 0.5386586,
        "lng": 116.419389
      },
      "country": {
        "id": 228,
        "name": "INDONESIA",
        "code": "ID"
      },
      "id": 36169,
      "name": "Kaliq",
      "postcode": "75774",
      "lat": -0.4982441,
      "lng": 115.9586253
    },
    {
      "suburb": {
        "id": 3091,
        "name": "Siluq Ngurai",
        "lat": -0.7803932,
        "lng": 115.8994923
      },
      "city": {
        "id": 189,
        "name": "Kutai Barat",
        "lat": -0.4051796,
        "lng": 115.8521764
      },
      "province": {
        "id": 15,
        "name": "Kalimantan Timur",
        "lat": 0.5386586,
        "lng": 116.419389
      },