{
  "metadata": {
    "path": "/v3/location/areas?limit=1000&page=79",
    "http_status_code": 200,
    "http_status": "OK",
    "timestamp": 1647340941
  },
  "data": [
    {
      "suburb": {
        "id": 6724,
        "name": "Adian Koting",
        "lat": 1.9256753,
        "lng": 98.8803925
      },
      "city": {
        "id": 455,
        "name": "Tapanuli Utara",
        "lat": 2.0405246,
        "lng": 99.1013498
      },
      "province": {
        "id": 34,
        "name": "Sumatera Utara",
        "lat": 2.0108563,
        "lng": 98.9784887
      },
      "country": {
        "id": 228,
        "name": "INDONESIA",
        "code": "ID"
      },
      "id": 78018,
      "name": "Pagaran Lambung IV",
      "postcode": "22461",
      "lat": 1.8968707,
      "lng": 98.8473024
    },
    {
      "suburb": {
        "id": 6724,
        "name": "Adian Koting",
        "lat": 1.9256753,
        "lng": 98.8803925
      },
      "city": {
        "id": 455,
        "name": "Tapanuli Utara",
        "lat": 2.0405246,
        "lng": 99.1013498
      },
      "province": {
        "id": 34,
        "name": "Sumatera Utara",
        "lat": 2.0108563,
        "lng": 98.9784887
      },
      "country": {
        "id": 228,
        "name": "INDONESIA",
        "code": "ID"
      },
      "id": 78019,
      "name": "Dolok Nauli",
      "postcode": "22461",
      "lat": 1.9157257,
      "lng": 98.9355737
    },
    {
      "suburb": {
        "id": 6724,
        "name": "Adian Koting",
        "lat": 1.9256753,
        "lng": 98.8803925
      },
      "city": {
        "id": 455,
        "name": "Tapanuli Utara",
        "lat": 2.0405246,
        "lng": 99.1013498
      },
      "province": {
        "id": 34,
        "name": "Sumatera Utara",
        "lat": 2.0108563,
        "lng": 98.9784887
      },
      "country": {
        "id": 228,
        "name": "INDONESIA",
        "code": "ID"
      },
      "id": 78020,
      "name": "Pagaran Lambung I",
      "postcode": "22461",
      "lat": 1.8002004,
      "lng": 98.8914256
    },
    {
      "suburb": {
        "id": 6724,
        "name": "Adian Koting",
        "lat": 1.9256753,
        "lng": 98.8803925
      },
      "city": {
        "id": 455,
        "name": "Tapanuli Utara",
        "lat": 2.0405246,
        "lng": 99.1013498
      },
      "province": {
        "id": 34,
        "name": "Sumatera Utara",
        "lat": 2.0108563,
        "lng": 98.9784887
      },
      "country": {
        "id": 228,
        "name": "INDONESIA",
        "code": "ID"
      },
      "id": 78021,
      "name": "Banuaji II",
      "postcode": "22461",
      "lat": 1.9493943,
      "lng": 98.9631789
    },
    {
      "suburb": {
        "id": 6724,
        "name": "Adian Koting",
        "lat": 1.9256753,
        "lng": 98.8803925
      },
      "city": {
        "id": 455,
        "name": "Tapanuli Utara",
        "lat": 2.0405246,
        "lng": 99.1013498
      },
      "province": {
        "id": 34,
        "name": "Sumatera Utara",
        "lat": 2.0108563,
        "lng": 98.9784887
      },
      "country": {
        "id": 228,
        "name": "INDONESIA",
        "code": "ID"
      },
      "id": 78022,
      "name": "Banuaji IV",
      "postcode": "22461",
      "lat": 1.9153763,
      "lng": 99.0018424
    },
    {
      "suburb": {
        "id": 6724,
        "name": "Adian Koting",
        "lat": 1.9256753,
        "lng": 98.8803925
      },
      "city": {
        "id": 455,
        "name": "Tapanuli Utara",
        "lat": 2.0405246,
        "lng": 99.1013498
      },
      "province": {
        "id": 34,
        "name": "Sumatera Utara",
        "lat": 2.0108563,
        "lng": 98.9784887
      },
      "country": {
        "id": 228,
        "name": "INDONESIA",
        "code": "ID"
      },
      "id": 78023,
      "name": "Adiankoting",
      "postcode": "22461",
      "lat": 1.866667,
      "lng": 98.9
    },
    {
      "suburb": {
        "id": 6724,
        "name": "Adian Koting",
        "lat": 1.9256753,
        "lng": 98.8803925
      },
      "city": {
        "id": 455,
        "name": "Tapanuli Utara",
        "lat": 2.0405246,
        "lng": 99.1013498
      },
      "province": {
        "id": 34,
        "name": "Sumatera Utara",
        "lat": 2.0108563,
        "lng": 98.9784887
      },
      "country": {
        "id": 228,
        "name": "INDONESIA",
        "code": "ID"
      },
      "id": 78024,
      "name": "Banuaji I",
      "postcode": "22461",
      "lat": 1.8816784,
      "lng": 98.98527
    },
    {
      "suburb": {
        "id": 6725,
        "name": "Pagaran",
        "lat": 2.177468,
        "lng": 98.9024603
      },
      "city": {
        "id": 455,
        "name": "Tapanuli Utara",
        "lat": 2.0405246,
        "lng": 99.1013498
      },
      "province": {
        "id": 34,
        "name": "Sumatera Utara",
        "lat": 2.0108563,
        "lng": 98.9784887
      },
      "country": {
        "id": 228,
        "name": "INDONESIA",
        "code": "ID"
      },
      "id": 78025,
      "name": "Sipultak Dolok",
      "postcode": "22458",
      "lat": 2.2017989,
      "lng": 98.8969427
    },
    {
      "suburb": {
        "id": 6725,
        "name": "Pagaran",
        "lat": 2.177468,
        "lng": 98.9024603
      },
      "city": {
        "id": 455,
        "name": "Tapanuli Utara",
        "lat": 2.0405246,
        "lng": 99.1013498
      },
      "province": {
        "id": 34,
        "name": "Sumatera Utara",
        "lat": 2.0108563,
        "lng": 98.9784887
      },
      "country": {
        "id": 228,
        "name": "INDONESIA",
        "code": "ID"
      },
      "id": 78026,
      "name": "Sipultak",
      "postcode": "22458",
      "lat": 2.1847065,
      "lng": 98.9107373
    },
    {
      "suburb": {
        "id": 6725,
        "name": "Pagaran",
        "lat": 2.177468,
        "lng": 98.9024603
      },
      "city": {
        "id": 455,
        "name": "Tapanuli Utara",
        "lat": 2.0405246,
        "lng": 99.1013498
      },
      "province": {
        "id": 34,
        "name": "Sumatera Utara",
        "lat": 2.0108563,
        "lng": 98.9784887
      },
      "country": {
        "id": 228,
        "name": "INDONESIA",
        "code": "ID"
      },
      "id": 78027,
      "name": "Sibaragas",
      "postcode": "22458",
      "lat": 2.153021,
      "lng": 98.9300538
    },
    {
      "suburb": {
        "id": 6725,
        "name": "Pagaran",
        "lat": 2.177468,
        "lng": 98.9024603
      },
      "city": {
        "id": 455,
        "name": "Tapanuli Utara",
        "lat": 2.0405246,
        "lng": 99.1013498
      },
      "province": {
        "id": 34,
        "name": "Sumatera Utara",
        "lat": 2.0108563,
        "lng": 98.9784887
      },
      "country": {
        "id": 228,
        "name": "INDONESIA",
        "code": "ID"
      },
      "id": 78028,
      "name": "Simamora Hasibuan",
      "postcode": "22458",
      "lat": 2.1438275,
      "lng": 98.8417888
    },
    {
      "suburb": {
        "id": 6725,
        "name": "Pagaran",
        "lat": 2.177468,
        "lng": 98.9024603
      },
      "city": {
        "id": 455,
        "name": "Tapanuli Utara",
        "lat": 2.0405246,
        "lng": 99.1013498
      },
      "province": {
        "id": 34,
        "name": "Sumatera Utara",
        "lat": 2.0108563,
        "lng": 98.9784887
      },
      "country": {
        "id": 228,
        "name": "INDONESIA",
        "code": "ID"
      },
      "id": 78029,
      "name": "Pagaran",
      "postcode": "22458",
      "lat": 2.1748254,
      "lng": 98.9383338
    },
    {
      "suburb": {
        "id": 6725,
        "name": "Pagaran",
        "lat": 2.177468,
        "lng": 98.9024603
      },
      "city": {
        "id": 455,
        "name": "Tapanuli Utara",
        "lat": 2.0405246,
        "lng": 99.1013498
      },
      "province": {
        "id": 34,
        "name": "Sumatera Utara",
        "lat": 2.0108563,
        "lng": 98.9784887
      },
      "country": {
        "id": 228,
        "name": "INDONESIA",
        "code": "ID"
      },
      "id": 78030,
      "name": "Parhorboan",
      "postcode": "22458",
      "lat": 2.1797821,
      "lng": 98.9217747
    },
    {
      "suburb": {
        "id": 6725,
        "name": "Pagaran",
        "lat": 2.177468,
        "lng": 98.9024603
      },
      "city": {
        "id": 455,
        "name": "Tapanuli Utara",
        "lat": 2.0405246,
        "lng": 99.1013498
      },
      "province": {
        "id": 34,
        "name": "Sumatera Utara",
        "lat": 2.0108563,
        "lng": 98.9784887
      },
      "country": {
        "id": 228,
        "name": "INDONESIA",
        "code": "ID"
      },
      "id": 78031,
      "name": "Lumban Motung",
      "postcode": "22458",
      "lat": 2.1602227,
      "lng": 98.9438542
    },
    {
      "suburb": {
        "id": 6725,
        "name": "Pagaran",
        "lat": 2.177468,
        "lng": 98.9024603
      },
      "city": {
        "id": 455,
        "name": "Tapanuli Utara",
        "lat": 2.0405246,
        "lng": 99.1013498
      },
      "province": {
        "id": 34,
        "name": "Sumatera Utara",
        "lat": 2.0108563,
        "lng": 98.9784887
      },
      "country": {
        "id": 228,
        "name": "INDONESIA",
        "code": "ID"
      },
      "id": 78032,
      "name": "Lumban Silintong",
      "postcode": "22458",
      "lat": 2.1632529,
      "lng": 98.8417888
    },
    {
      "suburb": {
        "id": 6725,
        "name": "Pagaran",
        "lat": 2.177468,
        "lng": 98.9024603
      },
      "city": {
        "id": 455,
        "name": "Tapanuli Utara",
        "lat": 2.0405246,
        "lng": 99.1013498
      },
      "province": {
        "id": 34,
        "name": "Sumatera Utara",
        "lat": 2.0108563,
        "lng": 98.9784887
      },
      "country": {
        "id": 228,
        "name": "INDONESIA",
        "code": "ID"
      },
      "id": 78033,
      "name": "Lumban Ina Ina",
      "postcode": "22458",
      "lat": 2.2113884,
      "lng": 98.9190152
    },
    {
      "suburb": {
        "id": 6725,
        "name": "Pagaran",
        "lat": 2.177468,
        "lng": 98.9024603
      },
      "city": {
        "id": 455,
        "name": "Tapanuli Utara",
        "lat": 2.0405246,
        "lng": 99.1013498
      },
      "province": {
        "id": 34,
        "name": "Sumatera Utara",
        "lat": 2.0108563,
        "lng": 98.9784887
      },
      "country": {
        "id": 228,
        "name": "INDONESIA",
        "code": "ID"
      },
      "id": 78034,
      "name": "Lumban Julu",
      "postcode": "22458",
      "lat": 2.1808399,
      "lng": 98.9479948
    },
    {
      "suburb": {
        "id": 6725,
        "name": "Pagaran",
        "lat": 2.177468,
        "lng": 98.9024603
      },
      "city": {
        "id": 455,
        "name": "Tapanuli Utara",
        "lat": 2.0405246,
        "lng": 99.1013498
      },
      "province": {
        "id": 34,
        "name": "Sumatera Utara",
        "lat": 2.0108563,
        "lng": 98.9784887
      },
      "country": {
        "id": 228,
        "name": "INDONESIA",
        "code": "ID"
      },
      "id": 78035,
      "name": "Hasibuan",
      "postcode": "22458",
      "lat": 2.1653078,
      "lng": 98.9052192
    },
    {
      "suburb": {
        "id": 6725,
        "name": "Pagaran",
        "lat": 2.177468,
        "lng": 98.9024603
      },
      "city": {
        "id": 455,
        "name": "Tapanuli Utara",
        "lat": 2.0405246,
        "lng": 99.1013498
      },
      "province": {
        "id": 34,
        "name": "Sumatera Utara",
        "lat": 2.0108563,
        "lng": 98.9784887
      },
      "country": {
        "id": 228,
        "name": "INDONESIA",
        "code": "ID"
      },
      "id": 78036,
      "name": "Lubis",
      "postcode": "22458",
      "lat": 2.1942263,
      "lng": 98.9438542
    },
    {
      "suburb": {
        "id": 6725,
        "name": "Pagaran",
        "lat": 2.177468,
        "lng": 98.9024603
      },
      "city": {
        "id": 455,
        "name": "Tapanuli Utara",
        "lat": 2.0405246,
        "lng": 99.1013498
      },
      "province": {
        "id": 34,
        "name": "Sumatera Utara",
        "lat": 2.0108563,
        "lng": 98.9784887
      },
      "country": {
        "id": 228,
        "name": "INDONESIA",
        "code": "ID"
      },
      "id": 78037,
      "name": "Banua Luhu",
      "postcode": "22458",
      "lat": 2.173537,
      "lng": 98.9507554
    },
    {
      "suburb": {
        "id": 6725,
        "name": "Pagaran",
        "lat": 2.177468,
        "lng": 98.9024603
      },
      "city": {
        "id": 455,
        "name": "Tapanuli Utara",
        "lat": 2.0405246,
        "lng": 99.1013498
      },
      "province": {
        "id": 34,
        "name": "Sumatera Utara",
        "lat": 2.0108563,
        "lng": 98.9784887
      },
      "country": {
        "id": 228,
        "name": "INDONESIA",
        "code": "ID"
      },
      "id": 78038,
      "name": "Dolok Saribu",
      "postcode": "22458",
      "lat": 2.1873829,
      "lng": 98.8693609
    },
    {
      "suburb": {
        "id": 6726,
        "name": "Bakti Raja",
        "lat": 2.3094209,
        "lng": 98.8087151
      },
      "city": {
        "id": 456,
        "name": "Humbang Hasundutan",
        "lat": 2.1988508,
        "lng": 98.5721016
      },
      "province": {
        "id": 34,
        "name": "Sumatera Utara",
        "lat": 2.0108563,
        "lng": 98.9784887
      },
      "country": {
        "id": 228,
        "name": "INDONESIA",
        "code": "ID"
      },
      "id": 78039,
      "name": "Tipang",
      "postcode": "22457",
      "lat": 2.3605715,
      "lng": 98.8169822
    },
    {
      "suburb": {
        "id": 6727,
        "name": "Dolok Sanggul",
        "lat": 2.2465397,
        "lng": 98.7371039
      },
      "city": {
        "id": 456,
        "name": "Humbang Hasundutan",
        "lat": 2.1988508,
        "lng": 98.5721016
      },
      "province": {
        "id": 34,
        "name": "Sumatera Utara",
        "lat": 2.0108563,
        "lng": 98.9784887
      },
      "country": {
        "id": 228,
        "name": "INDONESIA",
        "code": "ID"
      },
      "id": 78040,
      "name": "Sosor Tambok",
      "postcode": "22457",
      "lat": 2.2470671,
      "lng": 98.6490584
    },
    {
      "suburb": {
        "id": 6727,
        "name": "Dolok Sanggul",
        "lat": 2.2465397,
        "lng": 98.7371039
      },
      "city": {
        "id": 456,
        "name": "Humbang Hasundutan",
        "lat": 2.1988508,
        "lng": 98.5721016
      },
      "province": {
        "id": 34,
        "name": "Sumatera Utara",
        "lat": 2.0108563,
        "lng": 98.9784887
      },
      "country": {
        "id": 228,
        "name": "INDONESIA",
        "code": "ID"
      },
      "id": 78041,
      "name": "Sosortolong Sihite III",
      "postcode": "22457",
      "lat": 2.2465397,
      "lng": 98.7371039
    },
    {
      "suburb": {
        "id": 6726,
        "name": "Bakti Raja",
        "lat": 2.3094209,
        "lng": 98.8087151
      },
      "city": {
        "id": 456,
        "name": "Humbang Hasundutan",
        "lat": 2.1988508,
        "lng": 98.5721016
      },
      "province": {
        "id": 34,
        "name": "Sumatera Utara",
        "lat": 2.0108563,
        "lng": 98.9784887
      },
      "country": {
        "id": 228,
        "name": "INDONESIA",
        "code": "ID"
      },
      "id": 78042,
      "name": "Siunong-Unong Julu",
      "postcode": "22457",
      "lat": 2.3021622,
      "lng": 98.8004489
    },
    {
      "suburb": {
        "id": 6727,
        "name": "Dolok Sanggul",
        "lat": 2.2465397,
        "lng": 98.7371039
      },
      "city": {
        "id": 456,
        "name": "Humbang Hasundutan",
        "lat": 2.1988508,
        "lng": 98.5721016
      },
      "province": {
        "id": 34,
        "name": "Sumatera Utara",
        "lat": 2.0108563,
        "lng": 98.9784887
      },
      "country": {
        "id": 228,
        "name": "INDONESIA",
        "code": "ID"
      },
      "id": 78043,
      "name": "Sosor Gonting",
      "postcode": "22457",
      "lat": 2.2900663,
      "lng": 98.7866738
    },
    {
      "suburb": {
        "id": 6728,
        "name": "Sijama Polang",
        "lat": 2.1785066,
        "lng": 98.7260927
      },
      "city": {
        "id": 456,
        "name": "Humbang Hasundutan",
        "lat": 2.1988508,
        "lng": 98.5721016
      },
      "province": {
        "id": 34,
        "name": "Sumatera Utara",
        "lat": 2.0108563,
        "lng": 98.9784887
      },
      "country": {
        "id": 228,
        "name": "INDONESIA",
        "code": "ID"
      },
      "id": 78044,
      "name": "Sitapongan",
      "postcode": "22457",
      "lat": 2.1106974,
      "lng": 98.6930685
    },
    {
      "suburb": {
        "id": 6727,
        "name": "Dolok Sanggul",
        "lat": 2.2465397,
        "lng": 98.7371039
      },
      "city": {
        "id": 456,
        "name": "Humbang Hasundutan",
        "lat": 2.1988508,
        "lng": 98.5721016
      },
      "province": {
        "id": 34,
        "name": "Sumatera Utara",
        "lat": 2.0108563,
        "lng": 98.9784887
      },
      "country": {
        "id": 228,
        "name": "INDONESIA",
        "code": "ID"
      },
      "id": 78045,
      "name": "Sirisirisi",
      "postcode": "22457",
      "lat": 2.2781412,
      "lng": 98.7453634
    },
    {
      "suburb": {
        "id": 6729,
        "name": "Pollung",
        "lat": 2.3736302,
        "lng": 98.6820636
      },
      "city": {
        "id": 456,
        "name": "Humbang Hasundutan",
        "lat": 2.1988508,
        "lng": 98.5721016
      },
      "province": {
        "id": 34,
        "name": "Sumatera Utara",
        "lat": 2.0108563,
        "lng": 98.9784887
      },
      "country": {
        "id": 228,
        "name": "INDONESIA",
        "code": "ID"
      },
      "id": 78046,
      "name": "Sipitu Huta",
      "postcode": "22457",
      "lat": 2.3209635,
      "lng": 98.7164592
    },
    {
      "suburb": {
        "id": 6727,
        "name": "Dolok Sanggul",
        "lat": 2.2465397,
        "lng": 98.7371039
      },
      "city": {
        "id": 456,
        "name": "Humbang Hasundutan",
        "lat": 2.1988508,
        "lng": 98.5721016
      },
      "province": {
        "id": 34,
        "name": "Sumatera Utara",
        "lat": 2.0108563,
        "lng": 98.9784887
      },
      "country": {
        "id": 228,
        "name": "INDONESIA",
        "code": "ID"
      },
      "id": 78047,
      "name": "Simarigung",
      "postcode": "22457",
      "lat": 2.1732281,
      "lng": 98.7976937
    },
    {
      "suburb": {
        "id": 6726,
        "name": "Bakti Raja",
        "lat": 2.3094209,
        "lng": 98.8087151
      },
      "city": {
        "id": 456,
        "name": "Humbang Hasundutan",
        "lat": 2.1988508,
        "lng": 98.5721016
      },
      "province": {
        "id": 34,
        "name": "Sumatera Utara",
        "lat": 2.0108563,
        "lng": 98.9784887
      },
      "country": {
        "id": 228,
        "name": "INDONESIA",
        "code": "ID"
      },
      "id": 78048,
      "name": "Sinambela",
      "postcode": "22457",
      "lat": 2.3154358,
      "lng": 98.8211161
    },
    {
      "suburb": {
        "id": 6726,
        "name": "Bakti Raja",
        "lat": 2.3094209,
        "lng": 98.8087151
      },
      "city": {
        "id": 456,
        "name": "Humbang Hasundutan",
        "lat": 2.1988508,
        "lng": 98.5721016
      },
      "province": {
        "id": 34,
        "name": "Sumatera Utara",
        "lat": 2.0108563,
        "lng": 98.9784887
      },
      "country": {
        "id": 228,
        "name": "INDONESIA",
        "code": "ID"
      },
      "id": 78049,
      "name": "Simangulampe",
      "postcode": "22457",
      "lat": 2.3262217,
      "lng": 98.8500594
    },
    {
      "suburb": {
        "id": 6726,
        "name": "Bakti Raja",
        "lat": 2.3094209,
        "lng": 98.8087151
      },
      "city": {
        "id": 456,
        "name": "Humbang Hasundutan",
        "lat": 2.1988508,
        "lng": 98.5721016
      },
      "province": {
        "id": 34,
        "name": "Sumatera Utara",
        "lat": 2.0108563,
        "lng": 98.9784887
      },
      "country": {
        "id": 228,
        "name": "INDONESIA",
        "code": "ID"
      },
      "id": 78050,
      "name": "Simamora",
      "postcode": "22457",
      "lat": 2.3069669,
      "lng": 98.8114707
    },
    {
      "suburb": {
        "id": 6727,
        "name": "Dolok Sanggul",
        "lat": 2.2465397,
        "lng": 98.7371039
      },
      "city": {
        "id": 456,
        "name": "Humbang Hasundutan",
        "lat": 2.1988508,
        "lng": 98.5721016
      },
      "province": {
        "id": 34,
        "name": "Sumatera Utara",
        "lat": 2.0108563,
        "lng": 98.9784887
      },
      "country": {
        "id": 228,
        "name": "INDONESIA",
        "code": "ID"
      },
      "id": 78051,
      "name": "Simangaronsang",
      "postcode": "22457",
      "lat": 2.3000836,
      "lng": 98.7426101
    },
    {
      "suburb": {
        "id": 6727,
        "name": "Dolok Sanggul",
        "lat": 2.2465397,
        "lng": 98.7371039
      },
      "city": {
        "id": 456,
        "name": "Humbang Hasundutan",
        "lat": 2.1988508,
        "lng": 98.5721016
      },
      "province": {
        "id": 34,
        "name": "Sumatera Utara",
        "lat": 2.0108563,
        "lng": 98.9784887
      },
      "country": {
        "id": 228,
        "name": "INDONESIA",
        "code": "ID"
      },
      "id": 78052,
      "name": "Sihite II",
      "postcode": "22457",
      "lat": 2.2490234,
      "lng": 98.7288454
    },
    {
      "suburb": {
        "id": 6727,
        "name": "Dolok Sanggul",
        "lat": 2.2465397,
        "lng": 98.7371039
      },
      "city": {
        "id": 456,
        "name": "Humbang Hasundutan",
        "lat": 2.1988508,
        "lng": 98.5721016
      },
      "province": {
        "id": 34,
        "name": "Sumatera Utara",
        "lat": 2.0108563,
        "lng": 98.9784887
      },
      "country": {
        "id": 228,
        "name": "INDONESIA",
        "code": "ID"
      },
      "id": 78053,
      "name": "Sileang",
      "postcode": "22457",
      "lat": 2.273001,
      "lng": 98.7894287
    },
    {
      "suburb": {
        "id": 6728,
        "name": "Sijama Polang",
        "lat": 2.1785066,
        "lng": 98.7260927
      },
      "city": {
        "id": 456,
        "name": "Humbang Hasundutan",
        "lat": 2.1988508,
        "lng": 98.5721016
      },
      "province": {
        "id": 34,
        "name": "Sumatera Utara",
        "lat": 2.0108563,
        "lng": 98.9784887
      },
      "country": {
        "id": 228,
        "name": "INDONESIA",
        "code": "ID"
      },
      "id": 78054,
      "name": "Sigulok",
      "postcode": "22457",
      "lat": 2.1539878,
      "lng": 98.7646388
    },
    {
      "suburb": {
        "id": 6727,
        "name": "Dolok Sanggul",
        "lat": 2.2465397,
        "lng": 98.7371039
      },
      "city": {
        "id": 456,
        "name": "Humbang Hasundutan",
        "lat": 2.1988508,
        "lng": 98.5721016
      },
      "province": {
        "id": 34,
        "name": "Sumatera Utara",
        "lat": 2.0108563,
        "lng": 98.9784887
      },
      "country": {
        "id": 228,
        "name": "INDONESIA",
        "code": "ID"
      },
      "id": 78055,
      "name": "Sihite I",
      "postcode": "22457",
      "lat": 2.2599698,
      "lng": 98.7302217
    },
    {
      "suburb": {
        "id": 6728,
        "name": "Sijama Polang",
        "lat": 2.1785066,
        "lng": 98.7260927
      },
      "city": {
        "id": 456,
        "name": "Humbang Hasundutan",
        "lat": 2.1988508,
        "lng": 98.5721016
      },
      "province": {
        "id": 34,
        "name": "Sumatera Utara",
        "lat": 2.0108563,
        "lng": 98.9784887
      },
      "country": {
        "id": 228,
        "name": "INDONESIA",
        "code": "ID"
      },
      "id": 78056,
      "name": "Sibuntuon",
      "postcode": "22457",
      "lat": 2.1444643,
      "lng": 98.7315981
    },
    {
      "suburb": {
        "id": 6727,
        "name": "Dolok Sanggul",
        "lat": 2.2465397,
        "lng": 98.7371039
      },
      "city": {
        "id": 456,
        "name": "Humbang Hasundutan",
        "lat": 2.1988508,
        "lng": 98.5721016
      },
      "province": {
        "id": 34,
        "name": "Sumatera Utara",
        "lat": 2.0108563,
        "lng": 98.9784887
      },
      "country": {
        "id": 228,
        "name": "INDONESIA",
        "code": "ID"
      },
      "id": 78057,
      "name": "Sigala Gala (Silaga Laga)",
      "postcode": "22457",
      "lat": 2.2686006,
      "lng": 98.7123309
    },
    {
      "suburb": {
        "id": 6728,
        "name": "Sijama Polang",
        "lat": 2.1785066,
        "lng": 98.7260927
      },
      "city": {
        "id": 456,
        "name": "Humbang Hasundutan",
        "lat": 2.1988508,
        "lng": 98.5721016
      },
      "province": {
        "id": 34,
        "name": "Sumatera Utara",
        "lat": 2.0108563,
        "lng": 98.9784887
      },
      "country": {
        "id": 228,
        "name": "INDONESIA",
        "code": "ID"
      },
      "id": 78058,
      "name": "Sanggaran I",
      "postcode": "22457",
      "lat": 2.0720076,
      "lng": 98.6710603
    },
    {
      "suburb": {
        "id": 6728,
        "name": "Sijama Polang",
        "lat": 2.1785066,
        "lng": 98.7260927
      },
      "city": {
        "id": 456,
        "name": "Humbang Hasundutan",
        "lat": 2.1988508,
        "lng": 98.5721016
      },
      "province": {
        "id": 34,
        "name": "Sumatera Utara",
        "lat": 2.0108563,
        "lng": 98.9784887
      },
      "country": {
        "id": 228,
        "name": "INDONESIA",
        "code": "ID"
      },
      "id": 78059,
      "name": "Siborboron",
      "postcode": "22457",
      "lat": 2.2029131,
      "lng": 98.7095789
    },
    {
      "suburb": {
        "id": 6727,
        "name": "Dolok Sanggul",
        "lat": 2.2465397,
        "lng": 98.7371039
      },
      "city": {
        "id": 456,
        "name": "Humbang Hasundutan",
        "lat": 2.1988508,
        "lng": 98.5721016
      },
      "province": {
        "id": 34,
        "name": "Sumatera Utara",
        "lat": 2.0108563,
        "lng": 98.9784887
      },
      "country": {
        "id": 228,
        "name": "INDONESIA",
        "code": "ID"
      },
      "id": 78060,
      "name": "Sampean",
      "postcode": "22457",
      "lat": 2.2424268,
      "lng": 98.6105703
    },
    {
      "suburb": {
        "id": 6729,
        "name": "Pollung",
        "lat": 2.3736302,
        "lng": 98.6820636
      },
      "city": {
        "id": 456,
        "name": "Humbang Hasundutan",
        "lat": 2.1988508,
        "lng": 98.5721016
      },
      "province": {
        "id": 34,
        "name": "Sumatera Utara",
        "lat": 2.0108563,
        "lng": 98.9784887
      },
      "country": {
        "id": 228,
        "name": "INDONESIA",
        "code": "ID"
      },
      "id": 78061,
      "name": "Ria-Ria",
      "postcode": "22457",
      "lat": 2.4222657,
      "lng": 98.7150831
    },
    {
      "suburb": {
        "id": 6727,
        "name": "Dolok Sanggul",
        "lat": 2.2465397,
        "lng": 98.7371039
      },
      "city": {
        "id": 456,
        "name": "Humbang Hasundutan",
        "lat": 2.1988508,
        "lng": 98.5721016
      },
      "province": {
        "id": 34,
        "name": "Sumatera Utara",
        "lat": 2.0108563,
        "lng": 98.9784887
      },
      "country": {
        "id": 228,
        "name": "INDONESIA",
        "code": "ID"
      },
      "id": 78062,
      "name": "Saitnihuta",
      "postcode": "22457",
      "lat": 2.1927988,
      "lng": 98.7756556
    },
    {
      "suburb": {
        "id": 6727,
        "name": "Dolok Sanggul",
        "lat": 2.2465397,
        "lng": 98.7371039
      },
      "city": {
        "id": 456,
        "name": "Humbang Hasundutan",
        "lat": 2.1988508,
        "lng": 98.5721016
      },
      "province": {
        "id": 34,
        "name": "Sumatera Utara",
        "lat": 2.0108563,
        "lng": 98.9784887
      },
      "country": {
        "id": 228,
        "name": "INDONESIA",
        "code": "ID"
      },
      "id": 78063,
      "name": "Purba Dolok",
      "postcode": "22457",
      "lat": 2.2270727,
      "lng": 98.7371039
    },
    {
      "suburb": {
        "id": 6727,
        "name": "Dolok Sanggul",
        "lat": 2.2465397,
        "lng": 98.7371039
      },
      "city": {
        "id": 456,
        "name": "Humbang Hasundutan",
        "lat": 2.1988508,
        "lng": 98.5721016
      },
      "province": {
        "id": 34,
        "name": "Sumatera Utara",
        "lat": 2.0108563,
        "lng": 98.9784887
      },
      "country": {
        "id": 228,
        "name": "INDONESIA",
        "code": "ID"
      },
      "id": 78064,
      "name": "Purba Manalu",
      "postcode": "22457",
      "lat": 2.2488241,
      "lng": 98.7618849
    },
    {
      "suburb": {
        "id": 6727,
        "name": "Dolok Sanggul",
        "lat": 2.2465397,
        "lng": 98.7371039
      },
      "city": {
        "id": 456,
        "name": "Humbang Hasundutan",
        "lat": 2.1988508,
        "lng": 98.5721016
      },
      "province": {
        "id": 34,
        "name": "Sumatera Utara",
        "lat": 2.0108563,
        "lng": 98.9784887
      },
      "country": {
        "id": 228,
        "name": "INDONESIA",
        "code": "ID"
      },
      "id": 78065,
      "name": "Pasaribu",
      "postcode": "22457",
      "lat": 2.2633962,
      "lng": 98.7673929
    },
    {
      "suburb": {
        "id": 6729,
        "name": "Pollung",
        "lat": 2.3736302,
        "lng": 98.6820636
      },
      "city": {
        "id": 456,
        "name": "Humbang Hasundutan",
        "lat": 2.1988508,
        "lng": 98.5721016
      },
      "province": {
        "id": 34,
        "name": "Sumatera Utara",
        "lat": 2.0108563,
        "lng": 98.9784887
      },
      "country": {
        "id": 228,
        "name": "INDONESIA",
        "code": "ID"
      },
      "id": 78066,
      "name": "Pollung",
      "postcode": "22457",
      "lat": 2.3416142,
      "lng": 98.7288454
    },
    {
      "suburb": {
        "id": 6729,
        "name": "Pollung",
        "lat": 2.3736302,
        "lng": 98.6820636
      },
      "city": {
        "id": 456,
        "name": "Humbang Hasundutan",
        "lat": 2.1988508,
        "lng": 98.5721016
      },
      "province": {
        "id": 34,
        "name": "Sumatera Utara",
        "lat": 2.0108563,
        "lng": 98.9784887
      },
      "country": {
        "id": 228,
        "name": "INDONESIA",
        "code": "ID"
      },
      "id": 78067,
      "name": "Parsingguran I",
      "postcode": "22457",
      "lat": 2.3780577,
      "lng": 98.7536237
    },
    {
      "suburb": {
        "id": 6729,
        "name": "Pollung",
        "lat": 2.3736302,
        "lng": 98.6820636
      },
      "city": {
        "id": 456,
        "name": "Humbang Hasundutan",
        "lat": 2.1988508,
        "lng": 98.5721016
      },
      "province": {
        "id": 34,
        "name": "Sumatera Utara",
        "lat": 2.0108563,
        "lng": 98.9784887
      },
      "country": {
        "id": 228,
        "name": "INDONESIA",
        "code": "ID"
      },
      "id": 78068,
      "name": "Parsingguran II",
      "postcode": "22457",
      "lat": 2.3827634,
      "lng": 98.7811645
    },
    {
      "suburb": {
        "id": 6727,
        "name": "Dolok Sanggul",
        "lat": 2.2465397,
        "lng": 98.7371039
      },
      "city": {
        "id": 456,
        "name": "Humbang Hasundutan",
        "lat": 2.1988508,
        "lng": 98.5721016
      },
      "province": {
        "id": 34,
        "name": "Sumatera Utara",
        "lat": 2.0108563,
        "lng": 98.9784887
      },
      "country": {
        "id": 228,
        "name": "INDONESIA",
        "code": "ID"
      },
      "id": 78069,
      "name": "Parik Sinomba",
      "postcode": "22457",
      "lat": 2.2831473,
      "lng": 98.7233402
    },
    {
      "suburb": {
        "id": 6729,
        "name": "Pollung",
        "lat": 2.3736302,
        "lng": 98.6820636
      },
      "city": {
        "id": 456,
        "name": "Humbang Hasundutan",
        "lat": 2.1988508,
        "lng": 98.5721016
      },
      "province": {
        "id": 34,
        "name": "Sumatera Utara",
        "lat": 2.0108563,
        "lng": 98.9784887
      },
      "country": {
        "id": 228,
        "name": "INDONESIA",
        "code": "ID"
      },
      "id": 78070,
      "name": "Pardomuan",
      "postcode": "22457",
      "lat": 2.3220028,
      "lng": 98.7453634
    },
    {
      "suburb": {
        "id": 6729,
        "name": "Pollung",
        "lat": 2.3736302,
        "lng": 98.6820636
      },
      "city": {
        "id": 456,
        "name": "Humbang Hasundutan",
        "lat": 2.1988508,
        "lng": 98.5721016
      },
      "province": {
        "id": 34,
        "name": "Sumatera Utara",
        "lat": 2.0108563,
        "lng": 98.9784887
      },
      "country": {
        "id": 228,
        "name": "INDONESIA",
        "code": "ID"
      },
      "id": 78071,
      "name": "Pandumaan",
      "postcode": "22457",
      "lat": 2.3201946,
      "lng": 98.6435589
    },
    {
      "suburb": {
        "id": 6729,
        "name": "Pollung",
        "lat": 2.3736302,
        "lng": 98.6820636
      },
      "city": {
        "id": 456,
        "name": "Humbang Hasundutan",
        "lat": 2.1988508,
        "lng": 98.5721016
      },
      "province": {
        "id": 34,
        "name": "Sumatera Utara",
        "lat": 2.0108563,
        "lng": 98.9784887
      },
      "country": {
        "id": 228,
        "name": "INDONESIA",
        "code": "ID"
      },
      "id": 78072,
      "name": "Pansur Batu",
      "postcode": "22457",
      "lat": 2.3445517,
      "lng": 98.6490584
    },
    {
      "suburb": {
        "id": 6727,
        "name": "Dolok Sanggul",
        "lat": 2.2465397,
        "lng": 98.7371039
      },
      "city": {
        "id": 456,
        "name": "Humbang Hasundutan",
        "lat": 2.1988508,
        "lng": 98.5721016
      },
      "province": {
        "id": 34,
        "name": "Sumatera Utara",
        "lat": 2.0108563,
        "lng": 98.9784887
      },
      "country": {
        "id": 228,
        "name": "INDONESIA",
        "code": "ID"
      },
      "id": 78073,
      "name": "Pakkat",
      "postcode": "22457",
      "lat": 2.2535585,
      "lng": 98.7839191
    },
    {
      "suburb": {
        "id": 6728,
        "name": "Sijama Polang",
        "lat": 2.1785066,
        "lng": 98.7260927
      },
      "city": {
        "id": 456,
        "name": "Humbang Hasundutan",
        "lat": 2.1988508,
        "lng": 98.5721016
      },
      "province": {
        "id": 34,
        "name": "Sumatera Utara",
        "lat": 2.0108563,
        "lng": 98.9784887
      },
      "country": {
        "id": 228,
        "name": "INDONESIA",
        "code": "ID"
      },
      "id": 78074,
      "name": "Nagurguran",
      "postcode": "22457",
      "lat": 2.1226925,
      "lng": 98.7178353
    },
    {
      "suburb": {
        "id": 6727,
        "name": "Dolok Sanggul",
        "lat": 2.2465397,
        "lng": 98.7371039
      },
      "city": {
        "id": 456,
        "name": "Humbang Hasundutan",
        "lat": 2.1988508,
        "lng": 98.5721016
      },
      "province": {
        "id": 34,
        "name": "Sumatera Utara",
        "lat": 2.0108563,
        "lng": 98.9784887
      },
      "country": {
        "id": 228,
        "name": "INDONESIA",
        "code": "ID"
      },
      "id": 78075,
      "name": "Matiti I",
      "postcode": "22457",
      "lat": 2.2589933,
      "lng": 98.6903172
    },
    {
      "suburb": {
        "id": 6727,
        "name": "Dolok Sanggul",
        "lat": 2.2465397,
        "lng": 98.7371039
      },
      "city": {
        "id": 456,
        "name": "Humbang Hasundutan",
        "lat": 2.1988508,
        "lng": 98.5721016
      },
      "province": {
        "id": 34,
        "name": "Sumatera Utara",
        "lat": 2.0108563,
        "lng": 98.9784887
      },
      "country": {
        "id": 228,
        "name": "INDONESIA",
        "code": "ID"
      },
      "id": 78076,
      "name": "Matiti II",
      "postcode": "22457",
      "lat": 2.2600697,
      "lng": 98.713707
    },
    {
      "suburb": {
        "id": 6726,
        "name": "Bakti Raja",
        "lat": 2.3094209,
        "lng": 98.8087151
      },
      "city": {
        "id": 456,
        "name": "Humbang Hasundutan",
        "lat": 2.1988508,
        "lng": 98.5721016
      },
      "province": {
        "id": 34,
        "name": "Sumatera Utara",
        "lat": 2.0108563,
        "lng": 98.9784887
      },
      "country": {
        "id": 228,
        "name": "INDONESIA",
        "code": "ID"
      },
      "id": 78077,
      "name": "Marbun",
      "postcode": "22457",
      "lat": 2.3264302,
      "lng": 98.8169822
    },
    {
      "suburb": {
        "id": 6726,
        "name": "Bakti Raja",
        "lat": 2.3094209,
        "lng": 98.8087151
      },
      "city": {
        "id": 456,
        "name": "Humbang Hasundutan",
        "lat": 2.1988508,
        "lng": 98.5721016
      },
      "province": {
        "id": 34,
        "name": "Sumatera Utara",
        "lat": 2.0108563,
        "lng": 98.9784887
      },
      "country": {
        "id": 228,
        "name": "INDONESIA",
        "code": "ID"
      },
      "id": 78078,
      "name": "Marbun Tonga Marbun Dolok",
      "postcode": "22457",
      "lat": 2.3119094,
      "lng": 98.8004489
    },
    {
      "suburb": {
        "id": 6727,
        "name": "Dolok Sanggul",
        "lat": 2.2465397,
        "lng": 98.7371039
      },
      "city": {
        "id": 456,
        "name": "Humbang Hasundutan",
        "lat": 2.1988508,
        "lng": 98.5721016
      },
      "province": {
        "id": 34,
        "name": "Sumatera Utara",
        "lat": 2.0108563,
        "lng": 98.9784887
      },
      "country": {
        "id": 228,
        "name": "INDONESIA",
        "code": "ID"
      },
      "id": 78079,
      "name": "Lumban Purba",
      "postcode": "22457",
      "lat": 2.2145329,
      "lng": 98.8004489
    },
    {
      "suburb": {
        "id": 6727,
        "name": "Dolok Sanggul",
        "lat": 2.2465397,
        "lng": 98.7371039
      },
      "city": {
        "id": 456,
        "name": "Humbang Hasundutan",
        "lat": 2.1988508,
        "lng": 98.5721016
      },
      "province": {
        "id": 34,
        "name": "Sumatera Utara",
        "lat": 2.0108563,
        "lng": 98.9784887
      },
      "country": {
        "id": 228,
        "name": "INDONESIA",
        "code": "ID"
      },
      "id": 78080,
      "name": "Lumban Tobing",
      "postcode": "22457",
      "lat": 2.2550009,
      "lng": 98.74674
    },
    {
      "suburb": {
        "id": 6727,
        "name": "Dolok Sanggul",
        "lat": 2.2465397,
        "lng": 98.7371039
      },
      "city": {
        "id": 456,
        "name": "Humbang Hasundutan",
        "lat": 2.1988508,
        "lng": 98.5721016
      },
      "province": {
        "id": 34,
        "name": "Sumatera Utara",
        "lat": 2.0108563,
        "lng": 98.9784887
      },
      "country": {
        "id": 228,
        "name": "INDONESIA",
        "code": "ID"
      },
      "id": 78081,
      "name": "Janji",
      "postcode": "22457",
      "lat": 2.2733709,
      "lng": 98.7288454
    },
    {
      "suburb": {
        "id": 6728,
        "name": "Sijama Polang",
        "lat": 2.1785066,
        "lng": 98.7260927
      },
      "city": {
        "id": 456,
        "name": "Humbang Hasundutan",
        "lat": 2.1988508,
        "lng": 98.5721016
      },
      "province": {
        "id": 34,
        "name": "Sumatera Utara",
        "lat": 2.0108563,
        "lng": 98.9784887
      },
      "country": {
        "id": 228,
        "name": "INDONESIA",
        "code": "ID"
      },
      "id": 78082,
      "name": "Hutaginjang",
      "postcode": "22457",
      "lat": 2.1934446,
      "lng": 98.6655592
    },
    {
      "suburb": {
        "id": 6727,
        "name": "Dolok Sanggul",
        "lat": 2.2465397,
        "lng": 98.7371039
      },
      "city": {
        "id": 456,
        "name": "Humbang Hasundutan",
        "lat": 2.1988508,
        "lng": 98.5721016
      },
      "province": {
        "id": 34,
        "name": "Sumatera Utara",
        "lat": 2.0108563,
        "lng": 98.9784887
      },
      "country": {
        "id": 228,
        "name": "INDONESIA",
        "code": "ID"
      },
      "id": 78083,
      "name": "Hutaraja",
      "postcode": "22457",
      "lat": 2.3193073,
      "lng": 98.7866738
    },
    {
      "suburb": {
        "id": 6729,
        "name": "Pollung",
        "lat": 2.3736302,
        "lng": 98.6820636
      },
      "city": {
        "id": 456,
        "name": "Humbang Hasundutan",
        "lat": 2.1988508,
        "lng": 98.5721016
      },
      "province": {
        "id": 34,
        "name": "Sumatera Utara",
        "lat": 2.0108563,
        "lng": 98.9784887
      },
      "country": {
        "id": 228,
        "name": "INDONESIA",
        "code": "ID"
      },
      "id": 78084,
      "name": "Huta Paung Utara",
      "postcode": "22457",
      "lat": 2.3687135,
      "lng": 98.6875659
    },
    {
      "suburb": {
        "id": 6727,
        "name": "Dolok Sanggul",
        "lat": 2.2465397,
        "lng": 98.7371039
      },
      "city": {
        "id": 456,
        "name": "Humbang Hasundutan",
        "lat": 2.1988508,
        "lng": 98.5721016
      },
      "province": {
        "id": 34,
        "name": "Sumatera Utara",
        "lat": 2.0108563,
        "lng": 98.9784887
      },
      "country": {
        "id": 228,
        "name": "INDONESIA",
        "code": "ID"
      },
      "id": 78085,
      "name": "Hutabagasan",
      "postcode": "22457",
      "lat": 2.2465397,
      "lng": 98.7371039
    },
    {
      "suburb": {
        "id": 6729,
        "name": "Pollung",
        "lat": 2.3736302,
        "lng": 98.6820636
      },
      "city": {
        "id": 456,
        "name": "Humbang Hasundutan",
        "lat": 2.1988508,
        "lng": 98.5721016
      },
      "province": {
        "id": 34,
        "name": "Sumatera Utara",
        "lat": 2.0108563,
        "lng": 98.9784887
      },
      "country": {
        "id": 228,
        "name": "INDONESIA",
        "code": "ID"
      },
      "id": 78086,
      "name": "Huta Julu",
      "postcode": "22457",
      "lat": 2.4030035,
      "lng": 98.6710603
    },
    {
      "suburb": {
        "id": 6729,
        "name": "Pollung",
        "lat": 2.3736302,
        "lng": 98.6820636
      },
      "city": {
        "id": 456,
        "name": "Humbang Hasundutan",
        "lat": 2.1988508,
        "lng": 98.5721016
      },
      "province": {
        "id": 34,
        "name": "Sumatera Utara",
        "lat": 2.0108563,
        "lng": 98.9784887
      },
      "country": {
        "id": 228,
        "name": "INDONESIA",
        "code": "ID"
      },
      "id": 78087,
      "name": "Huta Paung",
      "postcode": "22457",
      "lat": 2.3466308,
      "lng": 98.7068269
    },
    {
      "suburb": {
        "id": 6727,
        "name": "Dolok Sanggul",
        "lat": 2.2465397,
        "lng": 98.7371039
      },
      "city": {
        "id": 456,
        "name": "Humbang Hasundutan",
        "lat": 2.1988508,
        "lng": 98.5721016
      },
      "province": {
        "id": 34,
        "name": "Sumatera Utara",
        "lat": 2.0108563,
        "lng": 98.9784887
      },
      "country": {
        "id": 228,
        "name": "INDONESIA",
        "code": "ID"
      },
      "id": 78088,
      "name": "Dolok Sanggul (Pasar Dolok Sanggul)",
      "postcode": "22457",
      "lat": 2.2598531,
      "lng": 98.7494934
    },
    {
      "suburb": {
        "id": 6727,
        "name": "Dolok Sanggul",
        "lat": 2.2465397,
        "lng": 98.7371039
      },
      "city": {
        "id": 456,
        "name": "Humbang Hasundutan",
        "lat": 2.1988508,
        "lng": 98.5721016
      },
      "province": {
        "id": 34,
        "name": "Sumatera Utara",
        "lat": 2.0108563,
        "lng": 98.9784887
      },
      "country": {
        "id": 228,
        "name": "INDONESIA",
        "code": "ID"
      },
      "id": 78089,
      "name": "Huta Gurgur",
      "postcode": "22457",
      "lat": 2.2641611,
      "lng": 98.6408093
    },
    {
      "suburb": {
        "id": 6728,
        "name": "Sijama Polang",
        "lat": 2.1785066,
        "lng": 98.7260927
      },
      "city": {
        "id": 456,
        "name": "Humbang Hasundutan",
        "lat": 2.1988508,
        "lng": 98.5721016
      },
      "province": {
        "id": 34,
        "name": "Sumatera Utara",
        "lat": 2.0108563,
        "lng": 98.9784887
      },
      "country": {
        "id": 228,
        "name": "INDONESIA",
        "code": "ID"
      },
      "id": 78090,
      "name": "Bonan Dolok II",
      "postcode": "22457",
      "lat": 2.1640229,
      "lng": 98.7095789
    },
    {
      "suburb": {
        "id": 6727,
        "name": "Dolok Sanggul",
        "lat": 2.2465397,
        "lng": 98.7371039
      },
      "city": {
        "id": 456,
        "name": "Humbang Hasundutan",
        "lat": 2.1988508,
        "lng": 98.5721016
      },
      "province": {
        "id": 34,
        "name": "Sumatera Utara",
        "lat": 2.0108563,
        "lng": 98.9784887
      },
      "country": {
        "id": 228,
        "name": "INDONESIA",
        "code": "ID"
      },
      "id": 78091,
      "name": "Bonani Onan",
      "postcode": "22457",
      "lat": 2.2683665,
      "lng": 98.7508702
    },
    {
      "suburb": {
        "id": 6728,
        "name": "Sijama Polang",
        "lat": 2.1785066,
        "lng": 98.7260927
      },
      "city": {
        "id": 456,
        "name": "Humbang Hasundutan",
        "lat": 2.1988508,
        "lng": 98.5721016
      },
      "province": {
        "id": 34,
        "name": "Sumatera Utara",
        "lat": 2.0108563,
        "lng": 98.9784887
      },
      "country": {
        "id": 228,
        "name": "INDONESIA",
        "code": "ID"
      },
      "id": 78092,
      "name": "Batu Nagajar",
      "postcode": "22457",
      "lat": 2.1785066,
      "lng": 98.7260927
    },
    {
      "suburb": {
        "id": 6728,
        "name": "Sijama Polang",
        "lat": 2.1785066,
        "lng": 98.7260927
      },
      "city": {
        "id": 456,
        "name": "Humbang Hasundutan",
        "lat": 2.1988508,
        "lng": 98.5721016
      },
      "province": {
        "id": 34,
        "name": "Sumatera Utara",
        "lat": 2.0108563,
        "lng": 98.9784887
      },
      "country": {
        "id": 228,
        "name": "INDONESIA",
        "code": "ID"
      },
      "id": 78093,
      "name": "Bonan Dolok I",
      "postcode": "22457",
      "lat": 2.1544322,
      "lng": 98.6875659
    },
    {
      "suburb": {
        "id": 6729,
        "name": "Pollung",
        "lat": 2.3736302,
        "lng": 98.6820636
      },
      "city": {
        "id": 456,
        "name": "Humbang Hasundutan",
        "lat": 2.1988508,
        "lng": 98.5721016
      },
      "province": {
        "id": 34,
        "name": "Sumatera Utara",
        "lat": 2.0108563,
        "lng": 98.9784887
      },
      "country": {
        "id": 228,
        "name": "INDONESIA",
        "code": "ID"
      },
      "id": 78094,
      "name": "Aek Nauli I",
      "postcode": "22457",
      "lat": 2.2860356,
      "lng": 98.6490584
    },
    {
      "suburb": {
        "id": 6729,
        "name": "Pollung",
        "lat": 2.3736302,
        "lng": 98.6820636
      },
      "city": {
        "id": 456,
        "name": "Humbang Hasundutan",
        "lat": 2.1988508,
        "lng": 98.5721016
      },
      "province": {
        "id": 34,
        "name": "Sumatera Utara",
        "lat": 2.0108563,
        "lng": 98.9784887
      },
      "country": {
        "id": 228,
        "name": "INDONESIA",
        "code": "ID"
      },
      "id": 78095,
      "name": "Aek Nauli II",
      "postcode": "22457",
      "lat": 2.3002869,
      "lng": 98.7095789
    },
    {
      "suburb": {
        "id": 6730,
        "name": "Tara Bintang",
        "lat": 2.258423,
        "lng": 98.3745717
      },
      "city": {
        "id": 456,
        "name": "Humbang Hasundutan",
        "lat": 2.1988508,
        "lng": 98.5721016
      },
      "province": {
        "id": 34,
        "name": "Sumatera Utara",
        "lat": 2.0108563,
        "lng": 98.9784887
      },
      "country": {
        "id": 228,
        "name": "INDONESIA",
        "code": "ID"
      },
      "id": 78096,
      "name": "Tara Bintang",
      "postcode": "22456",
      "lat": 2.2292543,
      "lng": 98.3636131
    },
    {
      "suburb": {
        "id": 6727,
        "name": "Dolok Sanggul",
        "lat": 2.2465397,
        "lng": 98.7371039
      },
      "city": {
        "id": 456,
        "name": "Humbang Hasundutan",
        "lat": 2.1988508,
        "lng": 98.5721016
      },
      "province": {
        "id": 34,
        "name": "Sumatera Utara",
        "lat": 2.0108563,
        "lng": 98.9784887
      },
      "country": {
        "id": 228,
        "name": "INDONESIA",
        "code": "ID"
      },
      "id": 78097,
      "name": "Aek Lung",
      "postcode": "22457",
      "lat": 2.2413736,
      "lng": 98.7866738
    },
    {
      "suburb": {
        "id": 6730,
        "name": "Tara Bintang",
        "lat": 2.258423,
        "lng": 98.3745717
      },
      "city": {
        "id": 456,
        "name": "Humbang Hasundutan",
        "lat": 2.1988508,
        "lng": 98.5721016
      },
      "province": {
        "id": 34,
        "name": "Sumatera Utara",
        "lat": 2.0108563,
        "lng": 98.9784887
      },
      "country": {
        "id": 228,
        "name": "INDONESIA",
        "code": "ID"
      },
      "id": 78098,
      "name": "Sitanduk",
      "postcode": "22456",
      "lat": 2.2976856,
      "lng": 98.3307468
    },
    {
      "suburb": {
        "id": 6731,
        "name": "Parlilitan",
        "lat": 2.394682,
        "lng": 98.4403573
      },
      "city": {
        "id": 456,
        "name": "Humbang Hasundutan",
        "lat": 2.1988508,
        "lng": 98.5721016
      },
      "province": {
        "id": 34,
        "name": "Sumatera Utara",
        "lat": 2.0108563,
        "lng": 98.9784887
      },
      "country": {
        "id": 228,
        "name": "INDONESIA",
        "code": "ID"
      },
      "id": 78099,
      "name": "Sionom Hudon Utara",
      "postcode": "22456",
      "lat": 2.4041156,
      "lng": 98.4952228
    },
    {
      "suburb": {
        "id": 6731,
        "name": "Parlilitan",
        "lat": 2.394682,
        "lng": 98.4403573
      },
      "city": {
        "id": 456,
        "name": "Humbang Hasundutan",
        "lat": 2.1988508,
        "lng": 98.5721016
      },
      "province": {
        "id": 34,
        "name": "Sumatera Utara",
        "lat": 2.0108563,
        "lng": 98.9784887
      },
      "country": {
        "id": 228,
        "name": "INDONESIA",
        "code": "ID"
      },
      "id": 78100,
      "name": "Sionom Hudon VII",
      "postcode": "22456",
      "lat": 2.3758055,
      "lng": 98.3307468
    },
    {
      "suburb": {
        "id": 6731,
        "name": "Parlilitan",
        "lat": 2.394682,
        "lng": 98.4403573
      },
      "city": {
        "id": 456,
        "name": "Humbang Hasundutan",
        "lat": 2.1988508,
        "lng": 98.5721016
      },
      "province": {
        "id": 34,
        "name": "Sumatera Utara",
        "lat": 2.0108563,
        "lng": 98.9784887
      },
      "country": {
        "id": 228,
        "name": "INDONESIA",
        "code": "ID"
      },
      "id": 78101,
      "name": "Sionom Hudon Tonga",
      "postcode": "22456",
      "lat": 2.4046622,
      "lng": 98.4074573
    },
    {
      "suburb": {
        "id": 6731,
        "name": "Parlilitan",
        "lat": 2.394682,
        "lng": 98.4403573
      },
      "city": {
        "id": 456,
        "name": "Humbang Hasundutan",
        "lat": 2.1988508,
        "lng": 98.5721016
      },
      "province": {
        "id": 34,
        "name": "Sumatera Utara",
        "lat": 2.0108563,
        "lng": 98.9784887
      },
      "country": {
        "id": 228,
        "name": "INDONESIA",
        "code": "ID"
      },
      "id": 78102,
      "name": "Sionom Hudon Toruan",
      "postcode": "22456",
      "lat": 2.3704861,
      "lng": 98.4019754
    },
    {
      "suburb": {
        "id": 6731,
        "name": "Parlilitan",
        "lat": 2.394682,
        "lng": 98.4403573
      },
      "city": {
        "id": 456,
        "name": "Humbang Hasundutan",
        "lat": 2.1988508,
        "lng": 98.5721016
      },
      "province": {
        "id": 34,
        "name": "Sumatera Utara",
        "lat": 2.0108563,
        "lng": 98.9784887
      },
      "country": {
        "id": 228,
        "name": "INDONESIA",
        "code": "ID"
      },
      "id": 78103,
      "name": "Sionom Hudon Timur",
      "postcode": "22456",
      "lat": 2.3647588,
      "lng": 98.539144
    },
    {
      "suburb": {
        "id": 6731,
        "name": "Parlilitan",
        "lat": 2.394682,
        "lng": 98.4403573
      },
      "city": {
        "id": 456,
        "name": "Humbang Hasundutan",
        "lat": 2.1988508,
        "lng": 98.5721016
      },
      "province": {
        "id": 34,
        "name": "Sumatera Utara",
        "lat": 2.0108563,
        "lng": 98.9784887
      },
      "country": {
        "id": 228,
        "name": "INDONESIA",
        "code": "ID"
      },
      "id": 78104,
      "name": "Sionom Hudon Timur II",
      "postcode": "22456",
      "lat": 2.4037015,
      "lng": 98.5611142
    },
    {
      "suburb": {
        "id": 6731,
        "name": "Parlilitan",
        "lat": 2.394682,
        "lng": 98.4403573
      },
      "city": {
        "id": 456,
        "name": "Humbang Hasundutan",
        "lat": 2.1988508,
        "lng": 98.5721016
      },
      "province": {
        "id": 34,
        "name": "Sumatera Utara",
        "lat": 2.0108563,
        "lng": 98.9784887
      },
      "country": {
        "id": 228,
        "name": "INDONESIA",
        "code": "ID"
      },
      "id": 78105,
      "name": "Sionom Hudon Selatan",
      "postcode": "22456",
      "lat": 2.3459003,
      "lng": 98.4293891
    },
    {
      "suburb": {
        "id": 6731,
        "name": "Parlilitan",
        "lat": 2.394682,
        "lng": 98.4403573
      },
      "city": {
        "id": 456,
        "name": "Humbang Hasundutan",
        "lat": 2.1988508,
        "lng": 98.5721016
      },
      "province": {
        "id": 34,
        "name": "Sumatera Utara",
        "lat": 2.0108563,
        "lng": 98.9784887
      },
      "country": {
        "id": 228,
        "name": "INDONESIA",
        "code": "ID"
      },
      "id": 78106,
      "name": "Sionom Hudon Sibulbulon",
      "postcode": "22456",
      "lat": 2.4429548,
      "lng": 98.539144
    },
    {
      "suburb": {
        "id": 6731,
        "name": "Parlilitan",
        "lat": 2.394682,
        "lng": 98.4403573
      },
      "city": {
        "id": 456,
        "name": "Humbang Hasundutan",
        "lat": 2.1988508,
        "lng": 98.5721016
      },
      "province": {
        "id": 34,
        "name": "Sumatera Utara",
        "lat": 2.0108563,
        "lng": 98.9784887
      },
      "country": {
        "id": 228,
        "name": "INDONESIA",
        "code": "ID"
      },
      "id": 78107,
      "name": "Sionom Hudon Julu",
      "postcode": "22456",
      "lat": 2.4437904,
      "lng": 98.4074573
    },
    {
      "suburb": {
        "id": 6731,
        "name": "Parlilitan",
        "lat": 2.394682,
        "lng": 98.4403573
      },
      "city": {
        "id": 456,
        "name": "Humbang Hasundutan",
        "lat": 2.1988508,
        "lng": 98.5721016
      },
      "province": {
        "id": 34,
        "name": "Sumatera Utara",
        "lat": 2.0108563,
        "lng": 98.9784887
      },
      "country": {
        "id": 228,
        "name": "INDONESIA",
        "code": "ID"
      },
      "id": 78108,
      "name": "Sionom Hudon Runggu",
      "postcode": "22456",
      "lat": 2.394682,
      "lng": 98.4403573
    },
    {
      "suburb": {
        "id": 6730,
        "name": "Tara Bintang",
        "lat": 2.258423,
        "lng": 98.3745717
      },
      "city": {
        "id": 456,
        "name": "Humbang Hasundutan",
        "lat": 2.1988508,
        "lng": 98.5721016
      },
      "province": {
        "id": 34,
        "name": "Sumatera Utara",
        "lat": 2.0108563,
        "lng": 98.9784887
      },
      "country": {
        "id": 228,
        "name": "INDONESIA",
        "code": "ID"
      },
      "id": 78109,
      "name": "Simbara",
      "postcode": "22456",
      "lat": 2.2538971,
      "lng": 98.3143192
    },
    {
      "suburb": {
        "id": 6731,
        "name": "Parlilitan",
        "lat": 2.394682,
        "lng": 98.4403573
      },
      "city": {
        "id": 456,
        "name": "Humbang Hasundutan",
        "lat": 2.1988508,
        "lng": 98.5721016
      },
      "province": {
        "id": 34,
        "name": "Sumatera Utara",
        "lat": 2.0108563,
        "lng": 98.9784887
      },
      "country": {
        "id": 228,
        "name": "INDONESIA",
        "code": "ID"
      },
      "id": 78110,
      "name": "Sihotang Hasugian Tonga",
      "postcode": "22456",
      "lat": 2.3068587,
      "lng": 98.4293891
    },
    {
      "suburb": {
        "id": 6731,
        "name": "Parlilitan",
        "lat": 2.394682,
        "lng": 98.4403573
      },
      "city": {
        "id": 456,
        "name": "Humbang Hasundutan",
        "lat": 2.1988508,
        "lng": 98.5721016
      },
      "province": {
        "id": 34,
        "name": "Sumatera Utara",
        "lat": 2.0108563,
        "lng": 98.9784887
      },
      "country": {
        "id": 228,
        "name": "INDONESIA",
        "code": "ID"
      },
      "id": 78111,
      "name": "Simataniari",
      "postcode": "22456",
      "lat": 2.3498749,
      "lng": 98.577596
    },
    {
      "suburb": {
        "id": 6730,
        "name": "Tara Bintang",
        "lat": 2.258423,
        "lng": 98.3745717
      },
      "city": {
        "id": 456,
        "name": "Humbang Hasundutan",
        "lat": 2.1988508,
        "lng": 98.5721016
      },
      "province": {
        "id": 34,
        "name": "Sumatera Utara",
        "lat": 2.0108563,
        "lng": 98.9784887
      },
      "country": {
        "id": 228,
        "name": "INDONESIA",
        "code": "ID"
      },
      "id": 78112,
      "name": "Sihotang Hasugian Toruan",
      "postcode": "22456",
      "lat": 2.2678509,
      "lng": 98.4293891
    },
    {
      "suburb": {
        "id": 6731,
        "name": "Parlilitan",
        "lat": 2.394682,
        "lng": 98.4403573
      },
      "city": {
        "id": 456,
        "name": "Humbang Hasundutan",
        "lat": 2.1988508,
        "lng": 98.5721016
      },
      "province": {
        "id": 34,
        "name": "Sumatera Utara",
        "lat": 2.0108563,
        "lng": 98.9784887
      },
      "country": {
        "id": 228,
        "name": "INDONESIA",
        "code": "ID"
      },
      "id": 78113,
      "name": "Sihotang Hasugian Dolok II",
      "postcode": "22456",
      "lat": 2.311044,
      "lng": 98.544636
    },
    {
      "suburb": {
        "id": 6731,
        "name": "Parlilitan",
        "lat": 2.394682,
        "lng": 98.4403573
      },
      "city": {
        "id": 456,
        "name": "Humbang Hasundutan",
        "lat": 2.1988508,
        "lng": 98.5721016
      },
      "province": {
        "id": 34,
        "name": "Sumatera Utara",
        "lat": 2.0108563,
        "lng": 98.9784887
      },
      "country": {
        "id": 228,
        "name": "INDONESIA",
        "code": "ID"
      },
      "id": 78114,
      "name": "Sihotang Hasugian Habinsaran",
      "postcode": "22456",
      "lat": 2.3211321,
      "lng": 98.4897345
    },
    {
      "suburb": {
        "id": 6731,
        "name": "Parlilitan",
        "lat": 2.394682,
        "lng": 98.4403573
      },
      "city": {
        "id": 456,
        "name": "Humbang Hasundutan",
        "lat": 2.1988508,
        "lng": 98.5721016
      },
      "province": {
        "id": 34,
        "name": "Sumatera Utara",
        "lat": 2.0108563,
        "lng": 98.9784887
      },
      "country": {
        "id": 228,
        "name": "INDONESIA",
        "code": "ID"
      },
      "id": 78115,
      "name": "Sihotang Hasugian Dolok I",
      "postcode": "22456",
      "lat": 2.291737,
      "lng": 98.5116903
    },
    {
      "suburb": {
        "id": 6730,
        "name": "Tara Bintang",
        "lat": 2.258423,
        "lng": 98.3745717
      },
      "city": {
        "id": 456,
        "name": "Humbang Hasundutan",
        "lat": 2.1988508,
        "lng": 98.5721016
      },
      "province": {
        "id": 34,
        "name": "Sumatera Utara",
        "lat": 2.0108563,
        "lng": 98.9784887
      },
      "country": {
        "id": 228,
        "name": "INDONESIA",
        "code": "ID"
      },
      "id": 78116,
      "name": "Sihombu",
      "postcode": "22456",
      "lat": 2.243329,
      "lng": 98.4568128
    },
    {
      "suburb": {
        "id": 6730,
        "name": "Tara Bintang",
        "lat": 2.258423,
        "lng": 98.3745717
      },
      "city": {
        "id": 456,
        "name": "Humbang Hasundutan",
        "lat": 2.1988508,
        "lng": 98.5721016
      },
      "province": {
        "id": 34,
        "name": "Sumatera Utara",
        "lat": 2.0108563,
        "lng": 98.9784887
      },
      "country": {
        "id": 228,
        "name": "INDONESIA",
        "code": "ID"
      },
      "id": 78117,
      "name": "Sibongkare Sianju",
      "postcode": "22456",
      "lat": 2.2119472,
      "lng": 98.5033221
    },
    {
      "suburb": {
        "id": 6731,
        "name": "Parlilitan",
        "lat": 2.394682,
        "lng": 98.4403573
      },
      "city": {
        "id": 456,
        "name": "Humbang Hasundutan",
        "lat": 2.1988508,
        "lng": 98.5721016
      },
      "province": {
        "id": 34,
        "name": "Sumatera Utara",
        "lat": 2.0108563,
        "lng": 98.9784887
      },
      "country": {
        "id": 228,
        "name": "INDONESIA",
        "code": "ID"
      },
      "id": 78118,
      "name": "Pusuk II Simaninggir",
      "postcode": "22456",
      "lat": 2.2427511,
      "lng": 98.555621
    },
    {
      "suburb": {
        "id": 6730,
        "name": "Tara Bintang",
        "lat": 2.258423,
        "lng": 98.3745717
      },
      "city": {
        "id": 456,
        "name": "Humbang Hasundutan",
        "lat": 2.1988508,
        "lng": 98.5721016
      },
      "province": {
        "id": 34,
        "name": "Sumatera Utara",
        "lat": 2.0108563,
        "lng": 98.9784887
      },
      "country": {
        "id": 228,
        "name": "INDONESIA",
        "code": "ID"
      },
      "id": 78119,
      "name": "Sibongkare",
      "postcode": "22456",
      "lat": 2.2479758,
      "lng": 98.4952228
    },
    {
      "suburb": {
        "id": 6730,
        "name": "Tara Bintang",
        "lat": 2.258423,
        "lng": 98.3745717
      },
      "city": {
        "id": 456,
        "name": "Humbang Hasundutan",
        "lat": 2.1988508,
        "lng": 98.5721016
      },
      "province": {
        "id": 34,
        "name": "Sumatera Utara",
        "lat": 2.0108563,
        "lng": 98.9784887
      },
      "country": {
        "id": 228,
        "name": "INDONESIA",
        "code": "ID"
      },
      "id": 78120,
      "name": "Mungkur",
      "postcode": "22456",
      "lat": 2.258423,
      "lng": 98.3745717
    },
    {
      "suburb": {
        "id": 6731,
        "name": "Parlilitan",
        "lat": 2.394682,
        "lng": 98.4403573
      },
      "city": {
        "id": 456,
        "name": "Humbang Hasundutan",
        "lat": 2.1988508,
        "lng": 98.5721016
      },
      "province": {
        "id": 34,
        "name": "Sumatera Utara",
        "lat": 2.0108563,
        "lng": 98.9784887
      },
      "country": {
        "id": 228,
        "name": "INDONESIA",
        "code": "ID"
      },
      "id": 78121,
      "name": "Pusuk I",
      "postcode": "22456",
      "lat": 2.2621685,
      "lng": 98.5666077
    },
    {
      "suburb": {
        "id": 6730,
        "name": "Tara Bintang",
        "lat": 2.258423,
        "lng": 98.3745717
      },
      "city": {
        "id": 456,
        "name": "Humbang Hasundutan",
        "lat": 2.1988508,
        "lng": 98.5721016
      },
      "province": {
        "id": 34,
        "name": "Sumatera Utara",
        "lat": 2.0108563,
        "lng": 98.9784887
      },
      "country": {
        "id": 228,
        "name": "INDONESIA",
        "code": "ID"
      },
      "id": 78122,
      "name": "Marpadan",
      "postcode": "22456",
      "lat": 2.258423,
      "lng": 98.3745717
    },
    {
      "suburb": {
        "id": 6731,
        "name": "Parlilitan",
        "lat": 2.394682,
        "lng": 98.4403573
      },
      "city": {
        "id": 456,
        "name": "Humbang Hasundutan",
        "lat": 2.1988508,
        "lng": 98.5721016
      },
      "province": {
        "id": 34,
        "name": "Sumatera Utara",
        "lat": 2.0108563,
        "lng": 98.9784887
      },
      "country": {
        "id": 228,
        "name": "INDONESIA",
        "code": "ID"
      },
      "id": 78123,
      "name": "Janji Hutanapa",
      "postcode": "22456",
      "lat": 2.394682,
      "lng": 98.4403573
    },
    {
      "suburb": {
        "id": 6731,
        "name": "Parlilitan",
        "lat": 2.394682,
        "lng": 98.4403573
      },
      "city": {
        "id": 456,
        "name": "Humbang Hasundutan",
        "lat": 2.1988508,
        "lng": 98.5721016
      },
      "province": {
        "id": 34,
        "name": "Sumatera Utara",
        "lat": 2.0108563,
        "lng": 98.9784887
      },
      "country": {
        "id": 228,
        "name": "INDONESIA",
        "code": "ID"
      },
      "id": 78124,
      "name": "Baringin",
      "postcode": "22456",
      "lat": 2.2914076,
      "lng": 98.5666077
    },
    {
      "suburb": {
        "id": 6731,
        "name": "Parlilitan",
        "lat": 2.394682,
        "lng": 98.4403573
      },
      "city": {
        "id": 456,
        "name": "Humbang Hasundutan",
        "lat": 2.1988508,
        "lng": 98.5721016
      },
      "province": {
        "id": 34,
        "name": "Sumatera Utara",
        "lat": 2.0108563,
        "lng": 98.9784887
      },
      "country": {
        "id": 228,
        "name": "INDONESIA",
        "code": "ID"
      },
      "id": 78125,
      "name": "Baringin Natam",
      "postcode": "22456",
      "lat": 2.394682,
      "lng": 98.4403573
    },
    {
      "suburb": {
        "id": 6732,
        "name": "Pakkat",
        "lat": 2.160693,
        "lng": 98.4403573
      },
      "city": {
        "id": 456,
        "name": "Humbang Hasundutan",
        "lat": 2.1988508,
        "lng": 98.5721016
      },
      "province": {
        "id": 34,
        "name": "Sumatera Utara",
        "lat": 2.0108563,
        "lng": 98.9784887
      },
      "country": {
        "id": 228,
        "name": "INDONESIA",
        "code": "ID"
      },
      "id": 78126,
      "name": "Tukka Dolok",
      "postcode": "22455",
      "lat": 2.1461396,
      "lng": 98.434873
    },
    {
      "suburb": {
        "id": 6732,
        "name": "Pakkat",
        "lat": 2.160693,
        "lng": 98.4403573
      },
      "city": {
        "id": 456,
        "name": "Humbang Hasundutan",
        "lat": 2.1988508,
        "lng": 98.5721016
      },
      "province": {
        "id": 34,
        "name": "Sumatera Utara",
        "lat": 2.0108563,
        "lng": 98.9784887
      },
      "country": {
        "id": 228,
        "name": "INDONESIA",
        "code": "ID"
      },
      "id": 78127,
      "name": "Sipagabu",
      "postcode": "22455",
      "lat": 2.2232127,
      "lng": 98.5666077
    },
    {
      "suburb": {
        "id": 6732,
        "name": "Pakkat",
        "lat": 2.160693,
        "lng": 98.4403573
      },
      "city": {
        "id": 456,
        "name": "Humbang Hasundutan",
        "lat": 2.1988508,
        "lng": 98.5721016
      },
      "province": {
        "id": 34,
        "name": "Sumatera Utara",
        "lat": 2.0108563,
        "lng": 98.9784887
      },
      "country": {
        "id": 228,
        "name": "INDONESIA",
        "code": "ID"
      },
      "id": 78128,
      "name": "Sijarango I",
      "postcode": "22455",
      "lat": 2.1966874,
      "lng": 98.5254159
    },
    {
      "suburb": {
        "id": 6732,
        "name": "Pakkat",
        "lat": 2.160693,
        "lng": 98.4403573
      },
      "city": {
        "id": 456,
        "name": "Humbang Hasundutan",
        "lat": 2.1988508,
        "lng": 98.5721016
      },
      "province": {
        "id": 34,
        "name": "Sumatera Utara",
        "lat": 2.0108563,
        "lng": 98.9784887
      },
      "country": {
        "id": 228,
        "name": "INDONESIA",
        "code": "ID"
      },
      "id": 78129,
      "name": "Sijarango",
      "postcode": "22455",
      "lat": 2.2137973,
      "lng": 98.5116903
    },
    {
      "suburb": {
        "id": 6732,
        "name": "Pakkat",
        "lat": 2.160693,
        "lng": 98.4403573
      },
      "city": {
        "id": 456,
        "name": "Humbang Hasundutan",
        "lat": 2.1988508,
        "lng": 98.5721016
      },
      "province": {
        "id": 34,
        "name": "Sumatera Utara",
        "lat": 2.0108563,
        "lng": 98.9784887
      },
      "country": {
        "id": 228,
        "name": "INDONESIA",
        "code": "ID"
      },
      "id": 78130,
      "name": "Rura Tanjung",
      "postcode": "22455",
      "lat": 2.2092773,
      "lng": 98.4513272
    },
    {
      "suburb": {
        "id": 6732,
        "name": "Pakkat",
        "lat": 2.160693,
        "lng": 98.4403573
      },
      "city": {
        "id": 456,
        "name": "Humbang Hasundutan",
        "lat": 2.1988508,
        "lng": 98.5721016
      },
      "province": {
        "id": 34,
        "name": "Sumatera Utara",
        "lat": 2.0108563,
        "lng": 98.9784887
      },
      "country": {
        "id": 228,
        "name": "INDONESIA",
        "code": "ID"
      },
      "id": 78131,
      "name": "Siambaton",
      "postcode": "22455",
      "lat": 2.170725,
      "lng": 98.385532
    },
    {
      "suburb": {
        "id": 6732,
        "name": "Pakkat",
        "lat": 2.160693,
        "lng": 98.4403573
      },
      "city": {
        "id": 456,
        "name": "Humbang Hasundutan",
        "lat": 2.1988508,
        "lng": 98.5721016
      },
      "province": {
        "id": 34,
        "name": "Sumatera Utara",
        "lat": 2.0108563,
        "lng": 98.9784887
      },
      "country": {
        "id": 228,
        "name": "INDONESIA",
        "code": "ID"
      },
      "id": 78132,
      "name": "Siambaton Pahae",
      "postcode": "22455",
      "lat": 2.160693,
      "lng": 98.4403573
    },
    {
      "suburb": {
        "id": 6732,
        "name": "Pakkat",
        "lat": 2.160693,
        "lng": 98.4403573
      },
      "city": {
        "id": 456,
        "name": "Humbang Hasundutan",
        "lat": 2.1988508,
        "lng": 98.5721016
      },
      "province": {
        "id": 34,
        "name": "Sumatera Utara",
        "lat": 2.0108563,
        "lng": 98.9784887
      },
      "country": {
        "id": 228,
        "name": "INDONESIA",
        "code": "ID"
      },
      "id": 78133,
      "name": "Purba Sianjur",
      "postcode": "22455",
      "lat": 2.174816,
      "lng": 98.5226706
    },
    {
      "suburb": {
        "id": 6732,
        "name": "Pakkat",
        "lat": 2.160693,
        "lng": 98.4403573
      },
      "city": {
        "id": 456,
        "name": "Humbang Hasundutan",
        "lat": 2.1988508,
        "lng": 98.5721016
      },
      "province": {
        "id": 34,
        "name": "Sumatera Utara",
        "lat": 2.0108563,
        "lng": 98.9784887
      },
      "country": {
        "id": 228,
        "name": "INDONESIA",
        "code": "ID"
      },
      "id": 78134,
      "name": "Rura Aek Sopang",
      "postcode": "22455",
      "lat": 2.175374,
      "lng": 98.4239055
    },
    {
      "suburb": {
        "id": 6732,
        "name": "Pakkat",
        "lat": 2.160693,
        "lng": 98.4403573
      },
      "city": {
        "id": 456,
        "name": "Humbang Hasundutan",
        "lat": 2.1988508,
        "lng": 98.5721016
      },
      "province": {
        "id": 34,
        "name": "Sumatera Utara",
        "lat": 2.0108563,
        "lng": 98.9784887
      },
      "country": {
        "id": 228,
        "name": "INDONESIA",
        "code": "ID"
      },
      "id": 78135,
      "name": "Pulo Godang",
      "postcode": "22455",
      "lat": 2.2133511,
      "lng": 98.5885858
    },
    {
      "suburb": {
        "id": 6732,
        "name": "Pakkat",
        "lat": 2.160693,
        "lng": 98.4403573
      },
      "city": {
        "id": 456,
        "name": "Humbang Hasundutan",
        "lat": 2.1988508,
        "lng": 98.5721016
      },
      "province": {
        "id": 34,
        "name": "Sumatera Utara",
        "lat": 2.0108563,
        "lng": 98.9784887
      },
      "country": {
        "id": 228,
        "name": "INDONESIA",
        "code": "ID"
      },
      "id": 78136,
      "name": "Purba Baringin",
      "postcode": "22455",
      "lat": 2.1455883,
      "lng": 98.5336525
    },
    {
      "suburb": {
        "id": 6732,
        "name": "Pakkat",
        "lat": 2.160693,
        "lng": 98.4403573
      },
      "city": {
        "id": 456,
        "name": "Humbang Hasundutan",
        "lat": 2.1988508,
        "lng": 98.5721016
      },
      "province": {
        "id": 34,
        "name": "Sumatera Utara",
        "lat": 2.0108563,
        "lng": 98.9784887
      },
      "country": {
        "id": 228,
        "name": "INDONESIA",
        "code": "ID"
      },
      "id": 78137,
      "name": "Purba Bersatu",
      "postcode": "22455",
      "lat": 2.1239248,
      "lng": 98.4979672
    },
    {
      "suburb": {
        "id": 6732,
        "name": "Pakkat",
        "lat": 2.160693,
        "lng": 98.4403573
      },
      "city": {
        "id": 456,
        "name": "Humbang Hasundutan",
        "lat": 2.1988508,
        "lng": 98.5721016
      },
      "province": {
        "id": 34,
        "name": "Sumatera Utara",
        "lat": 2.0108563,
        "lng": 98.9784887
      },
      "country": {
        "id": 228,
        "name": "INDONESIA",
        "code": "ID"
      },
      "id": 78138,
      "name": "Peadungdung",
      "postcode": "22455",
      "lat": 2.1067915,
      "lng": 98.5226706
    },
    {
      "suburb": {
        "id": 6732,
        "name": "Pakkat",
        "lat": 2.160693,
        "lng": 98.4403573
      },
      "city": {
        "id": 456,
        "name": "Humbang Hasundutan",
        "lat": 2.1988508,
        "lng": 98.5721016
      },
      "province": {
        "id": 34,
        "name": "Sumatera Utara",
        "lat": 2.0108563,
        "lng": 98.9784887
      },
      "country": {
        "id": 228,
        "name": "INDONESIA",
        "code": "ID"
      },
      "id": 78139,
      "name": "Pakkat Hauagong",
      "postcode": "22455",
      "lat": 2.1507864,
      "lng": 98.4732718
    },
    {
      "suburb": {
        "id": 6732,
        "name": "Pakkat",
        "lat": 2.160693,
        "lng": 98.4403573
      },
      "city": {
        "id": 456,
        "name": "Humbang Hasundutan",
        "lat": 2.1988508,
        "lng": 98.5721016
      },
      "province": {
        "id": 34,
        "name": "Sumatera Utara",
        "lat": 2.0108563,
        "lng": 98.9784887
      },
      "country": {
        "id": 228,
        "name": "INDONESIA",
        "code": "ID"
      },
      "id": 78140,
      "name": "Panggugunan",
      "postcode": "22455",
      "lat": 2.160693,
      "lng": 98.4403573
    },
    {
      "suburb": {
        "id": 6732,
        "name": "Pakkat",
        "lat": 2.160693,
        "lng": 98.4403573
      },
      "city": {
        "id": 456,
        "name": "Humbang Hasundutan",
        "lat": 2.1988508,
        "lng": 98.5721016
      },
      "province": {
        "id": 34,
        "name": "Sumatera Utara",
        "lat": 2.0108563,
        "lng": 98.9784887
      },
      "country": {
        "id": 228,
        "name": "INDONESIA",
        "code": "ID"
      },
      "id": 78141,
      "name": "Parmonangan",
      "postcode": "22455",
      "lat": 2.1710904,
      "lng": 98.3197946
    },
    {
      "suburb": {
        "id": 6732,
        "name": "Pakkat",
        "lat": 2.160693,
        "lng": 98.4403573
      },
      "city": {
        "id": 456,
        "name": "Humbang Hasundutan",
        "lat": 2.1988508,
        "lng": 98.5721016
      },
      "province": {
        "id": 34,
        "name": "Sumatera Utara",
        "lat": 2.0108563,
        "lng": 98.9784887
      },
      "country": {
        "id": 228,
        "name": "INDONESIA",
        "code": "ID"
      },
      "id": 78142,
      "name": "Lumban Tonga-Tonga",
      "postcode": "22455",
      "lat": 2.1847299,
      "lng": 98.4897345
    },
    {
      "suburb": {
        "id": 6732,
        "name": "Pakkat",
        "lat": 2.160693,
        "lng": 98.4403573
      },
      "city": {
        "id": 456,
        "name": "Humbang Hasundutan",
        "lat": 2.1988508,
        "lng": 98.5721016
      },
      "province": {
        "id": 34,
        "name": "Sumatera Utara",
        "lat": 2.0108563,
        "lng": 98.9784887
      },
      "country": {
        "id": 228,
        "name": "INDONESIA",
        "code": "ID"
      },
      "id": 78143,
      "name": "Manalu",
      "postcode": "22455",
      "lat": 2.1842278,
      "lng": 98.577596
    },
    {
      "suburb": {
        "id": 6732,
        "name": "Pakkat",
        "lat": 2.160693,
        "lng": 98.4403573
      },
      "city": {
        "id": 456,
        "name": "Humbang Hasundutan",
        "lat": 2.1988508,
        "lng": 98.5721016
      },
      "province": {
        "id": 34,
        "name": "Sumatera Utara",
        "lat": 2.0108563,
        "lng": 98.9784887
      },
      "country": {
        "id": 228,
        "name": "INDONESIA",
        "code": "ID"
      },
      "id": 78144,
      "name": "Hauagong",
      "postcode": "22455",
      "lat": 2.145129,
      "lng": 98.473518
    },
    {
      "suburb": {
        "id": 6732,
        "name": "Pakkat",
        "lat": 2.160693,
        "lng": 98.4403573
      },
      "city": {
        "id": 456,
        "name": "Humbang Hasundutan",
        "lat": 2.1988508,
        "lng": 98.5721016
      },
      "province": {
        "id": 34,
        "name": "Sumatera Utara",
        "lat": 2.0108563,
        "lng": 98.9784887
      },
      "country": {
        "id": 228,
        "name": "INDONESIA",
        "code": "ID"
      },
      "id": 78145,
      "name": "Karya",
      "postcode": "22455",
      "lat": 2.1746284,
      "lng": 98.555621
    },
    {
      "suburb": {
        "id": 6732,
        "name": "Pakkat",
        "lat": 2.160693,
        "lng": 98.4403573
      },
      "city": {
        "id": 456,
        "name": "Humbang Hasundutan",
        "lat": 2.1988508,
        "lng": 98.5721016
      },
      "province": {
        "id": 34,
        "name": "Sumatera Utara",
        "lat": 2.0108563,
        "lng": 98.9784887
      },
      "country": {
        "id": 228,
        "name": "INDONESIA",
        "code": "ID"
      },
      "id": 78146,
      "name": "Ambobi Paranginan",
      "postcode": "22455",
      "lat": 2.112039,
      "lng": 98.4513272
    },
    {
      "suburb": {
        "id": 6732,
        "name": "Pakkat",
        "lat": 2.160693,
        "lng": 98.4403573
      },
      "city": {
        "id": 456,
        "name": "Humbang Hasundutan",
        "lat": 2.1988508,
        "lng": 98.5721016
      },
      "province": {
        "id": 34,
        "name": "Sumatera Utara",
        "lat": 2.0108563,
        "lng": 98.9784887
      },
      "country": {
        "id": 228,
        "name": "INDONESIA",
        "code": "ID"
      },
      "id": 78147,
      "name": "Banuarea",
      "postcode": "22455",
      "lat": 2.2234048,
      "lng": 98.5336525
    },
    {
      "suburb": {
        "id": 6733,
        "name": "Onan Ganjang",
        "lat": 2.1401409,
        "lng": 98.6380598
      },
      "city": {
        "id": 456,
        "name": "Humbang Hasundutan",
        "lat": 2.1988508,
        "lng": 98.5721016
      },
      "province": {
        "id": 34,
        "name": "Sumatera Utara",
        "lat": 2.0108563,
        "lng": 98.9784887
      },
      "country": {
        "id": 228,
        "name": "INDONESIA",
        "code": "ID"
      },
      "id": 78148,
      "name": "Sibuluan",
      "postcode": "22454",
      "lat": 2.2107097,
      "lng": 98.6243138
    },
    {
      "suburb": {
        "id": 6733,
        "name": "Onan Ganjang",
        "lat": 2.1401409,
        "lng": 98.6380598
      },
      "city": {
        "id": 456,
        "name": "Humbang Hasundutan",
        "lat": 2.1988508,
        "lng": 98.5721016
      },
      "province": {
        "id": 34,
        "name": "Sumatera Utara",
        "lat": 2.0108563,
        "lng": 98.9784887
      },
      "country": {
        "id": 228,
        "name": "INDONESIA",
        "code": "ID"
      },
      "id": 78149,
      "name": "Sigalogo",
      "postcode": "22454",
      "lat": 2.215414,
      "lng": 98.6518083
    },
    {
      "suburb": {
        "id": 6733,
        "name": "Onan Ganjang",
        "lat": 2.1401409,
        "lng": 98.6380598
      },
      "city": {
        "id": 456,
        "name": "Humbang Hasundutan",
        "lat": 2.1988508,
        "lng": 98.5721016
      },
      "province": {
        "id": 34,
        "name": "Sumatera Utara",
        "lat": 2.0108563,
        "lng": 98.9784887
      },
      "country": {
        "id": 228,
        "name": "INDONESIA",
        "code": "ID"
      },
      "id": 78150,
      "name": "Sihikkit",
      "postcode": "22454",
      "lat": 2.16434,
      "lng": 98.6545583
    },
    {
      "suburb": {
        "id": 6733,
        "name": "Onan Ganjang",
        "lat": 2.1401409,
        "lng": 98.6380598
      },
      "city": {
        "id": 456,
        "name": "Humbang Hasundutan",
        "lat": 2.1988508,
        "lng": 98.5721016
      },
      "province": {
        "id": 34,
        "name": "Sumatera Utara",
        "lat": 2.0108563,
        "lng": 98.9784887
      },
      "country": {
        "id": 228,
        "name": "INDONESIA",
        "code": "ID"
      },
      "id": 78151,
      "name": "Sampetua",
      "postcode": "22454",
      "lat": 2.1670066,
      "lng": 98.6133188
    },
    {
      "suburb": {
        "id": 6733,
        "name": "Onan Ganjang",
        "lat": 2.1401409,
        "lng": 98.6380598
      },
      "city": {
        "id": 456,
        "name": "Humbang Hasundutan",
        "lat": 2.1988508,
        "lng": 98.5721016
      },
      "province": {
        "id": 34,
        "name": "Sumatera Utara",
        "lat": 2.0108563,
        "lng": 98.9784887
      },
      "country": {
        "id": 228,
        "name": "INDONESIA",
        "code": "ID"
      },
      "id": 78152,
      "name": "Sanggaran II",
      "postcode": "22454",
      "lat": 2.0333471,
      "lng": 98.6490584
    },
    {
      "suburb": {
        "id": 6733,
        "name": "Onan Ganjang",
        "lat": 2.1401409,
        "lng": 98.6380598
      },
      "city": {
        "id": 456,
        "name": "Humbang Hasundutan",
        "lat": 2.1988508,
        "lng": 98.5721016
      },
      "province": {
        "id": 34,
        "name": "Sumatera Utara",
        "lat": 2.0108563,
        "lng": 98.9784887
      },
      "country": {
        "id": 228,
        "name": "INDONESIA",
        "code": "ID"
      },
      "id": 78153,
      "name": "Parnapa",
      "postcode": "22454",
      "lat": 2.1936366,
      "lng": 98.6325611
    },
    {
      "suburb": {
        "id": 6733,
        "name": "Onan Ganjang",
        "lat": 2.1401409,
        "lng": 98.6380598
      },
      "city": {
        "id": 456,
        "name": "Humbang Hasundutan",
        "lat": 2.1988508,
        "lng": 98.5721016
      },
      "province": {
        "id": 34,
        "name": "Sumatera Utara",
        "lat": 2.0108563,
        "lng": 98.9784887
      },
      "country": {
        "id": 228,
        "name": "INDONESIA",
        "code": "ID"
      },
      "id": 78154,
      "name": "Parbotihan",
      "postcode": "22454",
      "lat": 2.1452789,
      "lng": 98.5885858
    },
    {
      "suburb": {
        "id": 6733,
        "name": "Onan Ganjang",
        "lat": 2.1401409,
        "lng": 98.6380598
      },
      "city": {
        "id": 456,
        "name": "Humbang Hasundutan",
        "lat": 2.1988508,
        "lng": 98.5721016
      },
      "province": {
        "id": 34,
        "name": "Sumatera Utara",
        "lat": 2.0108563,
        "lng": 98.9784887
      },
      "country": {
        "id": 228,
        "name": "INDONESIA",
        "code": "ID"
      },
      "id": 78155,
      "name": "Janji Nagodang",
      "postcode": "22454",
      "lat": 2.0916542,
      "lng": 98.6270628
    },
    {
      "suburb": {
        "id": 6733,
        "name": "Onan Ganjang",
        "lat": 2.1401409,
        "lng": 98.6380598
      },
      "city": {
        "id": 456,
        "name": "Humbang Hasundutan",
        "lat": 2.1988508,
        "lng": 98.5721016
      },
      "province": {
        "id": 34,
        "name": "Sumatera Utara",
        "lat": 2.0108563,
        "lng": 98.9784887
      },
      "country": {
        "id": 228,
        "name": "INDONESIA",
        "code": "ID"
      },
      "id": 78156,
      "name": "Onan Ganjang",
      "postcode": "22454",
      "lat": 2.1523331,
      "lng": 98.6298119
    },
    {
      "suburb": {
        "id": 6733,
        "name": "Onan Ganjang",
        "lat": 2.1401409,
        "lng": 98.6380598
      },
      "city": {
        "id": 456,
        "name": "Humbang Hasundutan",
        "lat": 2.1988508,
        "lng": 98.5721016
      },
      "province": {
        "id": 34,
        "name": "Sumatera Utara",
        "lat": 2.0108563,
        "lng": 98.9784887
      },
      "country": {
        "id": 228,
        "name": "INDONESIA",
        "code": "ID"
      },
      "id": 78157,
      "name": "Batu Nagodang Siatas",
      "postcode": "22454",
      "lat": 2.174377,
      "lng": 98.5995773
    },
    {
      "suburb": {
        "id": 6733,
        "name": "Onan Ganjang",
        "lat": 2.1401409,
        "lng": 98.6380598
      },
      "city": {
        "id": 456,
        "name": "Humbang Hasundutan",
        "lat": 2.1988508,
        "lng": 98.5721016
      },
      "province": {
        "id": 34,
        "name": "Sumatera Utara",
        "lat": 2.0108563,
        "lng": 98.9784887
      },
      "country": {
        "id": 228,
        "name": "INDONESIA",
        "code": "ID"
      },
      "id": 78158,
      "name": "Hutajulu",
      "postcode": "22454",
      "lat": 2.1449048,
      "lng": 98.6545583
    },
    {
      "suburb": {
        "id": 6733,
        "name": "Onan Ganjang",
        "lat": 2.1401409,
        "lng": 98.6380598
      },
      "city": {
        "id": 456,
        "name": "Humbang Hasundutan",
        "lat": 2.1988508,
        "lng": 98.5721016
      },
      "province": {
        "id": 34,
        "name": "Sumatera Utara",
        "lat": 2.0108563,
        "lng": 98.9784887
      },
      "country": {
        "id": 228,
        "name": "INDONESIA",
        "code": "ID"
      },
      "id": 78159,
      "name": "Aek Godang",
      "postcode": "22454",
      "lat": 2.1113124,
      "lng": 98.5830907
    },
    {
      "suburb": {
        "id": 6734,
        "name": "Parmonangan",
        "lat": 2.0810326,
        "lng": 98.7921836
      },
      "city": {
        "id": 455,
        "name": "Tapanuli Utara",
        "lat": 2.0405246,
        "lng": 99.1013498
      },
      "province": {
        "id": 34,
        "name": "Sumatera Utara",
        "lat": 2.0108563,
        "lng": 98.9784887
      },
      "country": {
        "id": 228,
        "name": "INDONESIA",
        "code": "ID"
      },
      "id": 78160,
      "name": "Pertengahan",
      "postcode": "22453",
      "lat": 2.0326291,
      "lng": 98.7811645
    },
    {
      "suburb": {
        "id": 6734,
        "name": "Parmonangan",
        "lat": 2.0810326,
        "lng": 98.7921836
      },
      "city": {
        "id": 455,
        "name": "Tapanuli Utara",
        "lat": 2.0405246,
        "lng": 99.1013498
      },
      "province": {
        "id": 34,
        "name": "Sumatera Utara",
        "lat": 2.0108563,
        "lng": 98.9784887
      },
      "country": {
        "id": 228,
        "name": "INDONESIA",
        "code": "ID"
      },
      "id": 78161,
      "name": "Purba Dolok",
      "postcode": "22453",
      "lat": 1.9890264,
      "lng": 98.7866738
    },
    {
      "suburb": {
        "id": 6734,
        "name": "Parmonangan",
        "lat": 2.0810326,
        "lng": 98.7921836
      },
      "city": {
        "id": 455,
        "name": "Tapanuli Utara",
        "lat": 2.0405246,
        "lng": 99.1013498
      },
      "province": {
        "id": 34,
        "name": "Sumatera Utara",
        "lat": 2.0108563,
        "lng": 98.9784887
      },
      "country": {
        "id": 228,
        "name": "INDONESIA",
        "code": "ID"
      },
      "id": 78162,
      "name": "Sisordak",
      "postcode": "22453",
      "lat": 2.1458199,
      "lng": 98.9162558
    },
    {
      "suburb": {
        "id": 6734,
        "name": "Parmonangan",
        "lat": 2.0810326,
        "lng": 98.7921836
      },
      "city": {
        "id": 455,
        "name": "Tapanuli Utara",
        "lat": 2.0405246,
        "lng": 99.1013498
      },
      "province": {
        "id": 34,
        "name": "Sumatera Utara",
        "lat": 2.0108563,
        "lng": 98.9784887
      },
      "country": {
        "id": 228,
        "name": "INDONESIA",
        "code": "ID"
      },
      "id": 78163,
      "name": "Manalu",
      "postcode": "22453",
      "lat": 2.0956133,
      "lng": 98.7866738
    },
    {
      "suburb": {
        "id": 6734,
        "name": "Parmonangan",
        "lat": 2.0810326,
        "lng": 98.7921836
      },
      "city": {
        "id": 455,
        "name": "Tapanuli Utara",
        "lat": 2.0405246,
        "lng": 99.1013498
      },
      "province": {
        "id": 34,
        "name": "Sumatera Utara",
        "lat": 2.0108563,
        "lng": 98.9784887
      },
      "country": {
        "id": 228,
        "name": "INDONESIA",
        "code": "ID"
      },
      "id": 78164,
      "name": "Manalu Dolok",
      "postcode": "22453",
      "lat": 2.1296129,
      "lng": 98.7811645
    },
    {
      "suburb": {
        "id": 6734,
        "name": "Parmonangan",
        "lat": 2.0810326,
        "lng": 98.7921836
      },
      "city": {
        "id": 455,
        "name": "Tapanuli Utara",
        "lat": 2.0405246,
        "lng": 99.1013498
      },
      "province": {
        "id": 34,
        "name": "Sumatera Utara",
        "lat": 2.0108563,
        "lng": 98.9784887
      },
      "country": {
        "id": 228,
        "name": "INDONESIA",
        "code": "ID"
      },
      "id": 78165,
      "name": "Manalu Purba",
      "postcode": "22453",
      "lat": 2.013615,
      "lng": 98.7150831
    },
    {
      "suburb": {
        "id": 6734,
        "name": "Parmonangan",
        "lat": 2.0810326,
        "lng": 98.7921836
      },
      "city": {
        "id": 455,
        "name": "Tapanuli Utara",
        "lat": 2.0405246,
        "lng": 99.1013498
      },
      "province": {
        "id": 34,
        "name": "Sumatera Utara",
        "lat": 2.0108563,
        "lng": 98.9784887
      },
      "country": {
        "id": 228,
        "name": "INDONESIA",
        "code": "ID"
      },
      "id": 78166,
      "name": "Lobusunut",
      "postcode": "22453",
      "lat": 2.1436347,
      "lng": 98.8748765
    },
    {
      "suburb": {
        "id": 6734,
        "name": "Parmonangan",
        "lat": 2.0810326,
        "lng": 98.7921836
      },
      "city": {
        "id": 455,
        "name": "Tapanuli Utara",
        "lat": 2.0405246,
        "lng": 99.1013498
      },
      "province": {
        "id": 34,
        "name": "Sumatera Utara",
        "lat": 2.0108563,
        "lng": 98.9784887
      },
      "country": {
        "id": 228,
        "name": "INDONESIA",
        "code": "ID"
      },
      "id": 78167,
      "name": "Hutatua",
      "postcode": "22453",
      "lat": 2.0716423,
      "lng": 98.7371039
    },
    {
      "suburb": {
        "id": 6734,
        "name": "Parmonangan",
        "lat": 2.0810326,
        "lng": 98.7921836
      },
      "city": {
        "id": 455,
        "name": "Tapanuli Utara",
        "lat": 2.0405246,
        "lng": 99.1013498
      },
      "province": {
        "id": 34,
        "name": "Sumatera Utara",
        "lat": 2.0108563,
        "lng": 98.9784887
      },
      "country": {
        "id": 228,
        "name": "INDONESIA",
        "code": "ID"
      },
      "id": 78168,
      "name": "Hutatinggi",
      "postcode": "22453",
      "lat": 2.1361762,
      "lng": 98.9052192
    },
    {
      "suburb": {
        "id": 6734,
        "name": "Parmonangan",
        "lat": 2.0810326,
        "lng": 98.7921836
      },
      "city": {
        "id": 455,
        "name": "Tapanuli Utara",
        "lat": 2.0405246,
        "lng": 99.1013498
      },
      "province": {
        "id": 34,
        "name": "Sumatera Utara",
        "lat": 2.0108563,
        "lng": 98.9784887
      },
      "country": {
        "id": 228,
        "name": "INDONESIA",
        "code": "ID"
      },
      "id": 78169,
      "name": "Hutajulu Parbalik/Purbalik",
      "postcode": "22453",
      "lat": 2.0275138,
      "lng": 98.8307626
    },
    {
      "suburb": {
        "id": 6734,
        "name": "Parmonangan",
        "lat": 2.0810326,
        "lng": 98.7921836
      },
      "city": {
        "id": 455,
        "name": "Tapanuli Utara",
        "lat": 2.0405246,
        "lng": 99.1013498
      },
      "province": {
        "id": 34,
        "name": "Sumatera Utara",
        "lat": 2.0108563,
        "lng": 98.9784887
      },
      "country": {
        "id": 228,
        "name": "INDONESIA",
        "code": "ID"
      },
      "id": 78170,
      "name": "Horison Ranggigit",
      "postcode": "22453",
      "lat": 2.104939,
      "lng": 98.8528164
    },
    {
      "suburb": {
        "id": 6734,
        "name": "Parmonangan",
        "lat": 2.0810326,
        "lng": 98.7921836
      },
      "city": {
        "id": 455,
        "name": "Tapanuli Utara",
        "lat": 2.0405246,
        "lng": 99.1013498
      },
      "province": {
        "id": 34,
        "name": "Sumatera Utara",
        "lat": 2.0108563,
        "lng": 98.9784887
      },
      "country": {
        "id": 228,
        "name": "INDONESIA",
        "code": "ID"
      },
      "id": 78171,
      "name": "Hutajulu",
      "postcode": "22453",
      "lat": 2.0760293,
      "lng": 98.8197381
    },
    {
      "suburb": {
        "id": 6734,
        "name": "Parmonangan",
        "lat": 2.0810326,
        "lng": 98.7921836
      },
      "city": {
        "id": 455,
        "name": "Tapanuli Utara",
        "lat": 2.0405246,
        "lng": 99.1013498
      },
      "province": {
        "id": 34,
        "name": "Sumatera Utara",
        "lat": 2.0108563,
        "lng": 98.9784887
      },
      "country": {
        "id": 228,
        "name": "INDONESIA",
        "code": "ID"
      },
      "id": 78172,
      "name": "Batu Arimo",
      "postcode": "22453",
      "lat": 2.0810326,
      "lng": 98.7921836
    },
    {
      "suburb": {
        "id": 6734,
        "name": "Parmonangan",
        "lat": 2.0810326,
        "lng": 98.7921836
      },
      "city": {
        "id": 455,
        "name": "Tapanuli Utara",
        "lat": 2.0405246,
        "lng": 99.1013498
      },
      "province": {
        "id": 34,
        "name": "Sumatera Utara",
        "lat": 2.0108563,
        "lng": 98.9784887
      },
      "country": {
        "id": 228,
        "name": "INDONESIA",
        "code": "ID"
      },
      "id": 78173,
      "name": "Aek Raja",
      "postcode": "22453",
      "lat": 2.1144515,
      "lng": 98.8859088
    },
    {
      "suburb": {
        "id": 6735,
        "name": "Sipoholon",
        "lat": 2.0610237,
        "lng": 98.9024603
      },
      "city": {
        "id": 455,
        "name": "Tapanuli Utara",
        "lat": 2.0405246,
        "lng": 99.1013498
      },
      "province": {
        "id": 34,
        "name": "Sumatera Utara",
        "lat": 2.0108563,
        "lng": 98.9784887
      },
      "country": {
        "id": 228,
        "name": "INDONESIA",
        "code": "ID"
      },
      "id": 78174,
      "name": "Situmeang Hasundutan",
      "postcode": "22452",
      "lat": 2.0874768,
      "lng": 98.9383338
    },
    {
      "suburb": {
        "id": 6735,
        "name": "Sipoholon",
        "lat": 2.0610237,
        "lng": 98.9024603
      },
      "city": {
        "id": 455,
        "name": "Tapanuli Utara",
        "lat": 2.0405246,
        "lng": 99.1013498
      },
      "province": {
        "id": 34,
        "name": "Sumatera Utara",
        "lat": 2.0108563,
        "lng": 98.9784887
      },
      "country": {
        "id": 228,
        "name": "INDONESIA",
        "code": "ID"
      },
      "id": 78175,
      "name": "Tapian Nauli",
      "postcode": "22452",
      "lat": 2.1237062,
      "lng": 98.9631789
    },
    {
      "suburb": {
        "id": 6735,
        "name": "Sipoholon",
        "lat": 2.0610237,
        "lng": 98.9024603
      },
      "city": {
        "id": 455,
        "name": "Tapanuli Utara",
        "lat": 2.0405246,
        "lng": 99.1013498
      },
      "province": {
        "id": 34,
        "name": "Sumatera Utara",
        "lat": 2.0108563,
        "lng": 98.9784887
      },
      "country": {
        "id": 228,
        "name": "INDONESIA",
        "code": "ID"
      },