{
  "metadata": {
    "path": "/v3/location/areas?limit=1000&page=2",
    "http_status_code": 200,
    "http_status": "OK",
    "timestamp": 1647333802
  },
  "data": [
    {
      "suburb": {
        "id": 92,
        "name": "Belinyu",
        "lat": -1.6499633,
        "lng": 105.8290298
      },
      "city": {
        "id": 15,
        "name": "Bangka",
        "lat": -1.874294,
        "lng": 105.92299
      },
      "province": {
        "id": 2,
        "name": "Bangka Belitung",
        "lat": -2.7410513,
        "lng": 106.4405872
      },
      "country": {
        "id": 228,
        "name": "INDONESIA",
        "code": "ID"
      },
      "id": 1001,
      "name": "Air Jukung",
      "postcode": "33253",
      "lat": -1.6178308,
      "lng": 105.7527221
    },
    {
      "suburb": {
        "id": 91,
        "name": "Riau Silip",
        "lat": -1.7426354,
        "lng": 105.9464874
      },
      "city": {
        "id": 15,
        "name": "Bangka",
        "lat": -1.874294,
        "lng": 105.92299
      },
      "province": {
        "id": 2,
        "name": "Bangka Belitung",
        "lat": -2.7410513,
        "lng": 106.4405872
      },
      "country": {
        "id": 228,
        "name": "INDONESIA",
        "code": "ID"
      },
      "id": 1002,
      "name": "Banyu Asin",
      "postcode": "33253",
      "lat": -1.8806885,
      "lng": 105.7409852
    },
    {
      "suburb": {
        "id": 93,
        "name": "Bakam",
        "lat": -1.9314325,
        "lng": 105.8525154
      },
      "city": {
        "id": 15,
        "name": "Bangka",
        "lat": -1.874294,
        "lng": 105.92299
      },
      "province": {
        "id": 2,
        "name": "Bangka Belitung",
        "lat": -2.7410513,
        "lng": 106.4405872
      },
      "country": {
        "id": 228,
        "name": "INDONESIA",
        "code": "ID"
      },
      "id": 1003,
      "name": "Neknang",
      "postcode": "33252",
      "lat": -1.9416416,
      "lng": 105.7703287
    },
    {
      "suburb": {
        "id": 93,
        "name": "Bakam",
        "lat": -1.9314325,
        "lng": 105.8525154
      },
      "city": {
        "id": 15,
        "name": "Bangka",
        "lat": -1.874294,
        "lng": 105.92299
      },
      "province": {
        "id": 2,
        "name": "Bangka Belitung",
        "lat": -2.7410513,
        "lng": 106.4405872
      },
      "country": {
        "id": 228,
        "name": "INDONESIA",
        "code": "ID"
      },
      "id": 1004,
      "name": "Tiang Tara",
      "postcode": "33252",
      "lat": -1.9035135,
      "lng": 105.8172881
    },
    {
      "suburb": {
        "id": 93,
        "name": "Bakam",
        "lat": -1.9314325,
        "lng": 105.8525154
      },
      "city": {
        "id": 15,
        "name": "Bangka",
        "lat": -1.874294,
        "lng": 105.92299
      },
      "province": {
        "id": 2,
        "name": "Bangka Belitung",
        "lat": -2.7410513,
        "lng": 106.4405872
      },
      "country": {
        "id": 228,
        "name": "INDONESIA",
        "code": "ID"
      },
      "id": 1005,
      "name": "Mabat",
      "postcode": "33252",
      "lat": -1.921004,
      "lng": 105.9582372
    },
    {
      "suburb": {
        "id": 93,
        "name": "Bakam",
        "lat": -1.9314325,
        "lng": 105.8525154
      },
      "city": {
        "id": 15,
        "name": "Bangka",
        "lat": -1.874294,
        "lng": 105.92299
      },
      "province": {
        "id": 2,
        "name": "Bangka Belitung",
        "lat": -2.7410513,
        "lng": 106.4405872
      },
      "country": {
        "id": 228,
        "name": "INDONESIA",
        "code": "ID"
      },
      "id": 1006,
      "name": "Mangka",
      "postcode": "33252",
      "lat": -1.958902,
      "lng": 105.9347384
    },
    {
      "suburb": {
        "id": 93,
        "name": "Bakam",
        "lat": -1.9314325,
        "lng": 105.8525154
      },
      "city": {
        "id": 15,
        "name": "Bangka",
        "lat": -1.874294,
        "lng": 105.92299
      },
      "province": {
        "id": 2,
        "name": "Bangka Belitung",
        "lat": -2.7410513,
        "lng": 106.4405872
      },
      "country": {
        "id": 228,
        "name": "INDONESIA",
        "code": "ID"
      },
      "id": 1007,
      "name": "Maras Senang",
      "postcode": "33252",
      "lat": -1.9020118,
      "lng": 105.7263152
    },
    {
      "suburb": {
        "id": 93,
        "name": "Bakam",
        "lat": -1.9314325,
        "lng": 105.8525154
      },
      "city": {
        "id": 15,
        "name": "Bangka",
        "lat": -1.874294,
        "lng": 105.92299
      },
      "province": {
        "id": 2,
        "name": "Bangka Belitung",
        "lat": -2.7410513,
        "lng": 106.4405872
      },
      "country": {
        "id": 228,
        "name": "INDONESIA",
        "code": "ID"
      },
      "id": 1008,
      "name": "Bukit Layang",
      "postcode": "33252",
      "lat": -1.8457666,
      "lng": 105.9582372
    },
    {
      "suburb": {
        "id": 93,
        "name": "Bakam",
        "lat": -1.9314325,
        "lng": 105.8525154
      },
      "city": {
        "id": 15,
        "name": "Bangka",
        "lat": -1.874294,
        "lng": 105.92299
      },
      "province": {
        "id": 2,
        "name": "Bangka Belitung",
        "lat": -2.7410513,
        "lng": 106.4405872
      },
      "country": {
        "id": 228,
        "name": "INDONESIA",
        "code": "ID"
      },
      "id": 1009,
      "name": "Dalil",
      "postcode": "33252",
      "lat": -1.9409664,
      "lng": 105.8407722
    },
    {
      "suburb": {
        "id": 93,
        "name": "Bakam",
        "lat": -1.9314325,
        "lng": 105.8525154
      },
      "city": {
        "id": 15,
        "name": "Bangka",
        "lat": -1.874294,
        "lng": 105.92299
      },
      "province": {
        "id": 2,
        "name": "Bangka Belitung",
        "lat": -2.7410513,
        "lng": 106.4405872
      },
      "country": {
        "id": 228,
        "name": "INDONESIA",
        "code": "ID"
      },
      "id": 1010,
      "name": "Kapuk",
      "postcode": "33252",
      "lat": -1.9373203,
      "lng": 105.7292491
    },
    {
      "suburb": {
        "id": 93,
        "name": "Bakam",
        "lat": -1.9314325,
        "lng": 105.8525154
      },
      "city": {
        "id": 15,
        "name": "Bangka",
        "lat": -1.874294,
        "lng": 105.92299
      },
      "province": {
        "id": 2,
        "name": "Bangka Belitung",
        "lat": -2.7410513,
        "lng": 106.4405872
      },
      "country": {
        "id": 228,
        "name": "INDONESIA",
        "code": "ID"
      },
      "id": 1011,
      "name": "Bakam",
      "postcode": "33252",
      "lat": -1.9593597,
      "lng": 105.8877494
    },
    {
      "suburb": {
        "id": 90,
        "name": "Pemali",
        "lat": -1.8919958,
        "lng": 106.040506
      },
      "city": {
        "id": 15,
        "name": "Bangka",
        "lat": -1.874294,
        "lng": 105.92299
      },
      "province": {
        "id": 2,
        "name": "Bangka Belitung",
        "lat": -2.7410513,
        "lng": 106.4405872
      },
      "country": {
        "id": 228,
        "name": "INDONESIA",
        "code": "ID"
      },
      "id": 1012,
      "name": "Penyamun",
      "postcode": "33251",
      "lat": -1.845116,
      "lng": 106.0287512
    },
    {
      "suburb": {
        "id": 90,
        "name": "Pemali",
        "lat": -1.8919958,
        "lng": 106.040506
      },
      "city": {
        "id": 15,
        "name": "Bangka",
        "lat": -1.874294,
        "lng": 105.92299
      },
      "province": {
        "id": 2,
        "name": "Bangka Belitung",
        "lat": -2.7410513,
        "lng": 106.4405872
      },
      "country": {
        "id": 228,
        "name": "INDONESIA",
        "code": "ID"
      },
      "id": 1013,
      "name": "Sempan",
      "postcode": "33251",
      "lat": -1.9534461,
      "lng": 106.0111203
    },
    {
      "suburb": {
        "id": 94,
        "name": "Sungai Liat",
        "lat": -1.8911008,
        "lng": 106.1345705
      },
      "city": {
        "id": 15,
        "name": "Bangka",
        "lat": -1.874294,
        "lng": 105.92299
      },
      "province": {
        "id": 2,
        "name": "Bangka Belitung",
        "lat": -2.7410513,
        "lng": 106.4405872
      },
      "country": {
        "id": 228,
        "name": "INDONESIA",
        "code": "ID"
      },
      "id": 1014,
      "name": "Parit Padang",
      "postcode": "33215",
      "lat": -1.895744,
      "lng": 106.140451
    },
    {
      "suburb": {
        "id": 94,
        "name": "Sungai Liat",
        "lat": -1.8911008,
        "lng": 106.1345705
      },
      "city": {
        "id": 15,
        "name": "Bangka",
        "lat": -1.874294,
        "lng": 105.92299
      },
      "province": {
        "id": 2,
        "name": "Bangka Belitung",
        "lat": -2.7410513,
        "lng": 106.4405872
      },
      "country": {
        "id": 228,
        "name": "INDONESIA",
        "code": "ID"
      },
      "id": 1015,
      "name": "Sinar Baru",
      "postcode": "33212",
      "lat": -1.8069204,
      "lng": 106.099291
    },
    {
      "suburb": {
        "id": 94,
        "name": "Sungai Liat",
        "lat": -1.8911008,
        "lng": 106.1345705
      },
      "city": {
        "id": 15,
        "name": "Bangka",
        "lat": -1.874294,
        "lng": 105.92299
      },
      "province": {
        "id": 2,
        "name": "Bangka Belitung",
        "lat": -2.7410513,
        "lng": 106.4405872
      },
      "country": {
        "id": 228,
        "name": "INDONESIA",
        "code": "ID"
      },
      "id": 1016,
      "name": "Kudai (Kuday)",
      "postcode": "33213",
      "lat": -1.8515875,
      "lng": 106.0904721
    },
    {
      "suburb": {
        "id": 94,
        "name": "Sungai Liat",
        "lat": -1.8911008,
        "lng": 106.1345705
      },
      "city": {
        "id": 15,
        "name": "Bangka",
        "lat": -1.874294,
        "lng": 105.92299
      },
      "province": {
        "id": 2,
        "name": "Bangka Belitung",
        "lat": -2.7410513,
        "lng": 106.4405872
      },
      "country": {
        "id": 228,
        "name": "INDONESIA",
        "code": "ID"
      },
      "id": 1017,
      "name": "Srimenanti",
      "postcode": "33214",
      "lat": -1.860815,
      "lng": 106.1081103
    },
    {
      "suburb": {
        "id": 94,
        "name": "Sungai Liat",
        "lat": -1.8911008,
        "lng": 106.1345705
      },
      "city": {
        "id": 15,
        "name": "Bangka",
        "lat": -1.874294,
        "lng": 105.92299
      },
      "province": {
        "id": 2,
        "name": "Bangka Belitung",
        "lat": -2.7410513,
        "lng": 106.4405872
      },
      "country": {
        "id": 228,
        "name": "INDONESIA",
        "code": "ID"
      },
      "id": 1018,
      "name": "Kenanga",
      "postcode": "33211",
      "lat": -1.9241793,
      "lng": 106.1169299
    },
    {
      "suburb": {
        "id": 94,
        "name": "Sungai Liat",
        "lat": -1.8911008,
        "lng": 106.1345705
      },
      "city": {
        "id": 15,
        "name": "Bangka",
        "lat": -1.874294,
        "lng": 105.92299
      },
      "province": {
        "id": 2,
        "name": "Bangka Belitung",
        "lat": -2.7410513,
        "lng": 106.4405872
      },
      "country": {
        "id": 228,
        "name": "INDONESIA",
        "code": "ID"
      },
      "id": 1019,
      "name": "Rebo",
      "postcode": "33211",
      "lat": -1.9380041,
      "lng": 106.1463317
    },
    {
      "suburb": {
        "id": 94,
        "name": "Sungai Liat",
        "lat": -1.8911008,
        "lng": 106.1345705
      },
      "city": {
        "id": 15,
        "name": "Bangka",
        "lat": -1.874294,
        "lng": 105.92299
      },
      "province": {
        "id": 2,
        "name": "Bangka Belitung",
        "lat": -2.7410513,
        "lng": 106.4405872
      },
      "country": {
        "id": 228,
        "name": "INDONESIA",
        "code": "ID"
      },
      "id": 1020,
      "name": "Sungailiat",
      "postcode": "33211",
      "lat": -1.8652353,
      "lng": 106.1375107
    },
    {
      "suburb": {
        "id": 95,
        "name": "Puding Besar",
        "lat": -2.0446228,
        "lng": 105.8525154
      },
      "city": {
        "id": 15,
        "name": "Bangka",
        "lat": -1.874294,
        "lng": 105.92299
      },
      "province": {
        "id": 2,
        "name": "Bangka Belitung",
        "lat": -2.7410513,
        "lng": 106.4405872
      },
      "country": {
        "id": 228,
        "name": "INDONESIA",
        "code": "ID"
      },
      "id": 1021,
      "name": "Saing",
      "postcode": "33179",
      "lat": -2.0311057,
      "lng": 105.7879371
    },
    {
      "suburb": {
        "id": 95,
        "name": "Puding Besar",
        "lat": -2.0446228,
        "lng": 105.8525154
      },
      "city": {
        "id": 15,
        "name": "Bangka",
        "lat": -1.874294,
        "lng": 105.92299
      },
      "province": {
        "id": 2,
        "name": "Bangka Belitung",
        "lat": -2.7410513,
        "lng": 106.4405872
      },
      "country": {
        "id": 228,
        "name": "INDONESIA",
        "code": "ID"
      },
      "id": 1022,
      "name": "Tanah Bawah",
      "postcode": "33179",
      "lat": -2.0497621,
      "lng": 105.8114175
    },
    {
      "suburb": {
        "id": 95,
        "name": "Puding Besar",
        "lat": -2.0446228,
        "lng": 105.8525154
      },
      "city": {
        "id": 15,
        "name": "Bangka",
        "lat": -1.874294,
        "lng": 105.92299
      },
      "province": {
        "id": 2,
        "name": "Bangka Belitung",
        "lat": -2.7410513,
        "lng": 106.4405872
      },
      "country": {
        "id": 228,
        "name": "INDONESIA",
        "code": "ID"
      },
      "id": 1023,
      "name": "Labu",
      "postcode": "33179",
      "lat": -2.05371,
      "lng": 105.8877494
    },
    {
      "suburb": {
        "id": 95,
        "name": "Puding Besar",
        "lat": -2.0446228,
        "lng": 105.8525154
      },
      "city": {
        "id": 15,
        "name": "Bangka",
        "lat": -1.874294,
        "lng": 105.92299
      },
      "province": {
        "id": 2,
        "name": "Bangka Belitung",
        "lat": -2.7410513,
        "lng": 106.4405872
      },
      "country": {
        "id": 228,
        "name": "INDONESIA",
        "code": "ID"
      },
      "id": 1024,
      "name": "Nibung",
      "postcode": "33179",
      "lat": -2.0541882,
      "lng": 105.8407722
    },
    {
      "suburb": {
        "id": 95,
        "name": "Puding Besar",
        "lat": -2.0446228,
        "lng": 105.8525154
      },
      "city": {
        "id": 15,
        "name": "Bangka",
        "lat": -1.874294,
        "lng": 105.92299
      },
      "province": {
        "id": 2,
        "name": "Bangka Belitung",
        "lat": -2.7410513,
        "lng": 106.4405872
      },
      "country": {
        "id": 228,
        "name": "INDONESIA",
        "code": "ID"
      },
      "id": 1025,
      "name": "Pudingbesar",
      "postcode": "33179",
      "lat": -2.0154741,
      "lng": 105.9347384
    },
    {
      "suburb": {
        "id": 95,
        "name": "Puding Besar",
        "lat": -2.0446228,
        "lng": 105.8525154
      },
      "city": {
        "id": 15,
        "name": "Bangka",
        "lat": -1.874294,
        "lng": 105.92299
      },
      "province": {
        "id": 2,
        "name": "Bangka Belitung",
        "lat": -2.7410513,
        "lng": 106.4405872
      },
      "country": {
        "id": 228,
        "name": "INDONESIA",
        "code": "ID"
      },
      "id": 1026,
      "name": "Kayu Besi",
      "postcode": "33179",
      "lat": -1.9772876,
      "lng": 105.981739
    },
    {
      "suburb": {
        "id": 95,
        "name": "Puding Besar",
        "lat": -2.0446228,
        "lng": 105.8525154
      },
      "city": {
        "id": 15,
        "name": "Bangka",
        "lat": -1.874294,
        "lng": 105.92299
      },
      "province": {
        "id": 2,
        "name": "Bangka Belitung",
        "lat": -2.7410513,
        "lng": 106.4405872
      },
      "country": {
        "id": 228,
        "name": "INDONESIA",
        "code": "ID"
      },
      "id": 1027,
      "name": "Kota Waringin",
      "postcode": "33179",
      "lat": -2.1116454,
      "lng": 105.7703287
    },
    {
      "suburb": {
        "id": 96,
        "name": "Mendo Barat",
        "lat": -2.1954965,
        "lng": 105.8994956
      },
      "city": {
        "id": 15,
        "name": "Bangka",
        "lat": -1.874294,
        "lng": 105.92299
      },
      "province": {
        "id": 2,
        "name": "Bangka Belitung",
        "lat": -2.7410513,
        "lng": 106.4405872
      },
      "country": {
        "id": 228,
        "name": "INDONESIA",
        "code": "ID"
      },
      "id": 1028,
      "name": "Petaling Banjar",
      "postcode": "33173",
      "lat": -2.1,
      "lng": 106
    },
    {
      "suburb": {
        "id": 96,
        "name": "Mendo Barat",
        "lat": -2.1954965,
        "lng": 105.8994956
      },
      "city": {
        "id": 15,
        "name": "Bangka",
        "lat": -1.874294,
        "lng": 105.92299
      },
      "province": {
        "id": 2,
        "name": "Bangka Belitung",
        "lat": -2.7410513,
        "lng": 106.4405872
      },
      "country": {
        "id": 228,
        "name": "INDONESIA",
        "code": "ID"
      },
      "id": 1029,
      "name": "Rukam",
      "postcode": "33173",
      "lat": -2.1997848,
      "lng": 105.9406128
    },
    {
      "suburb": {
        "id": 96,
        "name": "Mendo Barat",
        "lat": -2.1954965,
        "lng": 105.8994956
      },
      "city": {
        "id": 15,
        "name": "Bangka",
        "lat": -1.874294,
        "lng": 105.92299
      },
      "province": {
        "id": 2,
        "name": "Bangka Belitung",
        "lat": -2.7410513,
        "lng": 106.4405872
      },
      "country": {
        "id": 228,
        "name": "INDONESIA",
        "code": "ID"
      },
      "id": 1030,
      "name": "Zed",
      "postcode": "33173",
      "lat": -2.0480891,
      "lng": 105.9758633
    },
    {
      "suburb": {
        "id": 96,
        "name": "Mendo Barat",
        "lat": -2.1954965,
        "lng": 105.8994956
      },
      "city": {
        "id": 15,
        "name": "Bangka",
        "lat": -1.874294,
        "lng": 105.92299
      },
      "province": {
        "id": 2,
        "name": "Bangka Belitung",
        "lat": -2.7410513,
        "lng": 106.4405872
      },
      "country": {
        "id": 228,
        "name": "INDONESIA",
        "code": "ID"
      },
      "id": 1031,
      "name": "Penagan",
      "postcode": "33173",
      "lat": -2.3098942,
      "lng": 105.8525154
    },
    {
      "suburb": {
        "id": 96,
        "name": "Mendo Barat",
        "lat": -2.1954965,
        "lng": 105.8994956
      },
      "city": {
        "id": 15,
        "name": "Bangka",
        "lat": -1.874294,
        "lng": 105.92299
      },
      "province": {
        "id": 2,
        "name": "Bangka Belitung",
        "lat": -2.7410513,
        "lng": 106.4405872
      },
      "country": {
        "id": 228,
        "name": "INDONESIA",
        "code": "ID"
      },
      "id": 1032,
      "name": "Petaling",
      "postcode": "33173",
      "lat": -2.1285932,
      "lng": 105.9582372
    },
    {
      "suburb": {
        "id": 96,
        "name": "Mendo Barat",
        "lat": -2.1954965,
        "lng": 105.8994956
      },
      "city": {
        "id": 15,
        "name": "Bangka",
        "lat": -1.874294,
        "lng": 105.92299
      },
      "province": {
        "id": 2,
        "name": "Bangka Belitung",
        "lat": -2.7410513,
        "lng": 106.4405872
      },
      "country": {
        "id": 228,
        "name": "INDONESIA",
        "code": "ID"
      },
      "id": 1033,
      "name": "Mendo (Menduk)",
      "postcode": "33173",
      "lat": -2.1669515,
      "lng": 105.9112424
    },
    {
      "suburb": {
        "id": 96,
        "name": "Mendo Barat",
        "lat": -2.1954965,
        "lng": 105.8994956
      },
      "city": {
        "id": 15,
        "name": "Bangka",
        "lat": -1.874294,
        "lng": 105.92299
      },
      "province": {
        "id": 2,
        "name": "Bangka Belitung",
        "lat": -2.7410513,
        "lng": 106.4405872
      },
      "country": {
        "id": 228,
        "name": "INDONESIA",
        "code": "ID"
      },
      "id": 1034,
      "name": "Payabenua",
      "postcode": "33173",
      "lat": -2.0915083,
      "lng": 105.8877494
    },
    {
      "suburb": {
        "id": 96,
        "name": "Mendo Barat",
        "lat": -2.1954965,
        "lng": 105.8994956
      },
      "city": {
        "id": 15,
        "name": "Bangka",
        "lat": -1.874294,
        "lng": 105.92299
      },
      "province": {
        "id": 2,
        "name": "Bangka Belitung",
        "lat": -2.7410513,
        "lng": 106.4405872
      },
      "country": {
        "id": 228,
        "name": "INDONESIA",
        "code": "ID"
      },
      "id": 1035,
      "name": "Kota Kapur",
      "postcode": "33173",
      "lat": -2.243294,
      "lng": 105.8642593
    },
    {
      "suburb": {
        "id": 96,
        "name": "Mendo Barat",
        "lat": -2.1954965,
        "lng": 105.8994956
      },
      "city": {
        "id": 15,
        "name": "Bangka",
        "lat": -1.874294,
        "lng": 105.92299
      },
      "province": {
        "id": 2,
        "name": "Bangka Belitung",
        "lat": -2.7410513,
        "lng": 106.4405872
      },
      "country": {
        "id": 228,
        "name": "INDONESIA",
        "code": "ID"
      },
      "id": 1036,
      "name": "Labuh Air Pandan",
      "postcode": "33173",
      "lat": -2.186658,
      "lng": 105.8407722
    },
    {
      "suburb": {
        "id": 96,
        "name": "Mendo Barat",
        "lat": -2.1954965,
        "lng": 105.8994956
      },
      "city": {
        "id": 15,
        "name": "Bangka",
        "lat": -1.874294,
        "lng": 105.92299
      },
      "province": {
        "id": 2,
        "name": "Bangka Belitung",
        "lat": -2.7410513,
        "lng": 106.4405872
      },
      "country": {
        "id": 228,
        "name": "INDONESIA",
        "code": "ID"
      },
      "id": 1037,
      "name": "Kace Timur",
      "postcode": "33173",
      "lat": -2.1391277,
      "lng": 106.0787142
    },
    {
      "suburb": {
        "id": 96,
        "name": "Mendo Barat",
        "lat": -2.1954965,
        "lng": 105.8994956
      },
      "city": {
        "id": 15,
        "name": "Bangka",
        "lat": -1.874294,
        "lng": 105.92299
      },
      "province": {
        "id": 2,
        "name": "Bangka Belitung",
        "lat": -2.7410513,
        "lng": 106.4405872
      },
      "country": {
        "id": 228,
        "name": "INDONESIA",
        "code": "ID"
      },
      "id": 1038,
      "name": "Kemuja",
      "postcode": "33173",
      "lat": -2.090775,
      "lng": 105.9582372
    },
    {
      "suburb": {
        "id": 96,
        "name": "Mendo Barat",
        "lat": -2.1954965,
        "lng": 105.8994956
      },
      "city": {
        "id": 15,
        "name": "Bangka",
        "lat": -1.874294,
        "lng": 105.92299
      },
      "province": {
        "id": 2,
        "name": "Bangka Belitung",
        "lat": -2.7410513,
        "lng": 106.4405872
      },
      "country": {
        "id": 228,
        "name": "INDONESIA",
        "code": "ID"
      },
      "id": 1039,
      "name": "Cengkong Abang",
      "postcode": "33173",
      "lat": -2.1467581,
      "lng": 106.0287512
    },
    {
      "suburb": {
        "id": 96,
        "name": "Mendo Barat",
        "lat": -2.1954965,
        "lng": 105.8994956
      },
      "city": {
        "id": 15,
        "name": "Bangka",
        "lat": -1.874294,
        "lng": 105.92299
      },
      "province": {
        "id": 2,
        "name": "Bangka Belitung",
        "lat": -2.7410513,
        "lng": 106.4405872
      },
      "country": {
        "id": 228,
        "name": "INDONESIA",
        "code": "ID"
      },
      "id": 1040,
      "name": "Kace",
      "postcode": "33173",
      "lat": -2.1702215,
      "lng": 106.0463837
    },
    {
      "suburb": {
        "id": 96,
        "name": "Mendo Barat",
        "lat": -2.1954965,
        "lng": 105.8994956
      },
      "city": {
        "id": 15,
        "name": "Bangka",
        "lat": -1.874294,
        "lng": 105.92299
      },
      "province": {
        "id": 2,
        "name": "Bangka Belitung",
        "lat": -2.7410513,
        "lng": 106.4405872
      },
      "country": {
        "id": 228,
        "name": "INDONESIA",
        "code": "ID"
      },
      "id": 1041,
      "name": "Air Buluh",
      "postcode": "33173",
      "lat": -2.2040705,
      "lng": 105.981739
    },
    {
      "suburb": {
        "id": 96,
        "name": "Mendo Barat",
        "lat": -2.1954965,
        "lng": 105.8994956
      },
      "city": {
        "id": 15,
        "name": "Bangka",
        "lat": -1.874294,
        "lng": 105.92299
      },
      "province": {
        "id": 2,
        "name": "Bangka Belitung",
        "lat": -2.7410513,
        "lng": 106.4405872
      },
      "country": {
        "id": 228,
        "name": "INDONESIA",
        "code": "ID"
      },
      "id": 1042,
      "name": "Air Duren",
      "postcode": "33173",
      "lat": -2.0948238,
      "lng": 106.022874
    },
    {
      "suburb": {
        "id": 97,
        "name": "Merawang",
        "lat": -2.004507,
        "lng": 106.0875326
      },
      "city": {
        "id": 15,
        "name": "Bangka",
        "lat": -1.874294,
        "lng": 105.92299
      },
      "province": {
        "id": 2,
        "name": "Bangka Belitung",
        "lat": -2.7410513,
        "lng": 106.4405872
      },
      "country": {
        "id": 228,
        "name": "INDONESIA",
        "code": "ID"
      },
      "id": 1043,
      "name": "Pagarawan",
      "postcode": "33172",
      "lat": -2.0563186,
      "lng": 106.0934117
    },
    {
      "suburb": {
        "id": 97,
        "name": "Merawang",
        "lat": -2.004507,
        "lng": 106.0875326
      },
      "city": {
        "id": 15,
        "name": "Bangka",
        "lat": -1.874294,
        "lng": 105.92299
      },
      "province": {
        "id": 2,
        "name": "Bangka Belitung",
        "lat": -2.7410513,
        "lng": 106.4405872
      },
      "country": {
        "id": 228,
        "name": "INDONESIA",
        "code": "ID"
      },
      "id": 1044,
      "name": "Riding Panjang",
      "postcode": "33172",
      "lat": -1.9805388,
      "lng": 106.1286901
    },
    {
      "suburb": {
        "id": 97,
        "name": "Merawang",
        "lat": -2.004507,
        "lng": 106.0875326
      },
      "city": {
        "id": 15,
        "name": "Bangka",
        "lat": -1.874294,
        "lng": 105.92299
      },
      "province": {
        "id": 2,
        "name": "Bangka Belitung",
        "lat": -2.7410513,
        "lng": 106.4405872
      },
      "country": {
        "id": 228,
        "name": "INDONESIA",
        "code": "ID"
      },
      "id": 1045,
      "name": "Kimak",
      "postcode": "33172",
      "lat": -1.9765896,
      "lng": 106.0522616
    },
    {
      "suburb": {
        "id": 97,
        "name": "Merawang",
        "lat": -2.004507,
        "lng": 106.0875326
      },
      "city": {
        "id": 15,
        "name": "Bangka",
        "lat": -1.874294,
        "lng": 105.92299
      },
      "province": {
        "id": 2,
        "name": "Bangka Belitung",
        "lat": -2.7410513,
        "lng": 106.4405872
      },
      "country": {
        "id": 228,
        "name": "INDONESIA",
        "code": "ID"
      },
      "id": 1046,
      "name": "Merawang",
      "postcode": "33172",
      "lat": -1.9432267,
      "lng": 106.0934117
    },
    {
      "suburb": {
        "id": 97,
        "name": "Merawang",
        "lat": -2.004507,
        "lng": 106.0875326
      },
      "city": {
        "id": 15,
        "name": "Bangka",
        "lat": -1.874294,
        "lng": 105.92299
      },
      "province": {
        "id": 2,
        "name": "Bangka Belitung",
        "lat": -2.7410513,
        "lng": 106.4405872
      },
      "country": {
        "id": 228,
        "name": "INDONESIA",
        "code": "ID"
      },
      "id": 1047,
      "name": "Jada Bahrin",
      "postcode": "33172",
      "lat": -2.0380507,
      "lng": 106.0346285
    },
    {
      "suburb": {
        "id": 97,
        "name": "Merawang",
        "lat": -2.004507,
        "lng": 106.0875326
      },
      "city": {
        "id": 15,
        "name": "Bangka",
        "lat": -1.874294,
        "lng": 105.92299
      },
      "province": {
        "id": 2,
        "name": "Bangka Belitung",
        "lat": -2.7410513,
        "lng": 106.4405872
      },
      "country": {
        "id": 228,
        "name": "INDONESIA",
        "code": "ID"
      },
      "id": 1048,
      "name": "Jurung",
      "postcode": "33172",
      "lat": -1.9715882,
      "lng": 106.0816536
    },
    {
      "suburb": {
        "id": 97,
        "name": "Merawang",
        "lat": -2.004507,
        "lng": 106.0875326
      },
      "city": {
        "id": 15,
        "name": "Bangka",
        "lat": -1.874294,
        "lng": 105.92299
      },
      "province": {
        "id": 2,
        "name": "Bangka Belitung",
        "lat": -2.7410513,
        "lng": 106.4405872
      },
      "country": {
        "id": 228,
        "name": "INDONESIA",
        "code": "ID"
      },
      "id": 1049,
      "name": "Baturusa",
      "postcode": "33172",
      "lat": -2.0278976,
      "lng": 106.1051705
    },
    {
      "suburb": {
        "id": 97,
        "name": "Merawang",
        "lat": -2.004507,
        "lng": 106.0875326
      },
      "city": {
        "id": 15,
        "name": "Bangka",
        "lat": -1.874294,
        "lng": 105.92299
      },
      "province": {
        "id": 2,
        "name": "Bangka Belitung",
        "lat": -2.7410513,
        "lng": 106.4405872
      },
      "country": {
        "id": 228,
        "name": "INDONESIA",
        "code": "ID"
      },
      "id": 1050,
      "name": "Dwi Makmur",
      "postcode": "33172",
      "lat": -1.9843207,
      "lng": 106.1037006
    },
    {
      "suburb": {
        "id": 97,
        "name": "Merawang",
        "lat": -2.004507,
        "lng": 106.0875326
      },
      "city": {
        "id": 15,
        "name": "Bangka",
        "lat": -1.874294,
        "lng": 105.92299
      },
      "province": {
        "id": 2,
        "name": "Bangka Belitung",
        "lat": -2.7410513,
        "lng": 106.4405872
      },
      "country": {
        "id": 228,
        "name": "INDONESIA",
        "code": "ID"
      },
      "id": 1051,
      "name": "Air Anyir",
      "postcode": "33172",
      "lat": -2.0463977,
      "lng": 106.140451
    },
    {
      "suburb": {
        "id": 97,
        "name": "Merawang",
        "lat": -2.004507,
        "lng": 106.0875326
      },
      "city": {
        "id": 15,
        "name": "Bangka",
        "lat": -1.874294,
        "lng": 105.92299
      },
      "province": {
        "id": 2,
        "name": "Bangka Belitung",
        "lat": -2.7410513,
        "lng": 106.4405872
      },
      "country": {
        "id": 228,
        "name": "INDONESIA",
        "code": "ID"
      },
      "id": 1052,
      "name": "Balun Ijuk",
      "postcode": "33172",
      "lat": -2.0566831,
      "lng": 106.0581397
    },
    {
      "suburb": {
        "id": 98,
        "name": "Bukit Intan",
        "lat": -2.1265854,
        "lng": 106.1463317
      },
      "city": {
        "id": 16,
        "name": "Pangkal Pinang",
        "lat": -2.1172623,
        "lng": 106.1345705
      },
      "province": {
        "id": 2,
        "name": "Bangka Belitung",
        "lat": -2.7410513,
        "lng": 106.4405872
      },
      "country": {
        "id": 228,
        "name": "INDONESIA",
        "code": "ID"
      },
      "id": 1053,
      "name": "Air Itam",
      "postcode": "33149",
      "lat": -2.142737,
      "lng": 106.1588386
    },
    {
      "suburb": {
        "id": 98,
        "name": "Bukit Intan",
        "lat": -2.1265854,
        "lng": 106.1463317
      },
      "city": {
        "id": 16,
        "name": "Pangkal Pinang",
        "lat": -2.1172623,
        "lng": 106.1345705
      },
      "province": {
        "id": 2,
        "name": "Bangka Belitung",
        "lat": -2.7410513,
        "lng": 106.4405872
      },
      "country": {
        "id": 228,
        "name": "INDONESIA",
        "code": "ID"
      },
      "id": 1054,
      "name": "Temberan",
      "postcode": "33147",
      "lat": -2.1265854,
      "lng": 106.1463317
    },
    {
      "suburb": {
        "id": 98,
        "name": "Bukit Intan",
        "lat": -2.1265854,
        "lng": 106.1463317
      },
      "city": {
        "id": 16,
        "name": "Pangkal Pinang",
        "lat": -2.1172623,
        "lng": 106.1345705
      },
      "province": {
        "id": 2,
        "name": "Bangka Belitung",
        "lat": -2.7410513,
        "lng": 106.4405872
      },
      "country": {
        "id": 228,
        "name": "INDONESIA",
        "code": "ID"
      },
      "id": 1055,
      "name": "Bacang",
      "postcode": "33148",
      "lat": -2.1289795,
      "lng": 106.1433913
    },
    {
      "suburb": {
        "id": 98,
        "name": "Bukit Intan",
        "lat": -2.1265854,
        "lng": 106.1463317
      },
      "city": {
        "id": 16,
        "name": "Pangkal Pinang",
        "lat": -2.1172623,
        "lng": 106.1345705
      },
      "province": {
        "id": 2,
        "name": "Bangka Belitung",
        "lat": -2.7410513,
        "lng": 106.4405872
      },
      "country": {
        "id": 228,
        "name": "INDONESIA",
        "code": "ID"
      },
      "id": 1056,
      "name": "Sinar Bulan",
      "postcode": "33147",
      "lat": -2.1265854,
      "lng": 106.1463317
    },
    {
      "suburb": {
        "id": 98,
        "name": "Bukit Intan",
        "lat": -2.1265854,
        "lng": 106.1463317
      },
      "city": {
        "id": 16,
        "name": "Pangkal Pinang",
        "lat": -2.1172623,
        "lng": 106.1345705
      },
      "province": {
        "id": 2,
        "name": "Bangka Belitung",
        "lat": -2.7410513,
        "lng": 106.4405872
      },
      "country": {
        "id": 228,
        "name": "INDONESIA",
        "code": "ID"
      },
      "id": 1057,
      "name": "Pasir Putih",
      "postcode": "33147",
      "lat": -2.1460991,
      "lng": 106.1131302
    },
    {
      "suburb": {
        "id": 98,
        "name": "Bukit Intan",
        "lat": -2.1265854,
        "lng": 106.1463317
      },
      "city": {
        "id": 16,
        "name": "Pangkal Pinang",
        "lat": -2.1172623,
        "lng": 106.1345705
      },
      "province": {
        "id": 2,
        "name": "Bangka Belitung",
        "lat": -2.7410513,
        "lng": 106.4405872
      },
      "country": {
        "id": 228,
        "name": "INDONESIA",
        "code": "ID"
      },
      "id": 1058,
      "name": "Semabung Lama",
      "postcode": "33147",
      "lat": -2.1291058,
      "lng": 106.1316303
    },
    {
      "suburb": {
        "id": 98,
        "name": "Bukit Intan",
        "lat": -2.1265854,
        "lng": 106.1463317
      },
      "city": {
        "id": 16,
        "name": "Pangkal Pinang",
        "lat": -2.1172623,
        "lng": 106.1345705
      },
      "province": {
        "id": 2,
        "name": "Bangka Belitung",
        "lat": -2.7410513,
        "lng": 106.4405872
      },
      "country": {
        "id": 228,
        "name": "INDONESIA",
        "code": "ID"
      },
      "id": 1059,
      "name": "Air Mawar",
      "postcode": "33147",
      "lat": -2.1315843,
      "lng": 106.1396214
    },
    {
      "suburb": {
        "id": 99,
        "name": "Girimaya",
        "lat": -2.1434117,
        "lng": 106.1198699
      },
      "city": {
        "id": 16,
        "name": "Pangkal Pinang",
        "lat": -2.1172623,
        "lng": 106.1345705
      },
      "province": {
        "id": 2,
        "name": "Bangka Belitung",
        "lat": -2.7410513,
        "lng": 106.4405872
      },
      "country": {
        "id": 228,
        "name": "INDONESIA",
        "code": "ID"
      },
      "id": 1060,
      "name": "Bukit Besar",
      "postcode": "33145",
      "lat": -2.1469415,
      "lng": 106.1213399
    },
    {
      "suburb": {
        "id": 99,
        "name": "Girimaya",
        "lat": -2.1434117,
        "lng": 106.1198699
      },
      "city": {
        "id": 16,
        "name": "Pangkal Pinang",
        "lat": -2.1172623,
        "lng": 106.1345705
      },
      "province": {
        "id": 2,
        "name": "Bangka Belitung",
        "lat": -2.7410513,
        "lng": 106.4405872
      },
      "country": {
        "id": 228,
        "name": "INDONESIA",
        "code": "ID"
      },
      "id": 1061,
      "name": "Semabung Baru",
      "postcode": "33146",
      "lat": -2.1421505,
      "lng": 106.1272201
    },
    {
      "suburb": {
        "id": 99,
        "name": "Girimaya",
        "lat": -2.1434117,
        "lng": 106.1198699
      },
      "city": {
        "id": 16,
        "name": "Pangkal Pinang",
        "lat": -2.1172623,
        "lng": 106.1345705
      },
      "province": {
        "id": 2,
        "name": "Bangka Belitung",
        "lat": -2.7410513,
        "lng": 106.4405872
      },
      "country": {
        "id": 228,
        "name": "INDONESIA",
        "code": "ID"
      },
      "id": 1062,
      "name": "Sriwijaya",
      "postcode": "33143",
      "lat": -2.1494009,
      "lng": 106.1125201
    },
    {
      "suburb": {
        "id": 99,
        "name": "Girimaya",
        "lat": -2.1434117,
        "lng": 106.1198699
      },
      "city": {
        "id": 16,
        "name": "Pangkal Pinang",
        "lat": -2.1172623,
        "lng": 106.1345705
      },
      "province": {
        "id": 2,
        "name": "Bangka Belitung",
        "lat": -2.7410513,
        "lng": 106.4405872
      },
      "country": {
        "id": 228,
        "name": "INDONESIA",
        "code": "ID"
      },
      "id": 1063,
      "name": "Pasar Padi",
      "postcode": "33142",
      "lat": -2.128665,
      "lng": 106.1176649
    },
    {
      "suburb": {
        "id": 100,
        "name": "Rangkui",
        "lat": -2.1340845,
        "lng": 106.1081103
      },
      "city": {
        "id": 16,
        "name": "Pangkal Pinang",
        "lat": -2.1172623,
        "lng": 106.1345705
      },
      "province": {
        "id": 2,
        "name": "Bangka Belitung",
        "lat": -2.7410513,
        "lng": 106.4405872
      },
      "country": {
        "id": 228,
        "name": "INDONESIA",
        "code": "ID"
      },
      "id": 1064,
      "name": "Pasir Putih",
      "postcode": "33139",
      "lat": -2.1209156,
      "lng": 106.12428
    },
    {
      "suburb": {
        "id": 99,
        "name": "Girimaya",
        "lat": -2.1434117,
        "lng": 106.1198699
      },
      "city": {
        "id": 16,
        "name": "Pangkal Pinang",
        "lat": -2.1172623,
        "lng": 106.1345705
      },
      "province": {
        "id": 2,
        "name": "Bangka Belitung",
        "lat": -2.7410513,
        "lng": 106.4405872
      },
      "country": {
        "id": 228,
        "name": "INDONESIA",
        "code": "ID"
      },
      "id": 1065,
      "name": "Batu Intan",
      "postcode": "33141",
      "lat": -2.1375505,
      "lng": 106.11546
    },
    {
      "suburb": {
        "id": 100,
        "name": "Rangkui",
        "lat": -2.1340845,
        "lng": 106.1081103
      },
      "city": {
        "id": 16,
        "name": "Pangkal Pinang",
        "lat": -2.1172623,
        "lng": 106.1345705
      },
      "province": {
        "id": 2,
        "name": "Bangka Belitung",
        "lat": -2.7410513,
        "lng": 106.4405872
      },
      "country": {
        "id": 228,
        "name": "INDONESIA",
        "code": "ID"
      },
      "id": 1066,
      "name": "Bintang",
      "postcode": "33138",
      "lat": -2.1334384,
      "lng": 106.113255
    },
    {
      "suburb": {
        "id": 100,
        "name": "Rangkui",
        "lat": -2.1340845,
        "lng": 106.1081103
      },
      "city": {
        "id": 16,
        "name": "Pangkal Pinang",
        "lat": -2.1172623,
        "lng": 106.1345705
      },
      "province": {
        "id": 2,
        "name": "Bangka Belitung",
        "lat": -2.7410513,
        "lng": 106.4405872
      },
      "country": {
        "id": 228,
        "name": "INDONESIA",
        "code": "ID"
      },
      "id": 1067,
      "name": "Melintang",
      "postcode": "33136",
      "lat": -2.135282,
      "lng": 106.1066404
    },
    {
      "suburb": {
        "id": 100,
        "name": "Rangkui",
        "lat": -2.1340845,
        "lng": 106.1081103
      },
      "city": {
        "id": 16,
        "name": "Pangkal Pinang",
        "lat": -2.1172623,
        "lng": 106.1345705
      },
      "province": {
        "id": 2,
        "name": "Bangka Belitung",
        "lat": -2.7410513,
        "lng": 106.4405872
      },
      "country": {
        "id": 228,
        "name": "INDONESIA",
        "code": "ID"
      },
      "id": 1068,
      "name": "Parit Lalang",
      "postcode": "33137",
      "lat": -2.1423727,
      "lng": 106.1066404
    },
    {
      "suburb": {
        "id": 100,
        "name": "Rangkui",
        "lat": -2.1340845,
        "lng": 106.1081103
      },
      "city": {
        "id": 16,
        "name": "Pangkal Pinang",
        "lat": -2.1172623,
        "lng": 106.1345705
      },
      "province": {
        "id": 2,
        "name": "Bangka Belitung",
        "lat": -2.7410513,
        "lng": 106.4405872
      },
      "country": {
        "id": 228,
        "name": "INDONESIA",
        "code": "ID"
      },
      "id": 1069,
      "name": "Keramat",
      "postcode": "33134",
      "lat": -2.1378036,
      "lng": 106.0919419
    },
    {
      "suburb": {
        "id": 100,
        "name": "Rangkui",
        "lat": -2.1340845,
        "lng": 106.1081103
      },
      "city": {
        "id": 16,
        "name": "Pangkal Pinang",
        "lat": -2.1172623,
        "lng": 106.1345705
      },
      "province": {
        "id": 2,
        "name": "Bangka Belitung",
        "lat": -2.7410513,
        "lng": 106.4405872
      },
      "country": {
        "id": 228,
        "name": "INDONESIA",
        "code": "ID"
      },
      "id": 1070,
      "name": "Asam",
      "postcode": "33135",
      "lat": -2.1424361,
      "lng": 106.1007608
    },
    {
      "suburb": {
        "id": 100,
        "name": "Rangkui",
        "lat": -2.1340845,
        "lng": 106.1081103
      },
      "city": {
        "id": 16,
        "name": "Pangkal Pinang",
        "lat": -2.1172623,
        "lng": 106.1345705
      },
      "province": {
        "id": 2,
        "name": "Bangka Belitung",
        "lat": -2.7410513,
        "lng": 106.4405872
      },
      "country": {
        "id": 228,
        "name": "INDONESIA",
        "code": "ID"
      },
      "id": 1071,
      "name": "Masjid Jamik",
      "postcode": "33132",
      "lat": -2.1299095,
      "lng": 106.1117851
    },
    {
      "suburb": {
        "id": 100,
        "name": "Rangkui",
        "lat": -2.1340845,
        "lng": 106.1081103
      },
      "city": {
        "id": 16,
        "name": "Pangkal Pinang",
        "lat": -2.1172623,
        "lng": 106.1345705
      },
      "province": {
        "id": 2,
        "name": "Bangka Belitung",
        "lat": -2.7410513,
        "lng": 106.4405872
      },
      "country": {
        "id": 228,
        "name": "INDONESIA",
        "code": "ID"
      },
      "id": 1072,
      "name": "Pintu Air",
      "postcode": "33133",
      "lat": -2.1329818,
      "lng": 106.1007608
    },
    {
      "suburb": {
        "id": 101,
        "name": "Taman Sari",
        "lat": -2.1198443,
        "lng": 106.11399
      },
      "city": {
        "id": 16,
        "name": "Pangkal Pinang",
        "lat": -2.1172623,
        "lng": 106.1345705
      },
      "province": {
        "id": 2,
        "name": "Bangka Belitung",
        "lat": -2.7410513,
        "lng": 106.4405872
      },
      "country": {
        "id": 228,
        "name": "INDONESIA",
        "code": "ID"
      },
      "id": 1073,
      "name": "Gedung Nasional",
      "postcode": "33127",
      "lat": -2.1257666,
      "lng": 106.1125201
    },
    {
      "suburb": {
        "id": 102,
        "name": "Gerunggang",
        "lat": -2.1084391,
        "lng": 106.0757749
      },
      "city": {
        "id": 16,
        "name": "Pangkal Pinang",
        "lat": -2.1172623,
        "lng": 106.1345705
      },
      "province": {
        "id": 2,
        "name": "Bangka Belitung",
        "lat": -2.7410513,
        "lng": 106.4405872
      },
      "country": {
        "id": 228,
        "name": "INDONESIA",
        "code": "ID"
      },
      "id": 1074,
      "name": "Taman Bunga",
      "postcode": "33123",
      "lat": -2.1117485,
      "lng": 106.0978212
    },
    {
      "suburb": {
        "id": 102,
        "name": "Gerunggang",
        "lat": -2.1084391,
        "lng": 106.0757749
      },
      "city": {
        "id": 16,
        "name": "Pangkal Pinang",
        "lat": -2.1172623,
        "lng": 106.1345705
      },
      "province": {
        "id": 2,
        "name": "Bangka Belitung",
        "lat": -2.7410513,
        "lng": 106.4405872
      },
      "country": {
        "id": 228,
        "name": "INDONESIA",
        "code": "ID"
      },
      "id": 1075,
      "name": "Tua Tunu indah",
      "postcode": "33124",
      "lat": -2.1048221,
      "lng": 106.0761446
    },
    {
      "suburb": {
        "id": 102,
        "name": "Gerunggang",
        "lat": -2.1084391,
        "lng": 106.0757749
      },
      "city": {
        "id": 16,
        "name": "Pangkal Pinang",
        "lat": -2.1172623,
        "lng": 106.1345705
      },
      "province": {
        "id": 2,
        "name": "Bangka Belitung",
        "lat": -2.7410513,
        "lng": 106.4405872
      },
      "country": {
        "id": 228,
        "name": "INDONESIA",
        "code": "ID"
      },
      "id": 1076,
      "name": "Kacang Pedang",
      "postcode": "33125",
      "lat": -2.124821,
      "lng": 106.0904721
    },
    {
      "suburb": {
        "id": 102,
        "name": "Gerunggang",
        "lat": -2.1084391,
        "lng": 106.0757749
      },
      "city": {
        "id": 16,
        "name": "Pangkal Pinang",
        "lat": -2.1172623,
        "lng": 106.1345705
      },
      "province": {
        "id": 2,
        "name": "Bangka Belitung",
        "lat": -2.7410513,
        "lng": 106.4405872
      },
      "country": {
        "id": 228,
        "name": "INDONESIA",
        "code": "ID"
      },
      "id": 1077,
      "name": "Bukit Sari",
      "postcode": "33123",
      "lat": -2.1181745,
      "lng": 106.1044355
    },
    {
      "suburb": {
        "id": 101,
        "name": "Taman Sari",
        "lat": -2.1198443,
        "lng": 106.11399
      },
      "city": {
        "id": 16,
        "name": "Pangkal Pinang",
        "lat": -2.1172623,
        "lng": 106.1345705
      },
      "province": {
        "id": 2,
        "name": "Bangka Belitung",
        "lat": -2.7410513,
        "lng": 106.4405872
      },
      "country": {
        "id": 228,
        "name": "INDONESIA",
        "code": "ID"
      },
      "id": 1078,
      "name": "Kejaksaan",
      "postcode": "33123",
      "lat": -2.1257159,
      "lng": 106.1023265
    },
    {
      "suburb": {
        "id": 102,
        "name": "Gerunggang",
        "lat": -2.1084391,
        "lng": 106.0757749
      },
      "city": {
        "id": 16,
        "name": "Pangkal Pinang",
        "lat": -2.1172623,
        "lng": 106.1345705
      },
      "province": {
        "id": 2,
        "name": "Bangka Belitung",
        "lat": -2.7410513,
        "lng": 106.4405872
      },
      "country": {
        "id": 228,
        "name": "INDONESIA",
        "code": "ID"
      },
      "id": 1079,
      "name": "Air Kepala Tujuh",
      "postcode": "33123",
      "lat": -2.1233665,
      "lng": 106.1044444
    },
    {
      "suburb": {
        "id": 102,
        "name": "Gerunggang",
        "lat": -2.1084391,
        "lng": 106.0757749
      },
      "city": {
        "id": 16,
        "name": "Pangkal Pinang",
        "lat": -2.1172623,
        "lng": 106.1345705
      },
      "province": {
        "id": 2,
        "name": "Bangka Belitung",
        "lat": -2.7410513,
        "lng": 106.4405872
      },
      "country": {
        "id": 228,
        "name": "INDONESIA",
        "code": "ID"
      },
      "id": 1080,
      "name": "Bukit Merapin (Bukit Merapen)",
      "postcode": "33123",
      "lat": -2.1165357,
      "lng": 106.0919419
    },
    {
      "suburb": {
        "id": 101,
        "name": "Taman Sari",
        "lat": -2.1198443,
        "lng": 106.11399
      },
      "city": {
        "id": 16,
        "name": "Pangkal Pinang",
        "lat": -2.1172623,
        "lng": 106.1345705
      },
      "province": {
        "id": 2,
        "name": "Bangka Belitung",
        "lat": -2.7410513,
        "lng": 106.4405872
      },
      "country": {
        "id": 228,
        "name": "INDONESIA",
        "code": "ID"
      },
      "id": 1081,
      "name": "Opas Indah",
      "postcode": "33121",
      "lat": -2.1162851,
      "lng": 106.11546
    },
    {
      "suburb": {
        "id": 101,
        "name": "Taman Sari",
        "lat": -2.1198443,
        "lng": 106.11399
      },
      "city": {
        "id": 16,
        "name": "Pangkal Pinang",
        "lat": -2.1172623,
        "lng": 106.1345705
      },
      "province": {
        "id": 2,
        "name": "Bangka Belitung",
        "lat": -2.7410513,
        "lng": 106.4405872
      },
      "country": {
        "id": 228,
        "name": "INDONESIA",
        "code": "ID"
      },
      "id": 1082,
      "name": "Rawa Bangun",
      "postcode": "33121",
      "lat": -2.1275781,
      "lng": 106.1088452
    },
    {
      "suburb": {
        "id": 103,
        "name": "Gabek",
        "lat": -2.0939583,
        "lng": 106.1051705
      },
      "city": {
        "id": 16,
        "name": "Pangkal Pinang",
        "lat": -2.1172623,
        "lng": 106.1345705
      },
      "province": {
        "id": 2,
        "name": "Bangka Belitung",
        "lat": -2.7410513,
        "lng": 106.4405872
      },
      "country": {
        "id": 228,
        "name": "INDONESIA",
        "code": "ID"
      },
      "id": 1083,
      "name": "Jerambah Gantung",
      "postcode": "33119",
      "lat": -2.0939583,
      "lng": 106.1051705
    },
    {
      "suburb": {
        "id": 101,
        "name": "Taman Sari",
        "lat": -2.1198443,
        "lng": 106.11399
      },
      "city": {
        "id": 16,
        "name": "Pangkal Pinang",
        "lat": -2.1172623,
        "lng": 106.1345705
      },
      "province": {
        "id": 2,
        "name": "Bangka Belitung",
        "lat": -2.7410513,
        "lng": 106.4405872
      },
      "country": {
        "id": 228,
        "name": "INDONESIA",
        "code": "ID"
      },
      "id": 1084,
      "name": "Batin Tikal",
      "postcode": "33121",
      "lat": -2.1210727,
      "lng": 106.1095802
    },
    {
      "suburb": {
        "id": 103,
        "name": "Gabek",
        "lat": -2.0939583,
        "lng": 106.1051705
      },
      "city": {
        "id": 16,
        "name": "Pangkal Pinang",
        "lat": -2.1172623,
        "lng": 106.1345705
      },
      "province": {
        "id": 2,
        "name": "Bangka Belitung",
        "lat": -2.7410513,
        "lng": 106.4405872
      },
      "country": {
        "id": 228,
        "name": "INDONESIA",
        "code": "ID"
      },
      "id": 1085,
      "name": "Selindung Baru",
      "postcode": "33117",
      "lat": -2.0950613,
      "lng": 106.1125201
    },
    {
      "suburb": {
        "id": 103,
        "name": "Gabek",
        "lat": -2.0939583,
        "lng": 106.1051705
      },
      "city": {
        "id": 16,
        "name": "Pangkal Pinang",
        "lat": -2.1172623,
        "lng": 106.1345705
      },
      "province": {
        "id": 2,
        "name": "Bangka Belitung",
        "lat": -2.7410513,
        "lng": 106.4405872
      },
      "country": {
        "id": 228,
        "name": "INDONESIA",
        "code": "ID"
      },
      "id": 1086,
      "name": "Gabek Satu",
      "postcode": "33118",
      "lat": -2.1021763,
      "lng": 106.1095802
    },
    {
      "suburb": {
        "id": 103,
        "name": "Gabek",
        "lat": -2.0939583,
        "lng": 106.1051705
      },
      "city": {
        "id": 16,
        "name": "Pangkal Pinang",
        "lat": -2.1172623,
        "lng": 106.1345705
      },
      "province": {
        "id": 2,
        "name": "Bangka Belitung",
        "lat": -2.7410513,
        "lng": 106.4405872
      },
      "country": {
        "id": 228,
        "name": "INDONESIA",
        "code": "ID"
      },
      "id": 1087,
      "name": "Gabek Dua",
      "postcode": "33116",
      "lat": -2.1021141,
      "lng": 106.11546
    },
    {
      "suburb": {
        "id": 103,
        "name": "Gabek",
        "lat": -2.0939583,
        "lng": 106.1051705
      },
      "city": {
        "id": 16,
        "name": "Pangkal Pinang",
        "lat": -2.1172623,
        "lng": 106.1345705
      },
      "province": {
        "id": 2,
        "name": "Bangka Belitung",
        "lat": -2.7410513,
        "lng": 106.4405872
      },
      "country": {
        "id": 228,
        "name": "INDONESIA",
        "code": "ID"
      },
      "id": 1088,
      "name": "Selindung (Selindung Lama)",
      "postcode": "33117",
      "lat": -2.0748275,
      "lng": 106.1286901
    },
    {
      "suburb": {
        "id": 104,
        "name": "Pangkal Balam",
        "lat": -2.1031546,
        "lng": 106.1286901
      },
      "city": {
        "id": 16,
        "name": "Pangkal Pinang",
        "lat": -2.1172623,
        "lng": 106.1345705
      },
      "province": {
        "id": 2,
        "name": "Bangka Belitung",
        "lat": -2.7410513,
        "lng": 106.4405872
      },
      "country": {
        "id": 228,
        "name": "INDONESIA",
        "code": "ID"
      },
      "id": 1089,
      "name": "Lontong Pancur",
      "postcode": "33115",
      "lat": -2.0949372,
      "lng": 106.12428
    },
    {
      "suburb": {
        "id": 104,
        "name": "Pangkal Balam",
        "lat": -2.1031546,
        "lng": 106.1286901
      },
      "city": {
        "id": 16,
        "name": "Pangkal Pinang",
        "lat": -2.1172623,
        "lng": 106.1345705
      },
      "province": {
        "id": 2,
        "name": "Bangka Belitung",
        "lat": -2.7410513,
        "lng": 106.4405872
      },
      "country": {
        "id": 228,
        "name": "INDONESIA",
        "code": "ID"
      },
      "id": 1090,
      "name": "Pasir Garam",
      "postcode": "33115",
      "lat": -2.1026344,
      "lng": 106.1220749
    },
    {
      "suburb": {
        "id": 104,
        "name": "Pangkal Balam",
        "lat": -2.1031546,
        "lng": 106.1286901
      },
      "city": {
        "id": 16,
        "name": "Pangkal Pinang",
        "lat": -2.1172623,
        "lng": 106.1345705
      },
      "province": {
        "id": 2,
        "name": "Bangka Belitung",
        "lat": -2.7410513,
        "lng": 106.4405872
      },
      "country": {
        "id": 228,
        "name": "INDONESIA",
        "code": "ID"
      },
      "id": 1091,
      "name": "Rejosari",
      "postcode": "33111",
      "lat": -2.1114984,
      "lng": 106.1213399
    },
    {
      "suburb": {
        "id": 104,
        "name": "Pangkal Balam",
        "lat": -2.1031546,
        "lng": 106.1286901
      },
      "city": {
        "id": 16,
        "name": "Pangkal Pinang",
        "lat": -2.1172623,
        "lng": 106.1345705
      },
      "province": {
        "id": 2,
        "name": "Bangka Belitung",
        "lat": -2.7410513,
        "lng": 106.4405872
      },
      "country": {
        "id": 228,
        "name": "INDONESIA",
        "code": "ID"
      },
      "id": 1092,
      "name": "Ampui",
      "postcode": "33113",
      "lat": -2.1067124,
      "lng": 106.1272201
    },
    {
      "suburb": {
        "id": 103,
        "name": "Gabek",
        "lat": -2.0939583,
        "lng": 106.1051705
      },
      "city": {
        "id": 16,
        "name": "Pangkal Pinang",
        "lat": -2.1172623,
        "lng": 106.1345705
      },
      "province": {
        "id": 2,
        "name": "Bangka Belitung",
        "lat": -2.7410513,
        "lng": 106.4405872
      },
      "country": {
        "id": 228,
        "name": "INDONESIA",
        "code": "ID"
      },
      "id": 1093,
      "name": "Air Salemba",
      "postcode": "33111",
      "lat": -2.1093239,
      "lng": 106.1037006
    },
    {
      "suburb": {
        "id": 104,
        "name": "Pangkal Balam",
        "lat": -2.1031546,
        "lng": 106.1286901
      },
      "city": {
        "id": 16,
        "name": "Pangkal Pinang",
        "lat": -2.1172623,
        "lng": 106.1345705
      },
      "province": {
        "id": 2,
        "name": "Bangka Belitung",
        "lat": -2.7410513,
        "lng": 106.4405872
      },
      "country": {
        "id": 228,
        "name": "INDONESIA",
        "code": "ID"
      },
      "id": 1094,
      "name": "Ketapang",
      "postcode": "33111",
      "lat": -2.1019272,
      "lng": 106.1331004
    },
    {
      "suburb": {
        "id": 105,
        "name": "Pulo Ampel",
        "lat": -5.9187707,
        "lng": 106.0816536
      },
      "city": {
        "id": 17,
        "name": "Serang, Kab.",
        "lat": -6.1397339,
        "lng": 106.040506
      },
      "province": {
        "id": 3,
        "name": "Banten",
        "lat": -6.4058172,
        "lng": 106.0640179
      },
      "country": {
        "id": 228,
        "name": "INDONESIA",
        "code": "ID"
      },
      "id": 1095,
      "name": "Salira",
      "postcode": "42155",
      "lat": -5.8892164,
      "lng": 106.0463837
    },
    {
      "suburb": {
        "id": 105,
        "name": "Pulo Ampel",
        "lat": -5.9187707,
        "lng": 106.0816536
      },
      "city": {
        "id": 17,
        "name": "Serang, Kab.",
        "lat": -6.1397339,
        "lng": 106.040506
      },
      "province": {
        "id": 3,
        "name": "Banten",
        "lat": -6.4058172,
        "lng": 106.0640179
      },
      "country": {
        "id": 228,
        "name": "INDONESIA",
        "code": "ID"
      },
      "id": 1096,
      "name": "Sumuranja",
      "postcode": "42155",
      "lat": -5.9113819,
      "lng": 106.0728356
    },
    {
      "suburb": {
        "id": 105,
        "name": "Pulo Ampel",
        "lat": -5.9187707,
        "lng": 106.0816536
      },
      "city": {
        "id": 17,
        "name": "Serang, Kab.",
        "lat": -6.1397339,
        "lng": 106.040506
      },
      "province": {
        "id": 3,
        "name": "Banten",
        "lat": -6.4058172,
        "lng": 106.0640179
      },
      "country": {
        "id": 228,
        "name": "INDONESIA",
        "code": "ID"
      },
      "id": 1097,
      "name": "Margasari",
      "postcode": "42155",
      "lat": -5.9259856,
      "lng": 106.0963513
    },
    {
      "suburb": {
        "id": 105,
        "name": "Pulo Ampel",
        "lat": -5.9187707,
        "lng": 106.0816536
      },
      "city": {
        "id": 17,
        "name": "Serang, Kab.",
        "lat": -6.1397339,
        "lng": 106.040506
      },
      "province": {
        "id": 3,
        "name": "Banten",
        "lat": -6.4058172,
        "lng": 106.0640179
      },
      "country": {
        "id": 228,
        "name": "INDONESIA",
        "code": "ID"
      },
      "id": 1098,
      "name": "Pulo Ampel",
      "postcode": "42155",
      "lat": -5.916134,
      "lng": 106.0845931
    },
    {
      "suburb": {
        "id": 105,
        "name": "Pulo Ampel",
        "lat": -5.9187707,
        "lng": 106.0816536
      },
      "city": {
        "id": 17,
        "name": "Serang, Kab.",
        "lat": -6.1397339,
        "lng": 106.040506
      },
      "province": {
        "id": 3,
        "name": "Banten",
        "lat": -6.4058172,
        "lng": 106.0640179
      },
      "country": {
        "id": 228,
        "name": "INDONESIA",
        "code": "ID"
      },
      "id": 1099,
      "name": "Pulo Panjang",
      "postcode": "42155",
      "lat": -5.9268769,
      "lng": 106.1522126
    },
    {
      "suburb": {
        "id": 105,
        "name": "Pulo Ampel",
        "lat": -5.9187707,
        "lng": 106.0816536
      },
      "city": {
        "id": 17,
        "name": "Serang, Kab.",
        "lat": -6.1397339,
        "lng": 106.040506
      },
      "province": {
        "id": 3,
        "name": "Banten",
        "lat": -6.4058172,
        "lng": 106.0640179
      },
      "country": {
        "id": 228,
        "name": "INDONESIA",
        "code": "ID"
      },
      "id": 1100,
      "name": "Banyuwangi",
      "postcode": "42155",
      "lat": -5.9316088,
      "lng": 106.0787142
    },
    {
      "suburb": {
        "id": 105,
        "name": "Pulo Ampel",
        "lat": -5.9187707,
        "lng": 106.0816536
      },
      "city": {
        "id": 17,
        "name": "Serang, Kab.",
        "lat": -6.1397339,
        "lng": 106.040506
      },
      "province": {
        "id": 3,
        "name": "Banten",
        "lat": -6.4058172,
        "lng": 106.0640179
      },
      "country": {
        "id": 228,
        "name": "INDONESIA",
        "code": "ID"
      },
      "id": 1101,
      "name": "Kedung Soka",
      "postcode": "42155",
      "lat": -5.9117288,
      "lng": 106.0610787
    },
    {
      "suburb": {
        "id": 105,
        "name": "Pulo Ampel",
        "lat": -5.9187707,
        "lng": 106.0816536
      },
      "city": {
        "id": 17,
        "name": "Serang, Kab.",
        "lat": -6.1397339,
        "lng": 106.040506
      },
      "province": {
        "id": 3,
        "name": "Banten",
        "lat": -6.4058172,
        "lng": 106.0640179
      },
      "country": {
        "id": 228,
        "name": "INDONESIA",
        "code": "ID"
      },
      "id": 1102,
      "name": "Mangunreja",
      "postcode": "42155",
      "lat": -5.8911609,
      "lng": 106.0669571
    },
    {
      "suburb": {
        "id": 105,
        "name": "Pulo Ampel",
        "lat": -5.9187707,
        "lng": 106.0816536
      },
      "city": {
        "id": 17,
        "name": "Serang, Kab.",
        "lat": -6.1397339,
        "lng": 106.040506
      },
      "province": {
        "id": 3,
        "name": "Banten",
        "lat": -6.4058172,
        "lng": 106.0640179
      },
      "country": {
        "id": 228,
        "name": "INDONESIA",
        "code": "ID"
      },
      "id": 1103,
      "name": "Argawana",
      "postcode": "42155",
      "lat": -5.9412879,
      "lng": 106.0963513
    },
    {
      "suburb": {
        "id": 106,
        "name": "Bojonegara",
        "lat": -5.9648622,
        "lng": 106.0757749
      },
      "city": {
        "id": 17,
        "name": "Serang, Kab.",
        "lat": -6.1397339,
        "lng": 106.040506
      },
      "province": {
        "id": 3,
        "name": "Banten",
        "lat": -6.4058172,
        "lng": 106.0640179
      },
      "country": {
        "id": 228,
        "name": "INDONESIA",
        "code": "ID"
      },
      "id": 1104,
      "name": "Pengarengan",
      "postcode": "42154",
      "lat": -5.9370585,
      "lng": 106.0669571
    },
    {
      "suburb": {
        "id": 106,
        "name": "Bojonegara",
        "lat": -5.9648622,
        "lng": 106.0757749
      },
      "city": {
        "id": 17,
        "name": "Serang, Kab.",
        "lat": -6.1397339,
        "lng": 106.040506
      },
      "province": {
        "id": 3,
        "name": "Banten",
        "lat": -6.4058172,
        "lng": 106.0640179
      },
      "country": {
        "id": 228,
        "name": "INDONESIA",
        "code": "ID"
      },
      "id": 1105,
      "name": "Ukirsari",
      "postcode": "42154",
      "lat": -5.9571193,
      "lng": 106.0787142
    },
    {
      "suburb": {
        "id": 106,
        "name": "Bojonegara",
        "lat": -5.9648622,
        "lng": 106.0757749
      },
      "city": {
        "id": 17,
        "name": "Serang, Kab.",
        "lat": -6.1397339,
        "lng": 106.040506
      },
      "province": {
        "id": 3,
        "name": "Banten",
        "lat": -6.4058172,
        "lng": 106.0640179
      },
      "country": {
        "id": 228,
        "name": "INDONESIA",
        "code": "ID"
      },
      "id": 1106,
      "name": "Wanakarta",
      "postcode": "42154",
      "lat": -5.9829922,
      "lng": 106.0669571
    },
    {
      "suburb": {
        "id": 106,
        "name": "Bojonegara",
        "lat": -5.9648622,
        "lng": 106.0757749
      },
      "city": {
        "id": 17,
        "name": "Serang, Kab.",
        "lat": -6.1397339,
        "lng": 106.040506
      },
      "province": {
        "id": 3,
        "name": "Banten",
        "lat": -6.4058172,
        "lng": 106.0640179
      },
      "country": {
        "id": 228,
        "name": "INDONESIA",
        "code": "ID"
      },
      "id": 1107,
      "name": "Mekar Jaya",
      "postcode": "42154",
      "lat": -5.9648622,
      "lng": 106.0757749
    },
    {
      "suburb": {
        "id": 106,
        "name": "Bojonegara",
        "lat": -5.9648622,
        "lng": 106.0757749
      },
      "city": {
        "id": 17,
        "name": "Serang, Kab.",
        "lat": -6.1397339,
        "lng": 106.040506
      },
      "province": {
        "id": 3,
        "name": "Banten",
        "lat": -6.4058172,
        "lng": 106.0640179
      },
      "country": {
        "id": 228,
        "name": "INDONESIA",
        "code": "ID"
      },
      "id": 1108,
      "name": "Pakuncen",
      "postcode": "42154",
      "lat": -5.9375807,
      "lng": 106.0493226
    },
    {
      "suburb": {
        "id": 106,
        "name": "Bojonegara",
        "lat": -5.9648622,
        "lng": 106.0757749
      },
      "city": {
        "id": 17,
        "name": "Serang, Kab.",
        "lat": -6.1397339,
        "lng": 106.040506
      },
      "province": {
        "id": 3,
        "name": "Banten",
        "lat": -6.4058172,
        "lng": 106.0640179
      },
      "country": {
        "id": 228,
        "name": "INDONESIA",
        "code": "ID"
      },
      "id": 1109,
      "name": "Margagiri",
      "postcode": "42154",
      "lat": -5.9652485,
      "lng": 106.0949435
    },
    {
      "suburb": {
        "id": 106,
        "name": "Bojonegara",
        "lat": -5.9648622,
        "lng": 106.0757749
      },
      "city": {
        "id": 17,
        "name": "Serang, Kab.",
        "lat": -6.1397339,
        "lng": 106.040506
      },
      "province": {
        "id": 3,
        "name": "Banten",
        "lat": -6.4058172,
        "lng": 106.0640179
      },
      "country": {
        "id": 228,
        "name": "INDONESIA",
        "code": "ID"
      },
      "id": 1110,
      "name": "Mangkunegara",
      "postcode": "42154",
      "lat": -5.9888913,
      "lng": 106.0831234
    },
    {
      "suburb": {
        "id": 106,
        "name": "Bojonegara",
        "lat": -5.9648622,
        "lng": 106.0757749
      },
      "city": {
        "id": 17,
        "name": "Serang, Kab.",
        "lat": -6.1397339,
        "lng": 106.040506
      },
      "province": {
        "id": 3,
        "name": "Banten",
        "lat": -6.4058172,
        "lng": 106.0640179
      },
      "country": {
        "id": 228,
        "name": "INDONESIA",
        "code": "ID"
      },
      "id": 1111,
      "name": "Kertasana",
      "postcode": "42154",
      "lat": -5.9977833,
      "lng": 106.0845931
    },
    {
      "suburb": {
        "id": 106,
        "name": "Bojonegara",
        "lat": -5.9648622,
        "lng": 106.0757749
      },
      "city": {
        "id": 17,
        "name": "Serang, Kab.",
        "lat": -6.1397339,
        "lng": 106.040506
      },
      "province": {
        "id": 3,
        "name": "Banten",
        "lat": -6.4058172,
        "lng": 106.0640179
      },
      "country": {
        "id": 228,
        "name": "INDONESIA",
        "code": "ID"
      },
      "id": 1112,
      "name": "Lambangsari",
      "postcode": "42154",
      "lat": -5.967677,
      "lng": 106.0669571
    },
    {
      "suburb": {
        "id": 106,
        "name": "Bojonegara",
        "lat": -5.9648622,
        "lng": 106.0757749
      },
      "city": {
        "id": 17,
        "name": "Serang, Kab.",
        "lat": -6.1397339,
        "lng": 106.040506
      },
      "province": {
        "id": 3,
        "name": "Banten",
        "lat": -6.4058172,
        "lng": 106.0640179
      },
      "country": {
        "id": 228,
        "name": "INDONESIA",
        "code": "ID"
      },
      "id": 1113,
      "name": "Bojonegara",
      "postcode": "42154",
      "lat": -5.9719047,
      "lng": 106.0963513
    },
    {
      "suburb": {
        "id": 106,
        "name": "Bojonegara",
        "lat": -5.9648622,
        "lng": 106.0757749
      },
      "city": {
        "id": 17,
        "name": "Serang, Kab.",
        "lat": -6.1397339,
        "lng": 106.040506
      },
      "province": {
        "id": 3,
        "name": "Banten",
        "lat": -6.4058172,
        "lng": 106.0640179
      },
      "country": {
        "id": 228,
        "name": "INDONESIA",
        "code": "ID"
      },
      "id": 1114,
      "name": "Karangkepuh",
      "postcode": "42154",
      "lat": -5.9787682,
      "lng": 106.0801839
    },
    {
      "suburb": {
        "id": 107,
        "name": "Waringin Kurung",
        "lat": -6.0874858,
        "lng": 106.0757749
      },
      "city": {
        "id": 17,
        "name": "Serang, Kab.",
        "lat": -6.1397339,
        "lng": 106.040506
      },
      "province": {
        "id": 3,
        "name": "Banten",
        "lat": -6.4058172,
        "lng": 106.0640179
      },
      "country": {
        "id": 228,
        "name": "INDONESIA",
        "code": "ID"
      },
      "id": 1115,
      "name": "Waringinkurung",
      "postcode": "42153",
      "lat": -6.0596286,
      "lng": 106.0669571
    },
    {
      "suburb": {
        "id": 107,
        "name": "Waringin Kurung",
        "lat": -6.0874858,
        "lng": 106.0757749
      },
      "city": {
        "id": 17,
        "name": "Serang, Kab.",
        "lat": -6.1397339,
        "lng": 106.040506
      },
      "province": {
        "id": 3,
        "name": "Banten",
        "lat": -6.4058172,
        "lng": 106.0640179
      },
      "country": {
        "id": 228,
        "name": "INDONESIA",
        "code": "ID"
      },
      "id": 1116,
      "name": "Sukadalem",
      "postcode": "42153",
      "lat": -6.0589172,
      "lng": 106.0904721
    },
    {
      "suburb": {
        "id": 107,
        "name": "Waringin Kurung",
        "lat": -6.0874858,
        "lng": 106.0757749
      },
      "city": {
        "id": 17,
        "name": "Serang, Kab.",
        "lat": -6.1397339,
        "lng": 106.040506
      },
      "province": {
        "id": 3,
        "name": "Banten",
        "lat": -6.4058172,
        "lng": 106.0640179
      },
      "country": {
        "id": 228,
        "name": "INDONESIA",
        "code": "ID"
      },
      "id": 1117,
      "name": "Telaga Luhur",
      "postcode": "42153",
      "lat": -6.105121,
      "lng": 106.0845931
    },
    {
      "suburb": {
        "id": 107,
        "name": "Waringin Kurung",
        "lat": -6.0874858,
        "lng": 106.0757749
      },
      "city": {
        "id": 17,
        "name": "Serang, Kab.",
        "lat": -6.1397339,
        "lng": 106.040506
      },
      "province": {
        "id": 3,
        "name": "Banten",
        "lat": -6.4058172,
        "lng": 106.0640179
      },
      "country": {
        "id": 228,
        "name": "INDONESIA",
        "code": "ID"
      },
      "id": 1118,
      "name": "Sampir",
      "postcode": "42153",
      "lat": -6.0820288,
      "lng": 106.0449143
    },
    {
      "suburb": {
        "id": 107,
        "name": "Waringin Kurung",
        "lat": -6.0874858,
        "lng": 106.0757749
      },
      "city": {
        "id": 17,
        "name": "Serang, Kab.",
        "lat": -6.1397339,
        "lng": 106.040506
      },
      "province": {
        "id": 3,
        "name": "Banten",
        "lat": -6.4058172,
        "lng": 106.0640179
      },
      "country": {
        "id": 228,
        "name": "INDONESIA",
        "code": "ID"
      },
      "id": 1119,
      "name": "Sasahan",
      "postcode": "42153",
      "lat": -6.1164299,
      "lng": 106.0493226
    },
    {
      "suburb": {
        "id": 107,
        "name": "Waringin Kurung",
        "lat": -6.0874858,
        "lng": 106.0757749
      },
      "city": {
        "id": 17,
        "name": "Serang, Kab.",
        "lat": -6.1397339,
        "lng": 106.040506
      },
      "province": {
        "id": 3,
        "name": "Banten",
        "lat": -6.4058172,
        "lng": 106.0640179
      },
      "country": {
        "id": 228,
        "name": "INDONESIA",
        "code": "ID"
      },
      "id": 1120,
      "name": "Sukabares",
      "postcode": "42153",
      "lat": -6.0797251,
      "lng": 106.0787142
    },
    {
      "suburb": {
        "id": 107,
        "name": "Waringin Kurung",
        "lat": -6.0874858,
        "lng": 106.0757749
      },
      "city": {
        "id": 17,
        "name": "Serang, Kab.",
        "lat": -6.1397339,
        "lng": 106.040506
      },
      "province": {
        "id": 3,
        "name": "Banten",
        "lat": -6.4058172,
        "lng": 106.0640179
      },
      "country": {
        "id": 228,
        "name": "INDONESIA",
        "code": "ID"
      },
      "id": 1121,
      "name": "Melati",
      "postcode": "42153",
      "lat": -6.0804384,
      "lng": 106.0552006
    },
    {
      "suburb": {
        "id": 107,
        "name": "Waringin Kurung",
        "lat": -6.0874858,
        "lng": 106.0757749
      },
      "city": {
        "id": 17,
        "name": "Serang, Kab.",
        "lat": -6.1397339,
        "lng": 106.040506
      },
      "province": {
        "id": 3,
        "name": "Banten",
        "lat": -6.4058172,
        "lng": 106.0640179
      },
      "country": {
        "id": 228,
        "name": "INDONESIA",
        "code": "ID"
      },
      "id": 1122,
      "name": "Sambilawang",
      "postcode": "42153",
      "lat": -6.0749679,
      "lng": 106.0669571
    },
    {
      "suburb": {
        "id": 107,
        "name": "Waringin Kurung",
        "lat": -6.0874858,
        "lng": 106.0757749
      },
      "city": {
        "id": 17,
        "name": "Serang, Kab.",
        "lat": -6.1397339,
        "lng": 106.040506
      },
      "province": {
        "id": 3,
        "name": "Banten",
        "lat": -6.4058172,
        "lng": 106.0640179
      },
      "country": {
        "id": 228,
        "name": "INDONESIA",
        "code": "ID"
      },
      "id": 1123,
      "name": "Cokopsulanjana",
      "postcode": "42153",
      "lat": -6.1210097,
      "lng": 106.0669571
    },
    {
      "suburb": {
        "id": 107,
        "name": "Waringin Kurung",
        "lat": -6.0874858,
        "lng": 106.0757749
      },
      "city": {
        "id": 17,
        "name": "Serang, Kab.",
        "lat": -6.1397339,
        "lng": 106.040506
      },
      "province": {
        "id": 3,
        "name": "Banten",
        "lat": -6.4058172,
        "lng": 106.0640179
      },
      "country": {
        "id": 228,
        "name": "INDONESIA",
        "code": "ID"
      },
      "id": 1124,
      "name": "Kemuning",
      "postcode": "42153",
      "lat": -6.0909195,
      "lng": 106.0890023
    },
    {
      "suburb": {
        "id": 107,
        "name": "Waringin Kurung",
        "lat": -6.0874858,
        "lng": 106.0757749
      },
      "city": {
        "id": 17,
        "name": "Serang, Kab.",
        "lat": -6.1397339,
        "lng": 106.040506
      },
      "province": {
        "id": 3,
        "name": "Banten",
        "lat": -6.4058172,
        "lng": 106.0640179
      },
      "country": {
        "id": 228,
        "name": "INDONESIA",
        "code": "ID"
      },
      "id": 1125,
      "name": "Binangun",
      "postcode": "42153",
      "lat": -6.0927794,
      "lng": 106.0698963
    },
    {
      "suburb": {
        "id": 108,
        "name": "Ciwandan",
        "lat": -6.0346025,
        "lng": 105.9641124
      },
      "city": {
        "id": 18,
        "name": "Cilegon",
        "lat": -6.0421999,
        "lng": 106.0351629
      },
      "province": {
        "id": 3,
        "name": "Banten",
        "lat": -6.4058172,
        "lng": 106.0640179
      },
      "country": {
        "id": 228,
        "name": "INDONESIA",
        "code": "ID"
      },
      "id": 1126,
      "name": "Gunungsugih",
      "postcode": "42447",
      "lat": -6.0353048,
      "lng": 105.9406128
    },
    {
      "suburb": {
        "id": 108,
        "name": "Ciwandan",
        "lat": -6.0346025,
        "lng": 105.9641124
      },
      "city": {
        "id": 18,
        "name": "Cilegon",
        "lat": -6.0421999,
        "lng": 106.0351629
      },
      "province": {
        "id": 3,
        "name": "Banten",
        "lat": -6.4058172,
        "lng": 106.0640179
      },
      "country": {
        "id": 228,
        "name": "INDONESIA",
        "code": "ID"
      },
      "id": 1127,
      "name": "Kepuh",
      "postcode": "42446",
      "lat": -6.0448285,
      "lng": 105.9641124
    },
    {
      "suburb": {
        "id": 108,
        "name": "Ciwandan",
        "lat": -6.0346025,
        "lng": 105.9641124
      },
      "city": {
        "id": 18,
        "name": "Cilegon",
        "lat": -6.0421999,
        "lng": 106.0351629
      },
      "province": {
        "id": 3,
        "name": "Banten",
        "lat": -6.4058172,
        "lng": 106.0640179
      },
      "country": {
        "id": 228,
        "name": "INDONESIA",
        "code": "ID"
      },
      "id": 1128,
      "name": "Randakari",
      "postcode": "42446",
      "lat": -6.0317827,
      "lng": 105.9729255
    },
    {
      "suburb": {
        "id": 108,
        "name": "Ciwandan",
        "lat": -6.0346025,
        "lng": 105.9641124
      },
      "city": {
        "id": 18,
        "name": "Cilegon",
        "lat": -6.0421999,
        "lng": 106.0351629
      },
      "province": {
        "id": 3,
        "name": "Banten",
        "lat": -6.4058172,
        "lng": 106.0640179
      },
      "country": {
        "id": 228,
        "name": "INDONESIA",
        "code": "ID"
      },
      "id": 1129,
      "name": "Kubangsari",
      "postcode": "42445",
      "lat": -6.0060526,
      "lng": 105.9788011
    },
    {
      "suburb": {
        "id": 108,
        "name": "Ciwandan",
        "lat": -6.0346025,
        "lng": 105.9641124
      },
      "city": {
        "id": 18,
        "name": "Cilegon",
        "lat": -6.0421999,
        "lng": 106.0351629
      },
      "province": {
        "id": 3,
        "name": "Banten",
        "lat": -6.4058172,
        "lng": 106.0640179
      },
      "country": {
        "id": 228,
        "name": "INDONESIA",
        "code": "ID"
      },
      "id": 1130,
      "name": "Tegalratu",
      "postcode": "42445",
      "lat": -6.0213839,
      "lng": 105.9788011
    },
    {
      "suburb": {
        "id": 109,
        "name": "Citangkil",
        "lat": -6.0127526,
        "lng": 106.0111203
      },
      "city": {
        "id": 18,
        "name": "Cilegon",
        "lat": -6.0421999,
        "lng": 106.0351629
      },
      "province": {
        "id": 3,
        "name": "Banten",
        "lat": -6.4058172,
        "lng": 106.0640179
      },
      "country": {
        "id": 228,
        "name": "INDONESIA",
        "code": "ID"
      },
      "id": 1131,
      "name": "Samangraya",
      "postcode": "42443",
      "lat": -6.0055271,
      "lng": 105.9964291
    },
    {
      "suburb": {
        "id": 109,
        "name": "Citangkil",
        "lat": -6.0127526,
        "lng": 106.0111203
      },
      "city": {
        "id": 18,
        "name": "Cilegon",
        "lat": -6.0421999,
        "lng": 106.0351629
      },
      "province": {
        "id": 3,
        "name": "Banten",
        "lat": -6.4058172,
        "lng": 106.0640179
      },
      "country": {
        "id": 228,
        "name": "INDONESIA",
        "code": "ID"
      },
      "id": 1132,
      "name": "Warnasari",
      "postcode": "42443",
      "lat": -6.0050009,
      "lng": 106.0140586
    },
    {
      "suburb": {
        "id": 109,
        "name": "Citangkil",
        "lat": -6.0127526,
        "lng": 106.0111203
      },
      "city": {
        "id": 18,
        "name": "Cilegon",
        "lat": -6.0421999,
        "lng": 106.0351629
      },
      "province": {
        "id": 3,
        "name": "Banten",
        "lat": -6.4058172,
        "lng": 106.0640179
      },
      "country": {
        "id": 228,
        "name": "INDONESIA",
        "code": "ID"
      },
      "id": 1133,
      "name": "Deringo",
      "postcode": "42444",
      "lat": -6.0358385,
      "lng": 106.0081819
    },
    {
      "suburb": {
        "id": 109,
        "name": "Citangkil",
        "lat": -6.0127526,
        "lng": 106.0111203
      },
      "city": {
        "id": 18,
        "name": "Cilegon",
        "lat": -6.0421999,
        "lng": 106.0351629
      },
      "province": {
        "id": 3,
        "name": "Banten",
        "lat": -6.4058172,
        "lng": 106.0640179
      },
      "country": {
        "id": 228,
        "name": "INDONESIA",
        "code": "ID"
      },
      "id": 1134,
      "name": "Lebakdenok",
      "postcode": "42442",
      "lat": -6.0354857,
      "lng": 106.0199355
    },
    {
      "suburb": {
        "id": 109,
        "name": "Citangkil",
        "lat": -6.0127526,
        "lng": 106.0111203
      },
      "city": {
        "id": 18,
        "name": "Cilegon",
        "lat": -6.0421999,
        "lng": 106.0351629
      },
      "province": {
        "id": 3,
        "name": "Banten",
        "lat": -6.4058172,
        "lng": 106.0640179
      },
      "country": {
        "id": 228,
        "name": "INDONESIA",
        "code": "ID"
      },
      "id": 1135,
      "name": "Tamanbaru",
      "postcode": "42441",
      "lat": -6.0249114,
      "lng": 106.0316898
    },
    {
      "suburb": {
        "id": 109,
        "name": "Citangkil",
        "lat": -6.0127526,
        "lng": 106.0111203
      },
      "city": {
        "id": 18,
        "name": "Cilegon",
        "lat": -6.0421999,
        "lng": 106.0351629
      },
      "province": {
        "id": 3,
        "name": "Banten",
        "lat": -6.4058172,
        "lng": 106.0640179
      },
      "country": {
        "id": 228,
        "name": "INDONESIA",
        "code": "ID"
      },
      "id": 1136,
      "name": "Kebonsari",
      "postcode": "42442",
      "lat": -6.0150437,
      "lng": 106.0199355
    },
    {
      "suburb": {
        "id": 108,
        "name": "Ciwandan",
        "lat": -6.0346025,
        "lng": 105.9641124
      },
      "city": {
        "id": 18,
        "name": "Cilegon",
        "lat": -6.0421999,
        "lng": 106.0351629
      },
      "province": {
        "id": 3,
        "name": "Banten",
        "lat": -6.4058172,
        "lng": 106.0640179
      },
      "country": {
        "id": 228,
        "name": "INDONESIA",
        "code": "ID"
      },
      "id": 1137,
      "name": "Banjar Negara",
      "postcode": "42441",
      "lat": -6.0361909,
      "lng": 105.9964291
    },
    {
      "suburb": {
        "id": 109,
        "name": "Citangkil",
        "lat": -6.0127526,
        "lng": 106.0111203
      },
      "city": {
        "id": 18,
        "name": "Cilegon",
        "lat": -6.0421999,
        "lng": 106.0351629
      },
      "province": {
        "id": 3,
        "name": "Banten",
        "lat": -6.4058172,
        "lng": 106.0640179
      },
      "country": {
        "id": 228,
        "name": "INDONESIA",
        "code": "ID"
      },
      "id": 1138,
      "name": "Citangkil",
      "postcode": "42441",
      "lat": -6.0145159,
      "lng": 106.0375673
    },
    {
      "suburb": {
        "id": 110,
        "name": "Pulomerak",
        "lat": -5.9205057,
        "lng": 106.022874
      },
      "city": {
        "id": 18,
        "name": "Cilegon",
        "lat": -6.0421999,
        "lng": 106.0351629
      },
      "province": {
        "id": 3,
        "name": "Banten",
        "lat": -6.4058172,
        "lng": 106.0640179
      },
      "country": {
        "id": 228,
        "name": "INDONESIA",
        "code": "ID"
      },
      "id": 1139,
      "name": "Suralaya",
      "postcode": "42439",
      "lat": -5.9023949,
      "lng": 106.0316898
    },
    {
      "suburb": {
        "id": 111,
        "name": "Gerogol",
        "lat": -5.9738317,
        "lng": 106.0316898
      },
      "city": {
        "id": 18,
        "name": "Cilegon",
        "lat": -6.0421999,
        "lng": 106.0351629
      },
      "province": {
        "id": 3,
        "name": "Banten",
        "lat": -6.4058172,
        "lng": 106.0640179
      },
      "country": {
        "id": 228,
        "name": "INDONESIA",
        "code": "ID"
      },
      "id": 1140,
      "name": "Gerem",
      "postcode": "42438",
      "lat": -5.9613303,
      "lng": 106.022874
    },
    {
      "suburb": {
        "id": 110,
        "name": "Pulomerak",
        "lat": -5.9205057,
        "lng": 106.022874
      },
      "city": {
        "id": 18,
        "name": "Cilegon",
        "lat": -6.0421999,
        "lng": 106.0351629
      },
      "province": {
        "id": 3,
        "name": "Banten",
        "lat": -6.4058172,
        "lng": 106.0640179
      },
      "country": {
        "id": 228,
        "name": "INDONESIA",
        "code": "ID"
      },
      "id": 1141,
      "name": "Mekarsari",
      "postcode": "42438",
      "lat": -5.9409144,
      "lng": 106.022874
    },
    {
      "suburb": {
        "id": 110,
        "name": "Pulomerak",
        "lat": -5.9205057,
        "lng": 106.022874
      },
      "city": {
        "id": 18,
        "name": "Cilegon",
        "lat": -6.0421999,
        "lng": 106.0351629
      },
      "province": {
        "id": 3,
        "name": "Banten",
        "lat": -6.4058172,
        "lng": 106.0640179
      },
      "country": {
        "id": 228,
        "name": "INDONESIA",
        "code": "ID"
      },
      "id": 1142,
      "name": "Tamansari",
      "postcode": "42438",
      "lat": -5.9285914,
      "lng": 106.0081819
    },
    {
      "suburb": {
        "id": 112,
        "name": "Purwakarta",
        "lat": -5.991266,
        "lng": 106.0463837
      },
      "city": {
        "id": 18,
        "name": "Cilegon",
        "lat": -6.0421999,
        "lng": 106.0351629
      },
      "province": {
        "id": 3,
        "name": "Banten",
        "lat": -6.4058172,
        "lng": 106.0640179
      },
      "country": {
        "id": 228,
        "name": "INDONESIA",
        "code": "ID"
      },
      "id": 1143,
      "name": "Purwakarta",
      "postcode": "42437",
      "lat": -5.9884494,
      "lng": 106.0552006
    },
    {
      "suburb": {
        "id": 112,
        "name": "Purwakarta",
        "lat": -5.991266,
        "lng": 106.0463837
      },
      "city": {
        "id": 18,
        "name": "Cilegon",
        "lat": -6.0421999,
        "lng": 106.0351629
      },
      "province": {
        "id": 3,
        "name": "Banten",
        "lat": -6.4058172,
        "lng": 106.0640179
      },
      "country": {
        "id": 228,
        "name": "INDONESIA",
        "code": "ID"
      },
      "id": 1144,
      "name": "Tegal Bunder",
      "postcode": "42437",
      "lat": -5.9782373,
      "lng": 106.0552006
    },
    {
      "suburb": {
        "id": 111,
        "name": "Gerogol",
        "lat": -5.9738317,
        "lng": 106.0316898
      },
      "city": {
        "id": 18,
        "name": "Cilegon",
        "lat": -6.0421999,
        "lng": 106.0351629
      },
      "province": {
        "id": 3,
        "name": "Banten",
        "lat": -6.4058172,
        "lng": 106.0640179
      },
      "country": {
        "id": 228,
        "name": "INDONESIA",
        "code": "ID"
      },
      "id": 1145,
      "name": "Rawa Arum",
      "postcode": "42436",
      "lat": -5.982103,
      "lng": 106.0111203
    },
    {
      "suburb": {
        "id": 112,
        "name": "Purwakarta",
        "lat": -5.991266,
        "lng": 106.0463837
      },
      "city": {
        "id": 18,
        "name": "Cilegon",
        "lat": -6.0421999,
        "lng": 106.0351629
      },
      "province": {
        "id": 3,
        "name": "Banten",
        "lat": -6.4058172,
        "lng": 106.0640179
      },
      "country": {
        "id": 228,
        "name": "INDONESIA",
        "code": "ID"
      },
      "id": 1146,
      "name": "Pabean",
      "postcode": "42437",
      "lat": -5.9682018,
      "lng": 106.0493226
    },
    {
      "suburb": {
        "id": 111,
        "name": "Gerogol",
        "lat": -5.9738317,
        "lng": 106.0316898
      },
      "city": {
        "id": 18,
        "name": "Cilegon",
        "lat": -6.0421999,
        "lng": 106.0351629
      },
      "province": {
        "id": 3,
        "name": "Banten",
        "lat": -6.4058172,
        "lng": 106.0640179
      },
      "country": {
        "id": 228,
        "name": "INDONESIA",
        "code": "ID"
      },
      "id": 1147,
      "name": "Kotasari",
      "postcode": "42436",
      "lat": -5.9946089,
      "lng": 106.0199355
    },
    {
      "suburb": {
        "id": 111,
        "name": "Gerogol",
        "lat": -5.9738317,
        "lng": 106.0316898
      },
      "city": {
        "id": 18,
        "name": "Cilegon",
        "lat": -6.0421999,
        "lng": 106.0351629
      },
      "province": {
        "id": 3,
        "name": "Banten",
        "lat": -6.4058172,
        "lng": 106.0640179
      },
      "country": {
        "id": 228,
        "name": "INDONESIA",
        "code": "ID"
      },
      "id": 1148,
      "name": "Gerogol/Grogol",
      "postcode": "42436",
      "lat": -5.9738317,
      "lng": 106.0316898
    },
    {
      "suburb": {
        "id": 112,
        "name": "Purwakarta",
        "lat": -5.991266,
        "lng": 106.0463837
      },
      "city": {
        "id": 18,
        "name": "Cilegon",
        "lat": -6.0421999,
        "lng": 106.0351629
      },
      "province": {
        "id": 3,
        "name": "Banten",
        "lat": -6.4058172,
        "lng": 106.0640179
      },
      "country": {
        "id": 228,
        "name": "INDONESIA",
        "code": "ID"
      },
      "id": 1149,
      "name": "Kotabumi",
      "postcode": "42434",
      "lat": -5.9889756,
      "lng": 106.0375673
    },
    {
      "suburb": {
        "id": 112,
        "name": "Purwakarta",
        "lat": -5.991266,
        "lng": 106.0463837
      },
      "city": {
        "id": 18,
        "name": "Cilegon",
        "lat": -6.0421999,
        "lng": 106.0351629
      },
      "province": {
        "id": 3,
        "name": "Banten",
        "lat": -6.4058172,
        "lng": 106.0640179
      },
      "country": {
        "id": 228,
        "name": "INDONESIA",
        "code": "ID"
      },
      "id": 1150,
      "name": "Ramanuju",
      "postcode": "42431",
      "lat": -6.0057074,
      "lng": 106.0331592
    },
    {
      "suburb": {
        "id": 112,
        "name": "Purwakarta",
        "lat": -5.991266,
        "lng": 106.0463837
      },
      "city": {
        "id": 18,
        "name": "Cilegon",
        "lat": -6.0421999,
        "lng": 106.0351629
      },
      "province": {
        "id": 3,
        "name": "Banten",
        "lat": -6.4058172,
        "lng": 106.0640179
      },
      "country": {
        "id": 228,
        "name": "INDONESIA",
        "code": "ID"
      },
      "id": 1151,
      "name": "Kebondalem",
      "postcode": "42433",
      "lat": -6.0001599,
      "lng": 106.0478532
    },
    {
      "suburb": {
        "id": 110,
        "name": "Pulomerak",
        "lat": -5.9205057,
        "lng": 106.022874
      },
      "city": {
        "id": 18,
        "name": "Cilegon",
        "lat": -6.0421999,
        "lng": 106.0351629
      },
      "province": {
        "id": 3,
        "name": "Banten",
        "lat": -6.4058172,
        "lng": 106.0640179
      },
      "country": {
        "id": 228,
        "name": "INDONESIA",
        "code": "ID"
      },
      "id": 1152,
      "name": "Lebak Gede",
      "postcode": "42431",
      "lat": -5.9180417,
      "lng": 106.0199355
    },
    {
      "suburb": {
        "id": 113,
        "name": "Cibeber",
        "lat": -6.035438,
        "lng": 106.0673841
      },
      "city": {
        "id": 18,
        "name": "Cilegon",
        "lat": -6.0421999,
        "lng": 106.0351629
      },
      "province": {
        "id": 3,
        "name": "Banten",
        "lat": -6.4058172,
        "lng": 106.0640179
      },
      "country": {
        "id": 228,
        "name": "INDONESIA",
        "code": "ID"
      },
      "id": 1153,
      "name": "Cikerai",
      "postcode": "42427",
      "lat": -6.0705659,
      "lng": 106.0434449
    },
    {
      "suburb": {
        "id": 113,
        "name": "Cibeber",
        "lat": -6.035438,
        "lng": 106.0673841
      },
      "city": {
        "id": 18,
        "name": "Cilegon",
        "lat": -6.0421999,
        "lng": 106.0351629
      },
      "province": {
        "id": 3,
        "name": "Banten",
        "lat": -6.4058172,
        "lng": 106.0640179
      },
      "country": {
        "id": 228,
        "name": "INDONESIA",
        "code": "ID"
      },
      "id": 1154,
      "name": "Karangasem",
      "postcode": "42425",
      "lat": -6.0397136,
      "lng": 106.0493226
    },
    {
      "suburb": {
        "id": 113,
        "name": "Cibeber",
        "lat": -6.035438,
        "lng": 106.0673841
      },
      "city": {
        "id": 18,
        "name": "Cilegon",
        "lat": -6.0421999,
        "lng": 106.0351629
      },
      "province": {
        "id": 3,
        "name": "Banten",
        "lat": -6.4058172,
        "lng": 106.0640179
      },
      "country": {
        "id": 228,
        "name": "INDONESIA",
        "code": "ID"
      },
      "id": 1155,
      "name": "Bulakan",
      "postcode": "42426",
      "lat": -6.0605164,
      "lng": 106.0375673
    },
    {
      "suburb": {
        "id": 113,
        "name": "Cibeber",
        "lat": -6.035438,
        "lng": 106.0673841
      },
      "city": {
        "id": 18,
        "name": "Cilegon",
        "lat": -6.0421999,
        "lng": 106.0351629
      },
      "province": {
        "id": 3,
        "name": "Banten",
        "lat": -6.4058172,
        "lng": 106.0640179
      },
      "country": {
        "id": 228,
        "name": "INDONESIA",
        "code": "ID"
      },
      "id": 1156,
      "name": "Cibeber",
      "postcode": "42423",
      "lat": -6.0354317,
      "lng": 106.0673878
    },
    {
      "suburb": {
        "id": 113,
        "name": "Cibeber",
        "lat": -6.035438,
        "lng": 106.0673841
      },
      "city": {
        "id": 18,
        "name": "Cilegon",
        "lat": -6.0421999,
        "lng": 106.0351629
      },
      "province": {
        "id": 3,
        "name": "Banten",
        "lat": -6.4058172,
        "lng": 106.0640179
      },
      "country": {
        "id": 228,
        "name": "INDONESIA",
        "code": "ID"
      },
      "id": 1157,
      "name": "Kalitimbang",
      "postcode": "42424",
      "lat": -6.0493057,
      "lng": 106.0521577
    },
    {
      "suburb": {
        "id": 114,
        "name": "Cilegon",
        "lat": -6.0025343,
        "lng": 106.0111203
      },
      "city": {
        "id": 18,
        "name": "Cilegon",
        "lat": -6.0421999,
        "lng": 106.0351629
      },
      "province": {
        "id": 3,
        "name": "Banten",
        "lat": -6.4058172,
        "lng": 106.0640179
      },
      "country": {
        "id": 228,
        "name": "INDONESIA",
        "code": "ID"
      },
      "id": 1158,
      "name": "Bagendung",
      "postcode": "42419",
      "lat": -6.0594597,
      "lng": 106.0302205
    },
    {
      "suburb": {
        "id": 113,
        "name": "Cibeber",
        "lat": -6.035438,
        "lng": 106.0673841
      },
      "city": {
        "id": 18,
        "name": "Cilegon",
        "lat": -6.0421999,
        "lng": 106.0351629
      },
      "province": {
        "id": 3,
        "name": "Banten",
        "lat": -6.4058172,
        "lng": 106.0640179
      },
      "country": {
        "id": 228,
        "name": "INDONESIA",
        "code": "ID"
      },
      "id": 1159,
      "name": "Kedaleman",
      "postcode": "42422",
      "lat": -6.0337179,
      "lng": 106.0787142
    },
    {
      "suburb": {
        "id": 114,
        "name": "Cilegon",
        "lat": -6.0025343,
        "lng": 106.0111203
      },
      "city": {
        "id": 18,
        "name": "Cilegon",
        "lat": -6.0421999,
        "lng": 106.0351629
      },
      "province": {
        "id": 3,
        "name": "Banten",
        "lat": -6.4058172,
        "lng": 106.0640179
      },
      "country": {
        "id": 228,
        "name": "INDONESIA",
        "code": "ID"
      },
      "id": 1160,
      "name": "Bendungan",
      "postcode": "42417",
      "lat": -6.0306373,
      "lng": 106.0537311
    },
    {
      "suburb": {
        "id": 114,
        "name": "Cilegon",
        "lat": -6.0025343,
        "lng": 106.0111203
      },
      "city": {
        "id": 18,
        "name": "Cilegon",
        "lat": -6.0421999,
        "lng": 106.0351629
      },
      "province": {
        "id": 3,
        "name": "Banten",
        "lat": -6.4058172,
        "lng": 106.0640179
      },
      "country": {
        "id": 228,
        "name": "INDONESIA",
        "code": "ID"
      },
      "id": 1161,
      "name": "Ciwedus",
      "postcode": "42418",
      "lat": -6.0361897,
      "lng": 106.0390366
    },
    {
      "suburb": {
        "id": 115,
        "name": "Jombang",
        "lat": -6.0109924,
        "lng": 106.0698963
      },
      "city": {
        "id": 18,
        "name": "Cilegon",
        "lat": -6.0421999,
        "lng": 106.0351629
      },
      "province": {
        "id": 3,
        "name": "Banten",
        "lat": -6.4058172,
        "lng": 106.0640179
      },