{
  "metadata": {
    "path": "/v3/location/areas?limit=1000&page=3",
    "http_status_code": 200,
    "http_status": "OK",
    "timestamp": 1647333904
  },
  "data": [
    {
      "suburb": {
        "id": 192,
        "name": "Jawilan",
        "lat": -6.2891735,
        "lng": 106.3404925
      },
      "city": {
        "id": 17,
        "name": "Serang, Kab.",
        "lat": -6.1397339,
        "lng": 106.040506
      },
      "province": {
        "id": 3,
        "name": "Banten",
        "lat": -6.4058172,
        "lng": 106.0640179
      },
      "country": {
        "id": 228,
        "name": "INDONESIA",
        "code": "ID"
      },
      "id": 2001,
      "name": "Cemplang",
      "postcode": "42177",
      "lat": -6.3199374,
      "lng": 106.3404925
    },
    {
      "suburb": {
        "id": 192,
        "name": "Jawilan",
        "lat": -6.2891735,
        "lng": 106.3404925
      },
      "city": {
        "id": 17,
        "name": "Serang, Kab.",
        "lat": -6.1397339,
        "lng": 106.040506
      },
      "province": {
        "id": 3,
        "name": "Banten",
        "lat": -6.4058172,
        "lng": 106.0640179
      },
      "country": {
        "id": 228,
        "name": "INDONESIA",
        "code": "ID"
      },
      "id": 2002,
      "name": "Bojot",
      "postcode": "42177",
      "lat": -6.307023,
      "lng": 106.3434358
    },
    {
      "suburb": {
        "id": 193,
        "name": "Pamarayan",
        "lat": -6.2849857,
        "lng": 106.3110622
      },
      "city": {
        "id": 17,
        "name": "Serang, Kab.",
        "lat": -6.1397339,
        "lng": 106.040506
      },
      "province": {
        "id": 3,
        "name": "Banten",
        "lat": -6.4058172,
        "lng": 106.0640179
      },
      "country": {
        "id": 228,
        "name": "INDONESIA",
        "code": "ID"
      },
      "id": 2003,
      "name": "Wirana",
      "postcode": "42176",
      "lat": -6.2984597,
      "lng": 106.2904635
    },
    {
      "suburb": {
        "id": 193,
        "name": "Pamarayan",
        "lat": -6.2849857,
        "lng": 106.3110622
      },
      "city": {
        "id": 17,
        "name": "Serang, Kab.",
        "lat": -6.1397339,
        "lng": 106.040506
      },
      "province": {
        "id": 3,
        "name": "Banten",
        "lat": -6.4058172,
        "lng": 106.0640179
      },
      "country": {
        "id": 228,
        "name": "INDONESIA",
        "code": "ID"
      },
      "id": 2004,
      "name": "Sangiang",
      "postcode": "42176",
      "lat": -6.2785119,
      "lng": 106.2728091
    },
    {
      "suburb": {
        "id": 193,
        "name": "Pamarayan",
        "lat": -6.2849857,
        "lng": 106.3110622
      },
      "city": {
        "id": 17,
        "name": "Serang, Kab.",
        "lat": -6.1397339,
        "lng": 106.040506
      },
      "province": {
        "id": 3,
        "name": "Banten",
        "lat": -6.4058172,
        "lng": 106.0640179
      },
      "country": {
        "id": 228,
        "name": "INDONESIA",
        "code": "ID"
      },
      "id": 2005,
      "name": "Pudar",
      "postcode": "42176",
      "lat": -6.2874551,
      "lng": 106.314005
    },
    {
      "suburb": {
        "id": 194,
        "name": "Bandung",
        "lat": -6.218566,
        "lng": 106.3051766
      },
      "city": {
        "id": 17,
        "name": "Serang, Kab.",
        "lat": -6.1397339,
        "lng": 106.040506
      },
      "province": {
        "id": 3,
        "name": "Banten",
        "lat": -6.4058172,
        "lng": 106.0640179
      },
      "country": {
        "id": 228,
        "name": "INDONESIA",
        "code": "ID"
      },
      "id": 2006,
      "name": "Pringwulung",
      "postcode": "42179",
      "lat": -6.1905008,
      "lng": 106.3022339
    },
    {
      "suburb": {
        "id": 193,
        "name": "Pamarayan",
        "lat": -6.2849857,
        "lng": 106.3110622
      },
      "city": {
        "id": 17,
        "name": "Serang, Kab.",
        "lat": -6.1397339,
        "lng": 106.040506
      },
      "province": {
        "id": 3,
        "name": "Banten",
        "lat": -6.4058172,
        "lng": 106.0640179
      },
      "country": {
        "id": 228,
        "name": "INDONESIA",
        "code": "ID"
      },
      "id": 2007,
      "name": "Pasirlimus",
      "postcode": "42176",
      "lat": -6.2690475,
      "lng": 106.3287199
    },
    {
      "suburb": {
        "id": 194,
        "name": "Bandung",
        "lat": -6.218566,
        "lng": 106.3051766
      },
      "city": {
        "id": 17,
        "name": "Serang, Kab.",
        "lat": -6.1397339,
        "lng": 106.040506
      },
      "province": {
        "id": 3,
        "name": "Banten",
        "lat": -6.4058172,
        "lng": 106.0640179
      },
      "country": {
        "id": 228,
        "name": "INDONESIA",
        "code": "ID"
      },
      "id": 2008,
      "name": "Pangawinan",
      "postcode": "42179",
      "lat": -6.2466437,
      "lng": 106.3081194
    },
    {
      "suburb": {
        "id": 193,
        "name": "Pamarayan",
        "lat": -6.2849857,
        "lng": 106.3110622
      },
      "city": {
        "id": 17,
        "name": "Serang, Kab.",
        "lat": -6.1397339,
        "lng": 106.040506
      },
      "province": {
        "id": 3,
        "name": "Banten",
        "lat": -6.4058172,
        "lng": 106.0640179
      },
      "country": {
        "id": 228,
        "name": "INDONESIA",
        "code": "ID"
      },
      "id": 2009,
      "name": "Pasir Kembang",
      "postcode": "42176",
      "lat": -6.3339223,
      "lng": 106.3633699
    },
    {
      "suburb": {
        "id": 194,
        "name": "Bandung",
        "lat": -6.218566,
        "lng": 106.3051766
      },
      "city": {
        "id": 17,
        "name": "Serang, Kab.",
        "lat": -6.1397339,
        "lng": 106.040506
      },
      "province": {
        "id": 3,
        "name": "Banten",
        "lat": -6.4058172,
        "lng": 106.0640179
      },
      "country": {
        "id": 228,
        "name": "INDONESIA",
        "code": "ID"
      },
      "id": 2010,
      "name": "Mander",
      "postcode": "42179",
      "lat": -6.2360264,
      "lng": 106.3198908
    },
    {
      "suburb": {
        "id": 194,
        "name": "Bandung",
        "lat": -6.218566,
        "lng": 106.3051766
      },
      "city": {
        "id": 17,
        "name": "Serang, Kab.",
        "lat": -6.1397339,
        "lng": 106.040506
      },
      "province": {
        "id": 3,
        "name": "Banten",
        "lat": -6.4058172,
        "lng": 106.0640179
      },
      "country": {
        "id": 228,
        "name": "INDONESIA",
        "code": "ID"
      },
      "id": 2011,
      "name": "Panamping",
      "postcode": "42179",
      "lat": -6.235654,
      "lng": 106.3316629
    },
    {
      "suburb": {
        "id": 193,
        "name": "Pamarayan",
        "lat": -6.2849857,
        "lng": 106.3110622
      },
      "city": {
        "id": 17,
        "name": "Serang, Kab.",
        "lat": -6.1397339,
        "lng": 106.040506
      },
      "province": {
        "id": 3,
        "name": "Banten",
        "lat": -6.4058172,
        "lng": 106.0640179
      },
      "country": {
        "id": 228,
        "name": "INDONESIA",
        "code": "ID"
      },
      "id": 2012,
      "name": "Pamarayan",
      "postcode": "42176",
      "lat": -6.2676999,
      "lng": 106.2904635
    },
    {
      "suburb": {
        "id": 194,
        "name": "Bandung",
        "lat": -6.218566,
        "lng": 106.3051766
      },
      "city": {
        "id": 17,
        "name": "Serang, Kab.",
        "lat": -6.1397339,
        "lng": 106.040506
      },
      "province": {
        "id": 3,
        "name": "Banten",
        "lat": -6.4058172,
        "lng": 106.0640179
      },
      "country": {
        "id": 228,
        "name": "INDONESIA",
        "code": "ID"
      },
      "id": 2013,
      "name": "Malabar",
      "postcode": "42179",
      "lat": -6.2215899,
      "lng": 106.2904635
    },
    {
      "suburb": {
        "id": 193,
        "name": "Pamarayan",
        "lat": -6.2849857,
        "lng": 106.3110622
      },
      "city": {
        "id": 17,
        "name": "Serang, Kab.",
        "lat": -6.1397339,
        "lng": 106.040506
      },
      "province": {
        "id": 3,
        "name": "Banten",
        "lat": -6.4058172,
        "lng": 106.0640179
      },
      "country": {
        "id": 228,
        "name": "INDONESIA",
        "code": "ID"
      },
      "id": 2014,
      "name": "Kebon Cau",
      "postcode": "42176",
      "lat": -6.3030245,
      "lng": 106.3081194
    },
    {
      "suburb": {
        "id": 193,
        "name": "Pamarayan",
        "lat": -6.2849857,
        "lng": 106.3110622
      },
      "city": {
        "id": 17,
        "name": "Serang, Kab.",
        "lat": -6.1397339,
        "lng": 106.040506
      },
      "province": {
        "id": 3,
        "name": "Banten",
        "lat": -6.4058172,
        "lng": 106.0640179
      },
      "country": {
        "id": 228,
        "name": "INDONESIA",
        "code": "ID"
      },
      "id": 2015,
      "name": "Damping",
      "postcode": "42176",
      "lat": -6.2830778,
      "lng": 106.2904635
    },
    {
      "suburb": {
        "id": 193,
        "name": "Pamarayan",
        "lat": -6.2849857,
        "lng": 106.3110622
      },
      "city": {
        "id": 17,
        "name": "Serang, Kab.",
        "lat": -6.1397339,
        "lng": 106.040506
      },
      "province": {
        "id": 3,
        "name": "Banten",
        "lat": -6.4058172,
        "lng": 106.0640179
      },
      "country": {
        "id": 228,
        "name": "INDONESIA",
        "code": "ID"
      },
      "id": 2016,
      "name": "Kampung Baru",
      "postcode": "42176",
      "lat": -6.2472022,
      "lng": 106.2904635
    },
    {
      "suburb": {
        "id": 194,
        "name": "Bandung",
        "lat": -6.218566,
        "lng": 106.3051766
      },
      "city": {
        "id": 17,
        "name": "Serang, Kab.",
        "lat": -6.1397339,
        "lng": 106.040506
      },
      "province": {
        "id": 3,
        "name": "Banten",
        "lat": -6.4058172,
        "lng": 106.0640179
      },
      "country": {
        "id": 228,
        "name": "INDONESIA",
        "code": "ID"
      },
      "id": 2017,
      "name": "Blokang",
      "postcode": "42179",
      "lat": -6.201108,
      "lng": 106.2904635
    },
    {
      "suburb": {
        "id": 193,
        "name": "Pamarayan",
        "lat": -6.2849857,
        "lng": 106.3110622
      },
      "city": {
        "id": 17,
        "name": "Serang, Kab.",
        "lat": -6.1397339,
        "lng": 106.040506
      },
      "province": {
        "id": 3,
        "name": "Banten",
        "lat": -6.4058172,
        "lng": 106.0640179
      },
      "country": {
        "id": 228,
        "name": "INDONESIA",
        "code": "ID"
      },
      "id": 2018,
      "name": "Binong",
      "postcode": "42176",
      "lat": -6.2697956,
      "lng": 106.3051766
    },
    {
      "suburb": {
        "id": 194,
        "name": "Bandung",
        "lat": -6.218566,
        "lng": 106.3051766
      },
      "city": {
        "id": 17,
        "name": "Serang, Kab.",
        "lat": -6.1397339,
        "lng": 106.040506
      },
      "province": {
        "id": 3,
        "name": "Banten",
        "lat": -6.4058172,
        "lng": 106.0640179
      },
      "country": {
        "id": 228,
        "name": "INDONESIA",
        "code": "ID"
      },
      "id": 2019,
      "name": "Bandung",
      "postcode": "42179",
      "lat": -6.2261548,
      "lng": 106.3081194
    },
    {
      "suburb": {
        "id": 194,
        "name": "Bandung",
        "lat": -6.218566,
        "lng": 106.3051766
      },
      "city": {
        "id": 17,
        "name": "Serang, Kab.",
        "lat": -6.1397339,
        "lng": 106.040506
      },
      "province": {
        "id": 3,
        "name": "Banten",
        "lat": -6.4058172,
        "lng": 106.0640179
      },
      "country": {
        "id": 228,
        "name": "INDONESIA",
        "code": "ID"
      },
      "id": 2020,
      "name": "Babakan",
      "postcode": "42179",
      "lat": -6.205673,
      "lng": 106.3081194
    },
    {
      "suburb": {
        "id": 195,
        "name": "Cikeusal",
        "lat": -6.1701003,
        "lng": 106.0522616
      },
      "city": {
        "id": 17,
        "name": "Serang, Kab.",
        "lat": -6.1397339,
        "lng": 106.040506
      },
      "province": {
        "id": 3,
        "name": "Banten",
        "lat": -6.4058172,
        "lng": 106.0640179
      },
      "country": {
        "id": 228,
        "name": "INDONESIA",
        "code": "ID"
      },
      "id": 2021,
      "name": "Sukaratu",
      "postcode": "42175",
      "lat": -6.2243968,
      "lng": 106.2419177
    },
    {
      "suburb": {
        "id": 195,
        "name": "Cikeusal",
        "lat": -6.1701003,
        "lng": 106.0522616
      },
      "city": {
        "id": 17,
        "name": "Serang, Kab.",
        "lat": -6.1397339,
        "lng": 106.040506
      },
      "province": {
        "id": 3,
        "name": "Banten",
        "lat": -6.4058172,
        "lng": 106.0640179
      },
      "country": {
        "id": 228,
        "name": "INDONESIA",
        "code": "ID"
      },
      "id": 2022,
      "name": "Sukaraja",
      "postcode": "42175",
      "lat": -6.1701003,
      "lng": 106.0522616
    },
    {
      "suburb": {
        "id": 195,
        "name": "Cikeusal",
        "lat": -6.1701003,
        "lng": 106.0522616
      },
      "city": {
        "id": 17,
        "name": "Serang, Kab.",
        "lat": -6.1397339,
        "lng": 106.040506
      },
      "province": {
        "id": 3,
        "name": "Banten",
        "lat": -6.4058172,
        "lng": 106.0640179
      },
      "country": {
        "id": 228,
        "name": "INDONESIA",
        "code": "ID"
      },
      "id": 2023,
      "name": "Sukarame",
      "postcode": "42175",
      "lat": -6.2031353,
      "lng": 106.2257384
    },
    {
      "suburb": {
        "id": 195,
        "name": "Cikeusal",
        "lat": -6.1701003,
        "lng": 106.0522616
      },
      "city": {
        "id": 17,
        "name": "Serang, Kab.",
        "lat": -6.1397339,
        "lng": 106.040506
      },
      "province": {
        "id": 3,
        "name": "Banten",
        "lat": -6.4058172,
        "lng": 106.0640179
      },
      "country": {
        "id": 228,
        "name": "INDONESIA",
        "code": "ID"
      },
      "id": 2024,
      "name": "Sukamaju",
      "postcode": "42175",
      "lat": -6.2124567,
      "lng": 106.2551563
    },
    {
      "suburb": {
        "id": 195,
        "name": "Cikeusal",
        "lat": -6.1701003,
        "lng": 106.0522616
      },
      "city": {
        "id": 17,
        "name": "Serang, Kab.",
        "lat": -6.1397339,
        "lng": 106.040506
      },
      "province": {
        "id": 3,
        "name": "Banten",
        "lat": -6.4058172,
        "lng": 106.0640179
      },
      "country": {
        "id": 228,
        "name": "INDONESIA",
        "code": "ID"
      },
      "id": 2025,
      "name": "Sukamenak",
      "postcode": "42175",
      "lat": -6.2186853,
      "lng": 106.2198553
    },
    {
      "suburb": {
        "id": 195,
        "name": "Cikeusal",
        "lat": -6.1701003,
        "lng": 106.0522616
      },
      "city": {
        "id": 17,
        "name": "Serang, Kab.",
        "lat": -6.1397339,
        "lng": 106.040506
      },
      "province": {
        "id": 3,
        "name": "Banten",
        "lat": -6.4058172,
        "lng": 106.0640179
      },
      "country": {
        "id": 228,
        "name": "INDONESIA",
        "code": "ID"
      },
      "id": 2026,
      "name": "Mongpok",
      "postcode": "42175",
      "lat": -6.1866715,
      "lng": 106.2610404
    },
    {
      "suburb": {
        "id": 195,
        "name": "Cikeusal",
        "lat": -6.1701003,
        "lng": 106.0522616
      },
      "city": {
        "id": 17,
        "name": "Serang, Kab.",
        "lat": -6.1397339,
        "lng": 106.040506
      },
      "province": {
        "id": 3,
        "name": "Banten",
        "lat": -6.4058172,
        "lng": 106.0640179
      },
      "country": {
        "id": 228,
        "name": "INDONESIA",
        "code": "ID"
      },
      "id": 2027,
      "name": "Panosogan",
      "postcode": "42175",
      "lat": -6.2117179,
      "lng": 106.2786937
    },
    {
      "suburb": {
        "id": 195,
        "name": "Cikeusal",
        "lat": -6.1701003,
        "lng": 106.0522616
      },
      "city": {
        "id": 17,
        "name": "Serang, Kab.",
        "lat": -6.1397339,
        "lng": 106.040506
      },
      "province": {
        "id": 3,
        "name": "Banten",
        "lat": -6.4058172,
        "lng": 106.0640179
      },
      "country": {
        "id": 228,
        "name": "INDONESIA",
        "code": "ID"
      },
      "id": 2028,
      "name": "Panyabrangan",
      "postcode": "42175",
      "lat": -6.2526982,
      "lng": 106.2786937
    },
    {
      "suburb": {
        "id": 195,
        "name": "Cikeusal",
        "lat": -6.1701003,
        "lng": 106.0522616
      },
      "city": {
        "id": 17,
        "name": "Serang, Kab.",
        "lat": -6.1397339,
        "lng": 106.040506
      },
      "province": {
        "id": 3,
        "name": "Banten",
        "lat": -6.4058172,
        "lng": 106.0640179
      },
      "country": {
        "id": 228,
        "name": "INDONESIA",
        "code": "ID"
      },
      "id": 2029,
      "name": "Harundang",
      "postcode": "42175",
      "lat": -6.2016617,
      "lng": 106.2728091
    },
    {
      "suburb": {
        "id": 195,
        "name": "Cikeusal",
        "lat": -6.1701003,
        "lng": 106.0522616
      },
      "city": {
        "id": 17,
        "name": "Serang, Kab.",
        "lat": -6.1397339,
        "lng": 106.040506
      },
      "province": {
        "id": 3,
        "name": "Banten",
        "lat": -6.4058172,
        "lng": 106.0640179
      },
      "country": {
        "id": 228,
        "name": "INDONESIA",
        "code": "ID"
      },
      "id": 2030,
      "name": "Katulisan",
      "postcode": "42175",
      "lat": -6.2332533,
      "lng": 106.2860497
    },
    {
      "suburb": {
        "id": 195,
        "name": "Cikeusal",
        "lat": -6.1701003,
        "lng": 106.0522616
      },
      "city": {
        "id": 17,
        "name": "Serang, Kab.",
        "lat": -6.1397339,
        "lng": 106.040506
      },
      "province": {
        "id": 3,
        "name": "Banten",
        "lat": -6.4058172,
        "lng": 106.0640179
      },
      "country": {
        "id": 228,
        "name": "INDONESIA",
        "code": "ID"
      },
      "id": 2031,
      "name": "Dahu",
      "postcode": "42175",
      "lat": -6.2430074,
      "lng": 106.2610404
    },
    {
      "suburb": {
        "id": 195,
        "name": "Cikeusal",
        "lat": -6.1701003,
        "lng": 106.0522616
      },
      "city": {
        "id": 17,
        "name": "Serang, Kab.",
        "lat": -6.1397339,
        "lng": 106.040506
      },
      "province": {
        "id": 3,
        "name": "Banten",
        "lat": -6.4058172,
        "lng": 106.0640179
      },
      "country": {
        "id": 228,
        "name": "INDONESIA",
        "code": "ID"
      },
      "id": 2032,
      "name": "Gandayasa",
      "postcode": "42175",
      "lat": -6.1861195,
      "lng": 106.2786937
    },
    {
      "suburb": {
        "id": 195,
        "name": "Cikeusal",
        "lat": -6.1701003,
        "lng": 106.0522616
      },
      "city": {
        "id": 17,
        "name": "Serang, Kab.",
        "lat": -6.1397339,
        "lng": 106.040506
      },
      "province": {
        "id": 3,
        "name": "Banten",
        "lat": -6.4058172,
        "lng": 106.0640179
      },
      "country": {
        "id": 228,
        "name": "INDONESIA",
        "code": "ID"
      },
      "id": 2033,
      "name": "Cilayang Guha",
      "postcode": "42175",
      "lat": -6.1958351,
      "lng": 106.2589154
    },
    {
      "suburb": {
        "id": 195,
        "name": "Cikeusal",
        "lat": -6.1701003,
        "lng": 106.0522616
      },
      "city": {
        "id": 17,
        "name": "Serang, Kab.",
        "lat": -6.1397339,
        "lng": 106.040506
      },
      "province": {
        "id": 3,
        "name": "Banten",
        "lat": -6.4058172,
        "lng": 106.0640179
      },
      "country": {
        "id": 228,
        "name": "INDONESIA",
        "code": "ID"
      },
      "id": 2034,
      "name": "Cimaung",
      "postcode": "42175",
      "lat": -6.2036867,
      "lng": 106.2080897
    },
    {
      "suburb": {
        "id": 195,
        "name": "Cikeusal",
        "lat": -6.1701003,
        "lng": 106.0522616
      },
      "city": {
        "id": 17,
        "name": "Serang, Kab.",
        "lat": -6.1397339,
        "lng": 106.040506
      },
      "province": {
        "id": 3,
        "name": "Banten",
        "lat": -6.4058172,
        "lng": 106.0640179
      },
      "country": {
        "id": 228,
        "name": "INDONESIA",
        "code": "ID"
      },
      "id": 2035,
      "name": "Cikeusal",
      "postcode": "42175",
      "lat": -6.2172087,
      "lng": 106.2669247
    },
    {
      "suburb": {
        "id": 195,
        "name": "Cikeusal",
        "lat": -6.1701003,
        "lng": 106.0522616
      },
      "city": {
        "id": 17,
        "name": "Serang, Kab.",
        "lat": -6.1397339,
        "lng": 106.040506
      },
      "province": {
        "id": 3,
        "name": "Banten",
        "lat": -6.4058172,
        "lng": 106.0640179
      },
      "country": {
        "id": 228,
        "name": "INDONESIA",
        "code": "ID"
      },
      "id": 2036,
      "name": "Cilayang",
      "postcode": "42175",
      "lat": -6.2023991,
      "lng": 106.2492724
    },
    {
      "suburb": {
        "id": 195,
        "name": "Cikeusal",
        "lat": -6.1701003,
        "lng": 106.0522616
      },
      "city": {
        "id": 17,
        "name": "Serang, Kab.",
        "lat": -6.1397339,
        "lng": 106.040506
      },
      "province": {
        "id": 3,
        "name": "Banten",
        "lat": -6.4058172,
        "lng": 106.0640179
      },
      "country": {
        "id": 228,
        "name": "INDONESIA",
        "code": "ID"
      },
      "id": 2037,
      "name": "Bantar Panjang",
      "postcode": "42175",
      "lat": -6.2323899,
      "lng": 106.2728091
    },
    {
      "suburb": {
        "id": 196,
        "name": "Tunjung Teja",
        "lat": -6.282288,
        "lng": 106.2345633
      },
      "city": {
        "id": 17,
        "name": "Serang, Kab.",
        "lat": -6.1397339,
        "lng": 106.040506
      },
      "province": {
        "id": 3,
        "name": "Banten",
        "lat": -6.4058172,
        "lng": 106.0640179
      },
      "country": {
        "id": 228,
        "name": "INDONESIA",
        "code": "ID"
      },
      "id": 2038,
      "name": "Sukasari",
      "postcode": "42174",
      "lat": -6.2856901,
      "lng": 106.2080897
    },
    {
      "suburb": {
        "id": 196,
        "name": "Tunjung Teja",
        "lat": -6.282288,
        "lng": 106.2345633
      },
      "city": {
        "id": 17,
        "name": "Serang, Kab.",
        "lat": -6.1397339,
        "lng": 106.040506
      },
      "province": {
        "id": 3,
        "name": "Banten",
        "lat": -6.4058172,
        "lng": 106.0640179
      },
      "country": {
        "id": 228,
        "name": "INDONESIA",
        "code": "ID"
      },
      "id": 2039,
      "name": "Tunjung Teja",
      "postcode": "42174",
      "lat": -6.2746898,
      "lng": 106.2316216
    },
    {
      "suburb": {
        "id": 196,
        "name": "Tunjung Teja",
        "lat": -6.282288,
        "lng": 106.2345633
      },
      "city": {
        "id": 17,
        "name": "Serang, Kab.",
        "lat": -6.1397339,
        "lng": 106.040506
      },
      "province": {
        "id": 3,
        "name": "Banten",
        "lat": -6.4058172,
        "lng": 106.0640179
      },
      "country": {
        "id": 228,
        "name": "INDONESIA",
        "code": "ID"
      },
      "id": 2040,
      "name": "Malanggah",
      "postcode": "42174",
      "lat": -6.2614085,
      "lng": 106.2463305
    },
    {
      "suburb": {
        "id": 196,
        "name": "Tunjung Teja",
        "lat": -6.282288,
        "lng": 106.2345633
      },
      "city": {
        "id": 17,
        "name": "Serang, Kab.",
        "lat": -6.1397339,
        "lng": 106.040506
      },
      "province": {
        "id": 3,
        "name": "Banten",
        "lat": -6.4058172,
        "lng": 106.0640179
      },
      "country": {
        "id": 228,
        "name": "INDONESIA",
        "code": "ID"
      },
      "id": 2041,
      "name": "Pancarecang",
      "postcode": "42174",
      "lat": -6.2837097,
      "lng": 106.2301508
    },
    {
      "suburb": {
        "id": 196,
        "name": "Tunjung Teja",
        "lat": -6.282288,
        "lng": 106.2345633
      },
      "city": {
        "id": 17,
        "name": "Serang, Kab.",
        "lat": -6.1397339,
        "lng": 106.040506
      },
      "province": {
        "id": 3,
        "name": "Banten",
        "lat": -6.4058172,
        "lng": 106.0640179
      },
      "country": {
        "id": 228,
        "name": "INDONESIA",
        "code": "ID"
      },
      "id": 2042,
      "name": "Panunggulan",
      "postcode": "42174",
      "lat": -6.2813048,
      "lng": 106.1845606
    },
    {
      "suburb": {
        "id": 196,
        "name": "Tunjung Teja",
        "lat": -6.282288,
        "lng": 106.2345633
      },
      "city": {
        "id": 17,
        "name": "Serang, Kab.",
        "lat": -6.1397339,
        "lng": 106.040506
      },
      "province": {
        "id": 3,
        "name": "Banten",
        "lat": -6.4058172,
        "lng": 106.0640179
      },
      "country": {
        "id": 228,
        "name": "INDONESIA",
        "code": "ID"
      },
      "id": 2043,
      "name": "Kamuning",
      "postcode": "42174",
      "lat": -6.2792582,
      "lng": 106.2492724
    },
    {
      "suburb": {
        "id": 196,
        "name": "Tunjung Teja",
        "lat": -6.282288,
        "lng": 106.2345633
      },
      "city": {
        "id": 17,
        "name": "Serang, Kab.",
        "lat": -6.1397339,
        "lng": 106.040506
      },
      "province": {
        "id": 3,
        "name": "Banten",
        "lat": -6.4058172,
        "lng": 106.0640179
      },
      "country": {
        "id": 228,
        "name": "INDONESIA",
        "code": "ID"
      },
      "id": 2044,
      "name": "Bojong Catang",
      "postcode": "42174",
      "lat": -6.2686322,
      "lng": 106.2610404
    },
    {
      "suburb": {
        "id": 196,
        "name": "Tunjung Teja",
        "lat": -6.282288,
        "lng": 106.2345633
      },
      "city": {
        "id": 17,
        "name": "Serang, Kab.",
        "lat": -6.1397339,
        "lng": 106.040506
      },
      "province": {
        "id": 3,
        "name": "Banten",
        "lat": -6.4058172,
        "lng": 106.0640179
      },
      "country": {
        "id": 228,
        "name": "INDONESIA",
        "code": "ID"
      },
      "id": 2045,
      "name": "Bojong Menteng",
      "postcode": "42174",
      "lat": -6.2929177,
      "lng": 106.2227968
    },
    {
      "suburb": {
        "id": 196,
        "name": "Tunjung Teja",
        "lat": -6.282288,
        "lng": 106.2345633
      },
      "city": {
        "id": 17,
        "name": "Serang, Kab.",
        "lat": -6.1397339,
        "lng": 106.040506
      },
      "province": {
        "id": 3,
        "name": "Banten",
        "lat": -6.4058172,
        "lng": 106.0640179
      },
      "country": {
        "id": 228,
        "name": "INDONESIA",
        "code": "ID"
      },
      "id": 2046,
      "name": "Bojong Pandan",
      "postcode": "42174",
      "lat": -6.2992093,
      "lng": 106.2669247
    },
    {
      "suburb": {
        "id": 197,
        "name": "Baros",
        "lat": -6.2294048,
        "lng": 106.1228099
      },
      "city": {
        "id": 17,
        "name": "Serang, Kab.",
        "lat": -6.1397339,
        "lng": 106.040506
      },
      "province": {
        "id": 3,
        "name": "Banten",
        "lat": -6.4058172,
        "lng": 106.0640179
      },
      "country": {
        "id": 228,
        "name": "INDONESIA",
        "code": "ID"
      },
      "id": 2047,
      "name": "Tamansari",
      "postcode": "42173",
      "lat": -6.2272999,
      "lng": 106.1081103
    },
    {
      "suburb": {
        "id": 197,
        "name": "Baros",
        "lat": -6.2294048,
        "lng": 106.1228099
      },
      "city": {
        "id": 17,
        "name": "Serang, Kab.",
        "lat": -6.1397339,
        "lng": 106.040506
      },
      "province": {
        "id": 3,
        "name": "Banten",
        "lat": -6.4058172,
        "lng": 106.0640179
      },
      "country": {
        "id": 228,
        "name": "INDONESIA",
        "code": "ID"
      },
      "id": 2048,
      "name": "Tejamari",
      "postcode": "42173",
      "lat": -6.2417612,
      "lng": 106.1375107
    },
    {
      "suburb": {
        "id": 197,
        "name": "Baros",
        "lat": -6.2294048,
        "lng": 106.1228099
      },
      "city": {
        "id": 17,
        "name": "Serang, Kab.",
        "lat": -6.1397339,
        "lng": 106.040506
      },
      "province": {
        "id": 3,
        "name": "Banten",
        "lat": -6.4058172,
        "lng": 106.0640179
      },
      "country": {
        "id": 228,
        "name": "INDONESIA",
        "code": "ID"
      },
      "id": 2049,
      "name": "Sukamenak",
      "postcode": "42173",
      "lat": -6.2465198,
      "lng": 106.1492721
    },
    {
      "suburb": {
        "id": 197,
        "name": "Baros",
        "lat": -6.2294048,
        "lng": 106.1228099
      },
      "city": {
        "id": 17,
        "name": "Serang, Kab.",
        "lat": -6.1397339,
        "lng": 106.040506
      },
      "province": {
        "id": 3,
        "name": "Banten",
        "lat": -6.4058172,
        "lng": 106.0640179
      },
      "country": {
        "id": 228,
        "name": "INDONESIA",
        "code": "ID"
      },
      "id": 2050,
      "name": "Sukacai",
      "postcode": "42173",
      "lat": -6.2424962,
      "lng": 106.11399
    },
    {
      "suburb": {
        "id": 197,
        "name": "Baros",
        "lat": -6.2294048,
        "lng": 106.1228099
      },
      "city": {
        "id": 17,
        "name": "Serang, Kab.",
        "lat": -6.1397339,
        "lng": 106.040506
      },
      "province": {
        "id": 3,
        "name": "Banten",
        "lat": -6.4058172,
        "lng": 106.0640179
      },
      "country": {
        "id": 228,
        "name": "INDONESIA",
        "code": "ID"
      },
      "id": 2051,
      "name": "Sukamanah",
      "postcode": "42173",
      "lat": -6.2254231,
      "lng": 106.1272201
    },
    {
      "suburb": {
        "id": 197,
        "name": "Baros",
        "lat": -6.2294048,
        "lng": 106.1228099
      },
      "city": {
        "id": 17,
        "name": "Serang, Kab.",
        "lat": -6.1397339,
        "lng": 106.040506
      },
      "province": {
        "id": 3,
        "name": "Banten",
        "lat": -6.4058172,
        "lng": 106.0640179
      },
      "country": {
        "id": 228,
        "name": "INDONESIA",
        "code": "ID"
      },
      "id": 2052,
      "name": "Suka Indah",
      "postcode": "42173",
      "lat": -6.2460201,
      "lng": 106.12428
    },
    {
      "suburb": {
        "id": 197,
        "name": "Baros",
        "lat": -6.2294048,
        "lng": 106.1228099
      },
      "city": {
        "id": 17,
        "name": "Serang, Kab.",
        "lat": -6.1397339,
        "lng": 106.040506
      },
      "province": {
        "id": 3,
        "name": "Banten",
        "lat": -6.4058172,
        "lng": 106.0640179
      },
      "country": {
        "id": 228,
        "name": "INDONESIA",
        "code": "ID"
      },
      "id": 2053,
      "name": "Sindangmandi",
      "postcode": "42173",
      "lat": -6.2227226,
      "lng": 106.0904721
    },
    {
      "suburb": {
        "id": 197,
        "name": "Baros",
        "lat": -6.2294048,
        "lng": 106.1228099
      },
      "city": {
        "id": 17,
        "name": "Serang, Kab.",
        "lat": -6.1397339,
        "lng": 106.040506
      },
      "province": {
        "id": 3,
        "name": "Banten",
        "lat": -6.4058172,
        "lng": 106.0640179
      },
      "country": {
        "id": 228,
        "name": "INDONESIA",
        "code": "ID"
      },
      "id": 2054,
      "name": "Sidamukti",
      "postcode": "42173",
      "lat": -6.2145323,
      "lng": 106.1478019
    },
    {
      "suburb": {
        "id": 197,
        "name": "Baros",
        "lat": -6.2294048,
        "lng": 106.1228099
      },
      "city": {
        "id": 17,
        "name": "Serang, Kab.",
        "lat": -6.1397339,
        "lng": 106.040506
      },
      "province": {
        "id": 3,
        "name": "Banten",
        "lat": -6.4058172,
        "lng": 106.0640179
      },
      "country": {
        "id": 228,
        "name": "INDONESIA",
        "code": "ID"
      },
      "id": 2055,
      "name": "Sinarmukti",
      "postcode": "42173",
      "lat": -6.2311416,
      "lng": 106.1492721
    },
    {
      "suburb": {
        "id": 197,
        "name": "Baros",
        "lat": -6.2294048,
        "lng": 106.1228099
      },
      "city": {
        "id": 17,
        "name": "Serang, Kab.",
        "lat": -6.1397339,
        "lng": 106.040506
      },
      "province": {
        "id": 3,
        "name": "Banten",
        "lat": -6.4058172,
        "lng": 106.0640179
      },
      "country": {
        "id": 228,
        "name": "INDONESIA",
        "code": "ID"
      },
      "id": 2056,
      "name": "Curug Agung",
      "postcode": "42173",
      "lat": -6.2170488,
      "lng": 106.1081103
    },
    {
      "suburb": {
        "id": 197,
        "name": "Baros",
        "lat": -6.2294048,
        "lng": 106.1228099
      },
      "city": {
        "id": 17,
        "name": "Serang, Kab.",
        "lat": -6.1397339,
        "lng": 106.040506
      },
      "province": {
        "id": 3,
        "name": "Banten",
        "lat": -6.4058172,
        "lng": 106.0640179
      },
      "country": {
        "id": 228,
        "name": "INDONESIA",
        "code": "ID"
      },
      "id": 2057,
      "name": "Padasuka",
      "postcode": "42173",
      "lat": -6.2250564,
      "lng": 106.1389809
    },
    {
      "suburb": {
        "id": 197,
        "name": "Baros",
        "lat": -6.2294048,
        "lng": 106.1228099
      },
      "city": {
        "id": 17,
        "name": "Serang, Kab.",
        "lat": -6.1397339,
        "lng": 106.040506
      },
      "province": {
        "id": 3,
        "name": "Banten",
        "lat": -6.4058172,
        "lng": 106.0640179
      },
      "country": {
        "id": 228,
        "name": "INDONESIA",
        "code": "ID"
      },
      "id": 2058,
      "name": "Panyirapan",
      "postcode": "42173",
      "lat": -6.2357665,
      "lng": 106.12428
    },
    {
      "suburb": {
        "id": 197,
        "name": "Baros",
        "lat": -6.2294048,
        "lng": 106.1228099
      },
      "city": {
        "id": 17,
        "name": "Serang, Kab.",
        "lat": -6.1397339,
        "lng": 106.040506
      },
      "province": {
        "id": 3,
        "name": "Banten",
        "lat": -6.4058172,
        "lng": 106.0640179
      },
      "country": {
        "id": 228,
        "name": "INDONESIA",
        "code": "ID"
      },
      "id": 2059,
      "name": "Cisalam",
      "postcode": "42173",
      "lat": -6.2067995,
      "lng": 106.1081103
    },
    {
      "suburb": {
        "id": 197,
        "name": "Baros",
        "lat": -6.2294048,
        "lng": 106.1228099
      },
      "city": {
        "id": 17,
        "name": "Serang, Kab.",
        "lat": -6.1397339,
        "lng": 106.040506
      },
      "province": {
        "id": 3,
        "name": "Banten",
        "lat": -6.4058172,
        "lng": 106.0640179
      },
      "country": {
        "id": 228,
        "name": "INDONESIA",
        "code": "ID"
      },
      "id": 2060,
      "name": "Baros",
      "postcode": "42173",
      "lat": -6.2111927,
      "lng": 106.1316303
    },
    {
      "suburb": {
        "id": 198,
        "name": "Petir",
        "lat": -6.2476992,
        "lng": 106.1933837
      },
      "city": {
        "id": 17,
        "name": "Serang, Kab.",
        "lat": -6.1397339,
        "lng": 106.040506
      },
      "province": {
        "id": 3,
        "name": "Banten",
        "lat": -6.4058172,
        "lng": 106.0640179
      },
      "country": {
        "id": 228,
        "name": "INDONESIA",
        "code": "ID"
      },
      "id": 2061,
      "name": "Seuat Jaya",
      "postcode": "42172",
      "lat": -6.2461512,
      "lng": 106.1610343
    },
    {
      "suburb": {
        "id": 198,
        "name": "Petir",
        "lat": -6.2476992,
        "lng": 106.1933837
      },
      "city": {
        "id": 17,
        "name": "Serang, Kab.",
        "lat": -6.1397339,
        "lng": 106.040506
      },
      "province": {
        "id": 3,
        "name": "Banten",
        "lat": -6.4058172,
        "lng": 106.0640179
      },
      "country": {
        "id": 228,
        "name": "INDONESIA",
        "code": "ID"
      },
      "id": 2062,
      "name": "Sindangsari",
      "postcode": "42172",
      "lat": -6.2499848,
      "lng": 106.2022072
    },
    {
      "suburb": {
        "id": 198,
        "name": "Petir",
        "lat": -6.2476992,
        "lng": 106.1933837
      },
      "city": {
        "id": 17,
        "name": "Serang, Kab.",
        "lat": -6.1397339,
        "lng": 106.040506
      },
      "province": {
        "id": 3,
        "name": "Banten",
        "lat": -6.4058172,
        "lng": 106.0640179
      },
      "country": {
        "id": 228,
        "name": "INDONESIA",
        "code": "ID"
      },
      "id": 2063,
      "name": "Tambiluk",
      "postcode": "42172",
      "lat": -6.2412794,
      "lng": 106.2345633
    },
    {
      "suburb": {
        "id": 198,
        "name": "Petir",
        "lat": -6.2476992,
        "lng": 106.1933837
      },
      "city": {
        "id": 17,
        "name": "Serang, Kab.",
        "lat": -6.1397339,
        "lng": 106.040506
      },
      "province": {
        "id": 3,
        "name": "Banten",
        "lat": -6.4058172,
        "lng": 106.0640179
      },
      "country": {
        "id": 228,
        "name": "INDONESIA",
        "code": "ID"
      },
      "id": 2064,
      "name": "Padasuka",
      "postcode": "42172",
      "lat": -6.2556659,
      "lng": 106.1845606
    },
    {
      "suburb": {
        "id": 198,
        "name": "Petir",
        "lat": -6.2476992,
        "lng": 106.1933837
      },
      "city": {
        "id": 17,
        "name": "Serang, Kab.",
        "lat": -6.1397339,
        "lng": 106.040506
      },
      "province": {
        "id": 3,
        "name": "Banten",
        "lat": -6.4058172,
        "lng": 106.0640179
      },
      "country": {
        "id": 228,
        "name": "INDONESIA",
        "code": "ID"
      },
      "id": 2065,
      "name": "Petir",
      "postcode": "42172",
      "lat": -6.2243613,
      "lng": 106.2022072
    },
    {
      "suburb": {
        "id": 198,
        "name": "Petir",
        "lat": -6.2476992,
        "lng": 106.1933837
      },
      "city": {
        "id": 17,
        "name": "Serang, Kab.",
        "lat": -6.1397339,
        "lng": 106.040506
      },
      "province": {
        "id": 3,
        "name": "Banten",
        "lat": -6.4058172,
        "lng": 106.0640179
      },
      "country": {
        "id": 228,
        "name": "INDONESIA",
        "code": "ID"
      },
      "id": 2066,
      "name": "Sanding",
      "postcode": "42172",
      "lat": -6.2399187,
      "lng": 106.1963248
    },
    {
      "suburb": {
        "id": 198,
        "name": "Petir",
        "lat": -6.2476992,
        "lng": 106.1933837
      },
      "city": {
        "id": 17,
        "name": "Serang, Kab.",
        "lat": -6.1397339,
        "lng": 106.040506
      },
      "province": {
        "id": 3,
        "name": "Banten",
        "lat": -6.4058172,
        "lng": 106.0640179
      },
      "country": {
        "id": 228,
        "name": "INDONESIA",
        "code": "ID"
      },
      "id": 2067,
      "name": "Seuat",
      "postcode": "42172",
      "lat": -6.2358993,
      "lng": 106.1610343
    },
    {
      "suburb": {
        "id": 198,
        "name": "Petir",
        "lat": -6.2476992,
        "lng": 106.1933837
      },
      "city": {
        "id": 17,
        "name": "Serang, Kab.",
        "lat": -6.1397339,
        "lng": 106.040506
      },
      "province": {
        "id": 3,
        "name": "Banten",
        "lat": -6.4058172,
        "lng": 106.0640179
      },
      "country": {
        "id": 228,
        "name": "INDONESIA",
        "code": "ID"
      },
      "id": 2068,
      "name": "Nagara Padang",
      "postcode": "42172",
      "lat": -6.2250976,
      "lng": 106.1786787
    },
    {
      "suburb": {
        "id": 198,
        "name": "Petir",
        "lat": -6.2476992,
        "lng": 106.1933837
      },
      "city": {
        "id": 17,
        "name": "Serang, Kab.",
        "lat": -6.1397339,
        "lng": 106.040506
      },
      "province": {
        "id": 3,
        "name": "Banten",
        "lat": -6.4058172,
        "lng": 106.0640179
      },
      "country": {
        "id": 228,
        "name": "INDONESIA",
        "code": "ID"
      },
      "id": 2069,
      "name": "Mekarbaru",
      "postcode": "42172",
      "lat": -6.2291162,
      "lng": 106.2139724
    },
    {
      "suburb": {
        "id": 198,
        "name": "Petir",
        "lat": -6.2476992,
        "lng": 106.1933837
      },
      "city": {
        "id": 17,
        "name": "Serang, Kab.",
        "lat": -6.1397339,
        "lng": 106.040506
      },
      "province": {
        "id": 3,
        "name": "Banten",
        "lat": -6.4058172,
        "lng": 106.0640179
      },
      "country": {
        "id": 228,
        "name": "INDONESIA",
        "code": "ID"
      },
      "id": 2070,
      "name": "Kampung Baru",
      "postcode": "42172",
      "lat": -6.2256491,
      "lng": 106.1610343
    },
    {
      "suburb": {
        "id": 198,
        "name": "Petir",
        "lat": -6.2476992,
        "lng": 106.1933837
      },
      "city": {
        "id": 17,
        "name": "Serang, Kab.",
        "lat": -6.1397339,
        "lng": 106.040506
      },
      "province": {
        "id": 3,
        "name": "Banten",
        "lat": -6.4058172,
        "lng": 106.0640179
      },
      "country": {
        "id": 228,
        "name": "INDONESIA",
        "code": "ID"
      },
      "id": 2071,
      "name": "Kubang Jaya",
      "postcode": "42172",
      "lat": -6.2476992,
      "lng": 106.1933837
    },
    {
      "suburb": {
        "id": 198,
        "name": "Petir",
        "lat": -6.2476992,
        "lng": 106.1933837
      },
      "city": {
        "id": 17,
        "name": "Serang, Kab.",
        "lat": -6.1397339,
        "lng": 106.040506
      },
      "province": {
        "id": 3,
        "name": "Banten",
        "lat": -6.4058172,
        "lng": 106.0640179
      },
      "country": {
        "id": 228,
        "name": "INDONESIA",
        "code": "ID"
      },
      "id": 2072,
      "name": "Cirangkong",
      "postcode": "42172",
      "lat": -6.2331309,
      "lng": 106.2492724
    },
    {
      "suburb": {
        "id": 198,
        "name": "Petir",
        "lat": -6.2476992,
        "lng": 106.1933837
      },
      "city": {
        "id": 17,
        "name": "Serang, Kab.",
        "lat": -6.1397339,
        "lng": 106.040506
      },
      "province": {
        "id": 3,
        "name": "Banten",
        "lat": -6.4058172,
        "lng": 106.0640179
      },
      "country": {
        "id": 228,
        "name": "INDONESIA",
        "code": "ID"
      },
      "id": 2073,
      "name": "Cireundeu",
      "postcode": "42172",
      "lat": -6.2543697,
      "lng": 106.2257384
    },
    {
      "suburb": {
        "id": 198,
        "name": "Petir",
        "lat": -6.2476992,
        "lng": 106.1933837
      },
      "city": {
        "id": 17,
        "name": "Serang, Kab.",
        "lat": -6.1397339,
        "lng": 106.040506
      },
      "province": {
        "id": 3,
        "name": "Banten",
        "lat": -6.4058172,
        "lng": 106.0640179
      },
      "country": {
        "id": 228,
        "name": "INDONESIA",
        "code": "ID"
      },
      "id": 2074,
      "name": "Kadugenep",
      "postcode": "42172",
      "lat": -6.2628933,
      "lng": 106.199266
    },
    {
      "suburb": {
        "id": 199,
        "name": "Curug",
        "lat": -6.1869527,
        "lng": 106.1698563
      },
      "city": {
        "id": 477,
        "name": "Serang, Kota",
        "lat": -6.1397339,
        "lng": 106.040506
      },
      "province": {
        "id": 3,
        "name": "Banten",
        "lat": -6.4058172,
        "lng": 106.0640179
      },
      "country": {
        "id": 228,
        "name": "INDONESIA",
        "code": "ID"
      },
      "id": 2075,
      "name": "Sukawana",
      "postcode": "42132",
      "lat": -6.1844835,
      "lng": 106.1669156
    },
    {
      "suburb": {
        "id": 199,
        "name": "Curug",
        "lat": -6.1869527,
        "lng": 106.1698563
      },
      "city": {
        "id": 477,
        "name": "Serang, Kota",
        "lat": -6.1397339,
        "lng": 106.040506
      },
      "province": {
        "id": 3,
        "name": "Banten",
        "lat": -6.4058172,
        "lng": 106.0640179
      },
      "country": {
        "id": 228,
        "name": "INDONESIA",
        "code": "ID"
      },
      "id": 2076,
      "name": "Tinggar",
      "postcode": "42133",
      "lat": -6.204421,
      "lng": 106.1845606
    },
    {
      "suburb": {
        "id": 198,
        "name": "Petir",
        "lat": -6.2476992,
        "lng": 106.1933837
      },
      "city": {
        "id": 17,
        "name": "Serang, Kab.",
        "lat": -6.1397339,
        "lng": 106.040506
      },
      "province": {
        "id": 3,
        "name": "Banten",
        "lat": -6.4058172,
        "lng": 106.0640179
      },
      "country": {
        "id": 228,
        "name": "INDONESIA",
        "code": "ID"
      },
      "id": 2077,
      "name": "Bojong Nangka",
      "postcode": "42172",
      "lat": -6.2476992,
      "lng": 106.1933837
    },
    {
      "suburb": {
        "id": 199,
        "name": "Curug",
        "lat": -6.1869527,
        "lng": 106.1698563
      },
      "city": {
        "id": 477,
        "name": "Serang, Kota",
        "lat": -6.1397339,
        "lng": 106.040506
      },
      "province": {
        "id": 3,
        "name": "Banten",
        "lat": -6.4058172,
        "lng": 106.0640179
      },
      "country": {
        "id": 228,
        "name": "INDONESIA",
        "code": "ID"
      },
      "id": 2078,
      "name": "Pancalaksana",
      "postcode": "42133",
      "lat": -6.2051541,
      "lng": 106.1610343
    },
    {
      "suburb": {
        "id": 199,
        "name": "Curug",
        "lat": -6.1869527,
        "lng": 106.1698563
      },
      "city": {
        "id": 477,
        "name": "Serang, Kota",
        "lat": -6.1397339,
        "lng": 106.040506
      },
      "province": {
        "id": 3,
        "name": "Banten",
        "lat": -6.4058172,
        "lng": 106.0640179
      },
      "country": {
        "id": 228,
        "name": "INDONESIA",
        "code": "ID"
      },
      "id": 2079,
      "name": "Sukajaya",
      "postcode": "42132",
      "lat": -6.1693047,
      "lng": 106.1610343
    },
    {
      "suburb": {
        "id": 199,
        "name": "Curug",
        "lat": -6.1869527,
        "lng": 106.1698563
      },
      "city": {
        "id": 477,
        "name": "Serang, Kota",
        "lat": -6.1397339,
        "lng": 106.040506
      },
      "province": {
        "id": 3,
        "name": "Banten",
        "lat": -6.4058172,
        "lng": 106.0640179
      },
      "country": {
        "id": 228,
        "name": "INDONESIA",
        "code": "ID"
      },
      "id": 2080,
      "name": "Sukalaksana",
      "postcode": "42134",
      "lat": -6.1890561,
      "lng": 106.1845606
    },
    {
      "suburb": {
        "id": 199,
        "name": "Curug",
        "lat": -6.1869527,
        "lng": 106.1698563
      },
      "city": {
        "id": 477,
        "name": "Serang, Kota",
        "lat": -6.1397339,
        "lng": 106.040506
      },
      "province": {
        "id": 3,
        "name": "Banten",
        "lat": -6.4058172,
        "lng": 106.0640179
      },
      "country": {
        "id": 228,
        "name": "INDONESIA",
        "code": "ID"
      },
      "id": 2081,
      "name": "Curug",
      "postcode": "42131",
      "lat": -6.1736952,
      "lng": 106.1845606
    },
    {
      "suburb": {
        "id": 199,
        "name": "Curug",
        "lat": -6.1869527,
        "lng": 106.1698563
      },
      "city": {
        "id": 477,
        "name": "Serang, Kota",
        "lat": -6.1397339,
        "lng": 106.040506
      },
      "province": {
        "id": 3,
        "name": "Banten",
        "lat": -6.4058172,
        "lng": 106.0640179
      },
      "country": {
        "id": 228,
        "name": "INDONESIA",
        "code": "ID"
      },
      "id": 2082,
      "name": "Curugmanis",
      "postcode": "42134",
      "lat": -6.1784495,
      "lng": 106.1963248
    },
    {
      "suburb": {
        "id": 199,
        "name": "Curug",
        "lat": -6.1869527,
        "lng": 106.1698563
      },
      "city": {
        "id": 477,
        "name": "Serang, Kota",
        "lat": -6.1397339,
        "lng": 106.040506
      },
      "province": {
        "id": 3,
        "name": "Banten",
        "lat": -6.4058172,
        "lng": 106.0640179
      },
      "country": {
        "id": 228,
        "name": "INDONESIA",
        "code": "ID"
      },
      "id": 2083,
      "name": "Kamanisan",
      "postcode": "42133",
      "lat": -6.1901527,
      "lng": 106.1492721
    },
    {
      "suburb": {
        "id": 199,
        "name": "Curug",
        "lat": -6.1869527,
        "lng": 106.1698563
      },
      "city": {
        "id": 477,
        "name": "Serang, Kota",
        "lat": -6.1397339,
        "lng": 106.040506
      },
      "province": {
        "id": 3,
        "name": "Banten",
        "lat": -6.4058172,
        "lng": 106.0640179
      },
      "country": {
        "id": 228,
        "name": "INDONESIA",
        "code": "ID"
      },
      "id": 2084,
      "name": "Cipete",
      "postcode": "42134",
      "lat": -6.1885068,
      "lng": 106.2022072
    },
    {
      "suburb": {
        "id": 199,
        "name": "Curug",
        "lat": -6.1869527,
        "lng": 106.1698563
      },
      "city": {
        "id": 477,
        "name": "Serang, Kota",
        "lat": -6.1397339,
        "lng": 106.040506
      },
      "province": {
        "id": 3,
        "name": "Banten",
        "lat": -6.4058172,
        "lng": 106.0640179
      },
      "country": {
        "id": 228,
        "name": "INDONESIA",
        "code": "ID"
      },
      "id": 2085,
      "name": "Cilaku",
      "postcode": "42131",
      "lat": -6.1535839,
      "lng": 106.1727971
    },
    {
      "suburb": {
        "id": 200,
        "name": "Padarincang",
        "lat": -6.2139945,
        "lng": 105.9582372
      },
      "city": {
        "id": 17,
        "name": "Serang, Kab.",
        "lat": -6.1397339,
        "lng": 106.040506
      },
      "province": {
        "id": 3,
        "name": "Banten",
        "lat": -6.4058172,
        "lng": 106.0640179
      },
      "country": {
        "id": 228,
        "name": "INDONESIA",
        "code": "ID"
      },
      "id": 2086,
      "name": "Kramatlaban",
      "postcode": "42168",
      "lat": -6.2072947,
      "lng": 105.9259271
    },
    {
      "suburb": {
        "id": 200,
        "name": "Padarincang",
        "lat": -6.2139945,
        "lng": 105.9582372
      },
      "city": {
        "id": 17,
        "name": "Serang, Kab.",
        "lat": -6.1397339,
        "lng": 106.040506
      },
      "province": {
        "id": 3,
        "name": "Banten",
        "lat": -6.4058172,
        "lng": 106.0640179
      },
      "country": {
        "id": 228,
        "name": "INDONESIA",
        "code": "ID"
      },
      "id": 2087,
      "name": "Padarincang",
      "postcode": "42168",
      "lat": -6.2219587,
      "lng": 105.9494248
    },
    {
      "suburb": {
        "id": 200,
        "name": "Padarincang",
        "lat": -6.2139945,
        "lng": 105.9582372
      },
      "city": {
        "id": 17,
        "name": "Serang, Kab.",
        "lat": -6.1397339,
        "lng": 106.040506
      },
      "province": {
        "id": 3,
        "name": "Banten",
        "lat": -6.4058172,
        "lng": 106.0640179
      },
      "country": {
        "id": 228,
        "name": "INDONESIA",
        "code": "ID"
      },
      "id": 2088,
      "name": "Kadu Kempong",
      "postcode": "42168",
      "lat": -6.2369851,
      "lng": 105.9611748
    },
    {
      "suburb": {
        "id": 200,
        "name": "Padarincang",
        "lat": -6.2139945,
        "lng": 105.9582372
      },
      "city": {
        "id": 17,
        "name": "Serang, Kab.",
        "lat": -6.1397339,
        "lng": 106.040506
      },
      "province": {
        "id": 3,
        "name": "Banten",
        "lat": -6.4058172,
        "lng": 106.0640179
      },
      "country": {
        "id": 228,
        "name": "INDONESIA",
        "code": "ID"
      },
      "id": 2089,
      "name": "Kadubeureum",
      "postcode": "42168",
      "lat": -6.2378916,
      "lng": 105.9318012
    },
    {
      "suburb": {
        "id": 200,
        "name": "Padarincang",
        "lat": -6.2139945,
        "lng": 105.9582372
      },
      "city": {
        "id": 17,
        "name": "Serang, Kab.",
        "lat": -6.1397339,
        "lng": 106.040506
      },
      "province": {
        "id": 3,
        "name": "Banten",
        "lat": -6.4058172,
        "lng": 106.0640179
      },
      "country": {
        "id": 228,
        "name": "INDONESIA",
        "code": "ID"
      },
      "id": 2090,
      "name": "Kalumpang",
      "postcode": "42168",
      "lat": -6.188539,
      "lng": 105.9523622
    },
    {
      "suburb": {
        "id": 200,
        "name": "Padarincang",
        "lat": -6.2139945,
        "lng": 105.9582372
      },
      "city": {
        "id": 17,
        "name": "Serang, Kab.",
        "lat": -6.1397339,
        "lng": 106.040506
      },
      "province": {
        "id": 3,
        "name": "Banten",
        "lat": -6.4058172,
        "lng": 106.0640179
      },
      "country": {
        "id": 228,
        "name": "INDONESIA",
        "code": "ID"
      },
      "id": 2091,
      "name": "Citasuk",
      "postcode": "42168",
      "lat": -6.2060317,
      "lng": 105.9670501
    },
    {
      "suburb": {
        "id": 200,
        "name": "Padarincang",
        "lat": -6.2139945,
        "lng": 105.9582372
      },
      "city": {
        "id": 17,
        "name": "Serang, Kab.",
        "lat": -6.1397339,
        "lng": 106.040506
      },
      "province": {
        "id": 3,
        "name": "Banten",
        "lat": -6.4058172,
        "lng": 106.0640179
      },
      "country": {
        "id": 228,
        "name": "INDONESIA",
        "code": "ID"
      },
      "id": 2092,
      "name": "Curug Goong",
      "postcode": "42168",
      "lat": -6.2152002,
      "lng": 106.0023054
    },
    {
      "suburb": {
        "id": 200,
        "name": "Padarincang",
        "lat": -6.2139945,
        "lng": 105.9582372
      },
      "city": {
        "id": 17,
        "name": "Serang, Kab.",
        "lat": -6.1397339,
        "lng": 106.040506
      },
      "province": {
        "id": 3,
        "name": "Banten",
        "lat": -6.4058172,
        "lng": 106.0640179
      },
      "country": {
        "id": 228,
        "name": "INDONESIA",
        "code": "ID"
      },
      "id": 2093,
      "name": "Cipayung",
      "postcode": "42168",
      "lat": -6.1945136,
      "lng": 106.0081819
    },
    {
      "suburb": {
        "id": 200,
        "name": "Padarincang",
        "lat": -6.2139945,
        "lng": 105.9582372
      },
      "city": {
        "id": 17,
        "name": "Serang, Kab.",
        "lat": -6.1397339,
        "lng": 106.040506
      },
      "province": {
        "id": 3,
        "name": "Banten",
        "lat": -6.4058172,
        "lng": 106.0640179
      },
      "country": {
        "id": 228,
        "name": "INDONESIA",
        "code": "ID"
      },
      "id": 2094,
      "name": "Cisaat",
      "postcode": "42168",
      "lat": -6.2148373,
      "lng": 106.0140586
    },
    {
      "suburb": {
        "id": 200,
        "name": "Padarincang",
        "lat": -6.2139945,
        "lng": 105.9582372
      },
      "city": {
        "id": 17,
        "name": "Serang, Kab.",
        "lat": -6.1397339,
        "lng": 106.040506
      },
      "province": {
        "id": 3,
        "name": "Banten",
        "lat": -6.4058172,
        "lng": 106.0640179
      },
      "country": {
        "id": 228,
        "name": "INDONESIA",
        "code": "ID"
      },
      "id": 2095,
      "name": "Bugel",
      "postcode": "42168",
      "lat": -6.211882,
      "lng": 105.9435501
    },
    {
      "suburb": {
        "id": 200,
        "name": "Padarincang",
        "lat": -6.2139945,
        "lng": 105.9582372
      },
      "city": {
        "id": 17,
        "name": "Serang, Kab.",
        "lat": -6.1397339,
        "lng": 106.040506
      },
      "province": {
        "id": 3,
        "name": "Banten",
        "lat": -6.4058172,
        "lng": 106.0640179
      },
      "country": {
        "id": 228,
        "name": "INDONESIA",
        "code": "ID"
      },
      "id": 2096,
      "name": "Cibojong",
      "postcode": "42168",
      "lat": -6.2433851,
      "lng": 105.9200531
    },
    {
      "suburb": {
        "id": 200,
        "name": "Padarincang",
        "lat": -6.2139945,
        "lng": 105.9582372
      },
      "city": {
        "id": 17,
        "name": "Serang, Kab.",
        "lat": -6.1397339,
        "lng": 106.040506
      },
      "province": {
        "id": 3,
        "name": "Banten",
        "lat": -6.4058172,
        "lng": 106.0640179
      },
      "country": {
        "id": 228,
        "name": "INDONESIA",
        "code": "ID"
      },
      "id": 2097,
      "name": "Barugbug",
      "postcode": "42168",
      "lat": -6.1666006,
      "lng": 105.9993672
    },
    {
      "suburb": {
        "id": 200,
        "name": "Padarincang",
        "lat": -6.2139945,
        "lng": 105.9582372
      },
      "city": {
        "id": 17,
        "name": "Serang, Kab.",
        "lat": -6.1397339,
        "lng": 106.040506
      },
      "province": {
        "id": 3,
        "name": "Banten",
        "lat": -6.4058172,
        "lng": 106.0640179
      },
      "country": {
        "id": 228,
        "name": "INDONESIA",
        "code": "ID"
      },
      "id": 2098,
      "name": "Batukuwung",
      "postcode": "42168",
      "lat": -6.2003628,
      "lng": 105.9846769
    },
    {
      "suburb": {
        "id": 201,
        "name": "Cinangka",
        "lat": -6.1751332,
        "lng": 105.8877494
      },
      "city": {
        "id": 17,
        "name": "Serang, Kab.",
        "lat": -6.1397339,
        "lng": 106.040506
      },
      "province": {
        "id": 3,
        "name": "Banten",
        "lat": -6.4058172,
        "lng": 106.0640179
      },
      "country": {
        "id": 228,
        "name": "INDONESIA",
        "code": "ID"
      },
      "id": 2099,
      "name": "Umbul Tanjung",
      "postcode": "42167",
      "lat": -6.2324516,
      "lng": 105.8583873
    },
    {
      "suburb": {
        "id": 201,
        "name": "Cinangka",
        "lat": -6.1751332,
        "lng": 105.8877494
      },
      "city": {
        "id": 17,
        "name": "Serang, Kab.",
        "lat": -6.1397339,
        "lng": 106.040506
      },
      "province": {
        "id": 3,
        "name": "Banten",
        "lat": -6.4058172,
        "lng": 106.0640179
      },
      "country": {
        "id": 228,
        "name": "INDONESIA",
        "code": "ID"
      },
      "id": 2100,
      "name": "Rancasanggal",
      "postcode": "42167",
      "lat": -6.1896176,
      "lng": 105.9171161
    },
    {
      "suburb": {
        "id": 201,
        "name": "Cinangka",
        "lat": -6.1751332,
        "lng": 105.8877494
      },
      "city": {
        "id": 17,
        "name": "Serang, Kab.",
        "lat": -6.1397339,
        "lng": 106.040506
      },
      "province": {
        "id": 3,
        "name": "Banten",
        "lat": -6.4058172,
        "lng": 106.0640179
      },
      "country": {
        "id": 228,
        "name": "INDONESIA",
        "code": "ID"
      },
      "id": 2101,
      "name": "Sindanglaya",
      "postcode": "42167",
      "lat": -6.1320181,
      "lng": 105.8730678
    },
    {
      "suburb": {
        "id": 201,
        "name": "Cinangka",
        "lat": -6.1751332,
        "lng": 105.8877494
      },
      "city": {
        "id": 17,
        "name": "Serang, Kab.",
        "lat": -6.1397339,
        "lng": 106.040506
      },
      "province": {
        "id": 3,
        "name": "Banten",
        "lat": -6.4058172,
        "lng": 106.0640179
      },
      "country": {
        "id": 228,
        "name": "INDONESIA",
        "code": "ID"
      },
      "id": 2102,
      "name": "Mekarsari",
      "postcode": "42167",
      "lat": -6.1358972,
      "lng": 105.9141793
    },
    {
      "suburb": {
        "id": 201,
        "name": "Cinangka",
        "lat": -6.1751332,
        "lng": 105.8877494
      },
      "city": {
        "id": 17,
        "name": "Serang, Kab.",
        "lat": -6.1397339,
        "lng": 106.040506
      },
      "province": {
        "id": 3,
        "name": "Banten",
        "lat": -6.4058172,
        "lng": 106.0640179
      },
      "country": {
        "id": 228,
        "name": "INDONESIA",
        "code": "ID"
      },
      "id": 2103,
      "name": "Pasauran",
      "postcode": "42167",
      "lat": -6.2200719,
      "lng": 105.843708
    },
    {
      "suburb": {
        "id": 201,
        "name": "Cinangka",
        "lat": -6.1751332,
        "lng": 105.8877494
      },
      "city": {
        "id": 17,
        "name": "Serang, Kab.",
        "lat": -6.1397339,
        "lng": 106.040506
      },
      "province": {
        "id": 3,
        "name": "Banten",
        "lat": -6.4058172,
        "lng": 106.0640179
      },
      "country": {
        "id": 228,
        "name": "INDONESIA",
        "code": "ID"
      },
      "id": 2104,
      "name": "Karang Suraga",
      "postcode": "42167",
      "lat": -6.1682468,
      "lng": 105.8613233
    },
    {
      "suburb": {
        "id": 201,
        "name": "Cinangka",
        "lat": -6.1751332,
        "lng": 105.8877494
      },
      "city": {
        "id": 17,
        "name": "Serang, Kab.",
        "lat": -6.1397339,
        "lng": 106.040506
      },
      "province": {
        "id": 3,
        "name": "Banten",
        "lat": -6.4058172,
        "lng": 106.0640179
      },
      "country": {
        "id": 228,
        "name": "INDONESIA",
        "code": "ID"
      },
      "id": 2105,
      "name": "Kubang Baros",
      "postcode": "42167",
      "lat": -6.1673547,
      "lng": 105.8906859
    },
    {
      "suburb": {
        "id": 201,
        "name": "Cinangka",
        "lat": -6.1751332,
        "lng": 105.8877494
      },
      "city": {
        "id": 17,
        "name": "Serang, Kab.",
        "lat": -6.1397339,
        "lng": 106.040506
      },
      "province": {
        "id": 3,
        "name": "Banten",
        "lat": -6.4058172,
        "lng": 106.0640179
      },
      "country": {
        "id": 228,
        "name": "INDONESIA",
        "code": "ID"
      },
      "id": 2106,
      "name": "Cikolelet",
      "postcode": "42167",
      "lat": -6.1588634,
      "lng": 105.9171161
    },
    {
      "suburb": {
        "id": 201,
        "name": "Cinangka",
        "lat": -6.1751332,
        "lng": 105.8877494
      },
      "city": {
        "id": 17,
        "name": "Serang, Kab.",
        "lat": -6.1397339,
        "lng": 106.040506
      },
      "province": {
        "id": 3,
        "name": "Banten",
        "lat": -6.4058172,
        "lng": 106.0640179
      },
      "country": {
        "id": 228,
        "name": "INDONESIA",
        "code": "ID"
      },
      "id": 2107,
      "name": "Cinangka",
      "postcode": "42167",
      "lat": -6.1627643,
      "lng": 105.8730678
    },
    {
      "suburb": {
        "id": 201,
        "name": "Cinangka",
        "lat": -6.1751332,
        "lng": 105.8877494
      },
      "city": {
        "id": 17,
        "name": "Serang, Kab.",
        "lat": -6.1397339,
        "lng": 106.040506
      },
      "province": {
        "id": 3,
        "name": "Banten",
        "lat": -6.4058172,
        "lng": 106.0640179
      },
      "country": {
        "id": 228,
        "name": "INDONESIA",
        "code": "ID"
      },
      "id": 2108,
      "name": "Kamasan",
      "postcode": "42167",
      "lat": -6.1212414,
      "lng": 105.8906859
    },
    {
      "suburb": {
        "id": 201,
        "name": "Cinangka",
        "lat": -6.1751332,
        "lng": 105.8877494
      },
      "city": {
        "id": 17,
        "name": "Serang, Kab.",
        "lat": -6.1397339,
        "lng": 106.040506
      },
      "province": {
        "id": 3,
        "name": "Banten",
        "lat": -6.4058172,
        "lng": 106.0640179
      },
      "country": {
        "id": 228,
        "name": "INDONESIA",
        "code": "ID"
      },
      "id": 2109,
      "name": "Baros Jaya",
      "postcode": "42167",
      "lat": -6.1751332,
      "lng": 105.8877494
    },
    {
      "suburb": {
        "id": 201,
        "name": "Cinangka",
        "lat": -6.1751332,
        "lng": 105.8877494
      },
      "city": {
        "id": 17,
        "name": "Serang, Kab.",
        "lat": -6.1397339,
        "lng": 106.040506
      },
      "province": {
        "id": 3,
        "name": "Banten",
        "lat": -6.4058172,
        "lng": 106.0640179
      },
      "country": {
        "id": 228,
        "name": "INDONESIA",
        "code": "ID"
      },
      "id": 2110,
      "name": "Bulakan",
      "postcode": "42167",
      "lat": -6.2020256,
      "lng": 105.8466437
    },
    {
      "suburb": {
        "id": 201,
        "name": "Cinangka",
        "lat": -6.1751332,
        "lng": 105.8877494
      },
      "city": {
        "id": 17,
        "name": "Serang, Kab.",
        "lat": -6.1397339,
        "lng": 106.040506
      },
      "province": {
        "id": 3,
        "name": "Banten",
        "lat": -6.4058172,
        "lng": 106.0640179
      },
      "country": {
        "id": 228,
        "name": "INDONESIA",
        "code": "ID"
      },
      "id": 2111,
      "name": "Bantarwangi",
      "postcode": "42167",
      "lat": -6.2115681,
      "lng": 105.8701316
    },
    {
      "suburb": {
        "id": 201,
        "name": "Cinangka",
        "lat": -6.1751332,
        "lng": 105.8877494
      },
      "city": {
        "id": 17,
        "name": "Serang, Kab.",
        "lat": -6.1397339,
        "lng": 106.040506
      },
      "province": {
        "id": 3,
        "name": "Banten",
        "lat": -6.4058172,
        "lng": 106.0640179
      },
      "country": {
        "id": 228,
        "name": "INDONESIA",
        "code": "ID"
      },
      "id": 2112,
      "name": "Bantarwaru",
      "postcode": "42167",
      "lat": -6.1910517,
      "lng": 105.8701316
    },
    {
      "suburb": {
        "id": 202,
        "name": "Anyar",
        "lat": -6.0924606,
        "lng": 105.9112424
      },
      "city": {
        "id": 17,
        "name": "Serang, Kab.",
        "lat": -6.1397339,
        "lng": 106.040506
      },
      "province": {
        "id": 3,
        "name": "Banten",
        "lat": -6.4058172,
        "lng": 106.0640179
      },
      "country": {
        "id": 228,
        "name": "INDONESIA",
        "code": "ID"
      },
      "id": 2113,
      "name": "Tanjungmanis",
      "postcode": "42166",
      "lat": -6.0795769,
      "lng": 105.9141793
    },
    {
      "suburb": {
        "id": 202,
        "name": "Anyar",
        "lat": -6.0924606,
        "lng": 105.9112424
      },
      "city": {
        "id": 17,
        "name": "Serang, Kab.",
        "lat": -6.1397339,
        "lng": 106.040506
      },
      "province": {
        "id": 3,
        "name": "Banten",
        "lat": -6.4058172,
        "lng": 106.0640179
      },
      "country": {
        "id": 228,
        "name": "INDONESIA",
        "code": "ID"
      },
      "id": 2114,
      "name": "Sindangmandi",
      "postcode": "42166",
      "lat": -6.1171719,
      "lng": 105.9406128
    },
    {
      "suburb": {
        "id": 202,
        "name": "Anyar",
        "lat": -6.0924606,
        "lng": 105.9112424
      },
      "city": {
        "id": 17,
        "name": "Serang, Kab.",
        "lat": -6.1397339,
        "lng": 106.040506
      },
      "province": {
        "id": 3,
        "name": "Banten",
        "lat": -6.4058172,
        "lng": 106.0640179
      },
      "country": {
        "id": 228,
        "name": "INDONESIA",
        "code": "ID"
      },
      "id": 2115,
      "name": "Tambang Ayam",
      "postcode": "42166",
      "lat": -6.0924606,
      "lng": 105.9112424
    },
    {
      "suburb": {
        "id": 202,
        "name": "Anyar",
        "lat": -6.0924606,
        "lng": 105.9112424
      },
      "city": {
        "id": 17,
        "name": "Serang, Kab.",
        "lat": -6.1397339,
        "lng": 106.040506
      },
      "province": {
        "id": 3,
        "name": "Banten",
        "lat": -6.4058172,
        "lng": 106.0640179
      },
      "country": {
        "id": 228,
        "name": "INDONESIA",
        "code": "ID"
      },
      "id": 2116,
      "name": "Mekarsari",
      "postcode": "42166",
      "lat": -6.0629032,
      "lng": 105.9156477
    },
    {
      "suburb": {
        "id": 202,
        "name": "Anyar",
        "lat": -6.0924606,
        "lng": 105.9112424
      },
      "city": {
        "id": 17,
        "name": "Serang, Kab.",
        "lat": -6.1397339,
        "lng": 106.040506
      },
      "province": {
        "id": 3,
        "name": "Banten",
        "lat": -6.4058172,
        "lng": 106.0640179
      },
      "country": {
        "id": 228,
        "name": "INDONESIA",
        "code": "ID"
      },
      "id": 2117,
      "name": "Sindangkarya",
      "postcode": "42166",
      "lat": -6.0974027,
      "lng": 105.9171161
    },
    {
      "suburb": {
        "id": 202,
        "name": "Anyar",
        "lat": -6.0924606,
        "lng": 105.9112424
      },
      "city": {
        "id": 17,
        "name": "Serang, Kab.",
        "lat": -6.1397339,
        "lng": 106.040506
      },
      "province": {
        "id": 3,
        "name": "Banten",
        "lat": -6.4058172,
        "lng": 106.0640179
      },
      "country": {
        "id": 228,
        "name": "INDONESIA",
        "code": "ID"
      },
      "id": 2118,
      "name": "Grogol Indah",
      "postcode": "42166",
      "lat": -6.0924606,
      "lng": 105.9112424
    },
    {
      "suburb": {
        "id": 202,
        "name": "Anyar",
        "lat": -6.0924606,
        "lng": 105.9112424
      },
      "city": {
        "id": 17,
        "name": "Serang, Kab.",
        "lat": -6.1397339,
        "lng": 106.040506
      },
      "province": {
        "id": 3,
        "name": "Banten",
        "lat": -6.4058172,
        "lng": 106.0640179
      },
      "country": {
        "id": 228,
        "name": "INDONESIA",
        "code": "ID"
      },
      "id": 2119,
      "name": "Kosambi Ronyok",
      "postcode": "42166",
      "lat": -6.0582304,
      "lng": 105.9435501
    },
    {
      "suburb": {
        "id": 202,
        "name": "Anyar",
        "lat": -6.0924606,
        "lng": 105.9112424
      },
      "city": {
        "id": 17,
        "name": "Serang, Kab.",
        "lat": -6.1397339,
        "lng": 106.040506
      },
      "province": {
        "id": 3,
        "name": "Banten",
        "lat": -6.4058172,
        "lng": 106.0640179
      },
      "country": {
        "id": 228,
        "name": "INDONESIA",
        "code": "ID"
      },
      "id": 2120,
      "name": "Bunihara",
      "postcode": "42166",
      "lat": -6.0790475,
      "lng": 105.9318012
    },
    {
      "suburb": {
        "id": 202,
        "name": "Anyar",
        "lat": -6.0924606,
        "lng": 105.9112424
      },
      "city": {
        "id": 17,
        "name": "Serang, Kab.",
        "lat": -6.1397339,
        "lng": 106.040506
      },
      "province": {
        "id": 3,
        "name": "Banten",
        "lat": -6.4058172,
        "lng": 106.0640179
      },
      "country": {
        "id": 228,
        "name": "INDONESIA",
        "code": "ID"
      },
      "id": 2121,
      "name": "Cikoneng",
      "postcode": "42166",
      "lat": -6.0776348,
      "lng": 105.8936224
    },
    {
      "suburb": {
        "id": 202,
        "name": "Anyar",
        "lat": -6.0924606,
        "lng": 105.9112424
      },
      "city": {
        "id": 17,
        "name": "Serang, Kab.",
        "lat": -6.1397339,
        "lng": 106.040506
      },
      "province": {
        "id": 3,
        "name": "Banten",
        "lat": -6.4058172,
        "lng": 106.0640179
      },
      "country": {
        "id": 228,
        "name": "INDONESIA",
        "code": "ID"
      },
      "id": 2122,
      "name": "Bandulu",
      "postcode": "42166",
      "lat": -6.10835,
      "lng": 105.8936224
    },
    {
      "suburb": {
        "id": 202,
        "name": "Anyar",
        "lat": -6.0924606,
        "lng": 105.9112424
      },
      "city": {
        "id": 17,
        "name": "Serang, Kab.",
        "lat": -6.1397339,
        "lng": 106.040506
      },
      "province": {
        "id": 3,
        "name": "Banten",
        "lat": -6.4058172,
        "lng": 106.0640179
      },
      "country": {
        "id": 228,
        "name": "INDONESIA",
        "code": "ID"
      },
      "id": 2123,
      "name": "Banjarsari",
      "postcode": "42166",
      "lat": -6.0887517,
      "lng": 105.9494248
    },
    {
      "suburb": {
        "id": 203,
        "name": "Mancak",
        "lat": -6.1108068,
        "lng": 105.981739
      },
      "city": {
        "id": 17,
        "name": "Serang, Kab.",
        "lat": -6.1397339,
        "lng": 106.040506
      },
      "province": {
        "id": 3,
        "name": "Banten",
        "lat": -6.4058172,
        "lng": 106.0640179
      },
      "country": {
        "id": 228,
        "name": "INDONESIA",
        "code": "ID"
      },
      "id": 2124,
      "name": "Winong",
      "postcode": "42165",
      "lat": -6.0622867,
      "lng": 105.9788011
    },
    {
      "suburb": {
        "id": 202,
        "name": "Anyar",
        "lat": -6.0924606,
        "lng": 105.9112424
      },
      "city": {
        "id": 17,
        "name": "Serang, Kab.",
        "lat": -6.1397339,
        "lng": 106.040506
      },
      "province": {
        "id": 3,
        "name": "Banten",
        "lat": -6.4058172,
        "lng": 106.0640179
      },
      "country": {
        "id": 228,
        "name": "INDONESIA",
        "code": "ID"
      },
      "id": 2125,
      "name": "Anyar",
      "postcode": "42166",
      "lat": -6.0524083,
      "lng": 105.9244585
    },
    {
      "suburb": {
        "id": 203,
        "name": "Mancak",
        "lat": -6.1108068,
        "lng": 105.981739
      },
      "city": {
        "id": 17,
        "name": "Serang, Kab.",
        "lat": -6.1397339,
        "lng": 106.040506
      },
      "province": {
        "id": 3,
        "name": "Banten",
        "lat": -6.4058172,
        "lng": 106.0640179
      },
      "country": {
        "id": 228,
        "name": "INDONESIA",
        "code": "ID"
      },
      "id": 2126,
      "name": "Sigedong",
      "postcode": "42165",
      "lat": -6.0714537,
      "lng": 106.0140586
    },
    {
      "suburb": {
        "id": 203,
        "name": "Mancak",
        "lat": -6.1108068,
        "lng": 105.981739
      },
      "city": {
        "id": 17,
        "name": "Serang, Kab.",
        "lat": -6.1397339,
        "lng": 106.040506
      },
      "province": {
        "id": 3,
        "name": "Banten",
        "lat": -6.4058172,
        "lng": 106.0640179
      },
      "country": {
        "id": 228,
        "name": "INDONESIA",
        "code": "ID"
      },
      "id": 2127,
      "name": "Talaga",
      "postcode": "42165",
      "lat": -6.0938505,
      "lng": 106.0346285
    },
    {
      "suburb": {
        "id": 203,
        "name": "Mancak",
        "lat": -6.1108068,
        "lng": 105.981739
      },
      "city": {
        "id": 17,
        "name": "Serang, Kab.",
        "lat": -6.1397339,
        "lng": 106.040506
      },
      "province": {
        "id": 3,
        "name": "Banten",
        "lat": -6.4058172,
        "lng": 106.0640179
      },
      "country": {
        "id": 228,
        "name": "INDONESIA",
        "code": "ID"
      },
      "id": 2128,
      "name": "Waringin",
      "postcode": "42165",
      "lat": -6.0779868,
      "lng": 105.9670501
    },
    {
      "suburb": {
        "id": 203,
        "name": "Mancak",
        "lat": -6.1108068,
        "lng": 105.981739
      },
      "city": {
        "id": 17,
        "name": "Serang, Kab.",
        "lat": -6.1397339,
        "lng": 106.040506
      },
      "province": {
        "id": 3,
        "name": "Banten",
        "lat": -6.4058172,
        "lng": 106.0640179
      },
      "country": {
        "id": 228,
        "name": "INDONESIA",
        "code": "ID"
      },
      "id": 2129,
      "name": "Sangiang",
      "postcode": "42165",
      "lat": -6.1083364,
      "lng": 105.9788011
    },
    {
      "suburb": {
        "id": 203,
        "name": "Mancak",
        "lat": -6.1108068,
        "lng": 105.981739
      },
      "city": {
        "id": 17,
        "name": "Serang, Kab.",
        "lat": -6.1397339,
        "lng": 106.040506
      },
      "province": {
        "id": 3,
        "name": "Banten",
        "lat": -6.4058172,
        "lng": 106.0640179
      },
      "country": {
        "id": 228,
        "name": "INDONESIA",
        "code": "ID"
      },
      "id": 2130,
      "name": "Pasirwaru",
      "postcode": "42165",
      "lat": -6.1037513,
      "lng": 105.9611748
    },
    {
      "suburb": {
        "id": 203,
        "name": "Mancak",
        "lat": -6.1108068,
        "lng": 105.981739
      },
      "city": {
        "id": 17,
        "name": "Serang, Kab.",
        "lat": -6.1397339,
        "lng": 106.040506
      },
      "province": {
        "id": 3,
        "name": "Banten",
        "lat": -6.4058172,
        "lng": 106.0640179
      },
      "country": {
        "id": 228,
        "name": "INDONESIA",
        "code": "ID"
      },
      "id": 2131,
      "name": "Labuhan",
      "postcode": "42165",
      "lat": -6.0924495,
      "lng": 105.9964291
    },
    {
      "suburb": {
        "id": 203,
        "name": "Mancak",
        "lat": -6.1108068,
        "lng": 105.981739
      },
      "city": {
        "id": 17,
        "name": "Serang, Kab.",
        "lat": -6.1397339,
        "lng": 106.040506
      },
      "province": {
        "id": 3,
        "name": "Banten",
        "lat": -6.4058172,
        "lng": 106.0640179
      },
      "country": {
        "id": 228,
        "name": "INDONESIA",
        "code": "ID"
      },
      "id": 2132,
      "name": "Mancak",
      "postcode": "42165",
      "lat": -6.0774555,
      "lng": 105.9846769
    },
    {
      "suburb": {
        "id": 203,
        "name": "Mancak",
        "lat": -6.1108068,
        "lng": 105.981739
      },
      "city": {
        "id": 17,
        "name": "Serang, Kab.",
        "lat": -6.1397339,
        "lng": 106.040506
      },
      "province": {
        "id": 3,
        "name": "Banten",
        "lat": -6.4058172,
        "lng": 106.0640179
      },
      "country": {
        "id": 228,
        "name": "INDONESIA",
        "code": "ID"
      },
      "id": 2133,
      "name": "Batukuda",
      "postcode": "42165",
      "lat": -6.0546653,
      "lng": 106.0058056
    },
    {
      "suburb": {
        "id": 203,
        "name": "Mancak",
        "lat": -6.1108068,
        "lng": 105.981739
      },
      "city": {
        "id": 17,
        "name": "Serang, Kab.",
        "lat": -6.1397339,
        "lng": 106.040506
      },
      "province": {
        "id": 3,
        "name": "Banten",
        "lat": -6.4058172,
        "lng": 106.0640179
      },
      "country": {
        "id": 228,
        "name": "INDONESIA",
        "code": "ID"
      },
      "id": 2134,
      "name": "Cikedung",
      "postcode": "42165",
      "lat": -6.1471862,
      "lng": 105.9641124
    },
    {
      "suburb": {
        "id": 203,
        "name": "Mancak",
        "lat": -6.1108068,
        "lng": 105.981739
      },
      "city": {
        "id": 17,
        "name": "Serang, Kab.",
        "lat": -6.1397339,
        "lng": 106.040506
      },
      "province": {
        "id": 3,
        "name": "Banten",
        "lat": -6.4058172,
        "lng": 106.0640179
      },
      "country": {
        "id": 228,
        "name": "INDONESIA",
        "code": "ID"
      },
      "id": 2135,
      "name": "Ciwarna",
      "postcode": "42165",
      "lat": -6.1240511,
      "lng": 105.9670501
    },
    {
      "suburb": {
        "id": 203,
        "name": "Mancak",
        "lat": -6.1108068,
        "lng": 105.981739
      },
      "city": {
        "id": 17,
        "name": "Serang, Kab.",
        "lat": -6.1397339,
        "lng": 106.040506
      },
      "province": {
        "id": 3,
        "name": "Banten",
        "lat": -6.4058172,
        "lng": 106.0640179
      },
      "country": {
        "id": 228,
        "name": "INDONESIA",
        "code": "ID"
      },
      "id": 2136,
      "name": "Bale Kencana",
      "postcode": "42165",
      "lat": -6.1108068,
      "lng": 105.981739
    },
    {
      "suburb": {
        "id": 203,
        "name": "Mancak",
        "lat": -6.1108068,
        "lng": 105.981739
      },
      "city": {
        "id": 17,
        "name": "Serang, Kab.",
        "lat": -6.1397339,
        "lng": 106.040506
      },
      "province": {
        "id": 3,
        "name": "Banten",
        "lat": -6.4058172,
        "lng": 106.0640179
      },
      "country": {
        "id": 228,
        "name": "INDONESIA",
        "code": "ID"
      },
      "id": 2137,
      "name": "Balekambang",
      "postcode": "42165",
      "lat": -6.0867997,
      "lng": 106.0140586
    },
    {
      "suburb": {
        "id": 203,
        "name": "Mancak",
        "lat": -6.1108068,
        "lng": 105.981739
      },
      "city": {
        "id": 17,
        "name": "Serang, Kab.",
        "lat": -6.1397339,
        "lng": 106.040506
      },
      "province": {
        "id": 3,
        "name": "Banten",
        "lat": -6.4058172,
        "lng": 106.0640179
      },
      "country": {
        "id": 228,
        "name": "INDONESIA",
        "code": "ID"
      },
      "id": 2138,
      "name": "Angsana",
      "postcode": "42165",
      "lat": -6.1153906,
      "lng": 105.9993672
    },
    {
      "suburb": {
        "id": 204,
        "name": "Ciomas",
        "lat": -6.2528456,
        "lng": 106.0287512
      },
      "city": {
        "id": 17,
        "name": "Serang, Kab.",
        "lat": -6.1397339,
        "lng": 106.040506
      },
      "province": {
        "id": 3,
        "name": "Banten",
        "lat": -6.4058172,
        "lng": 106.0640179
      },
      "country": {
        "id": 228,
        "name": "INDONESIA",
        "code": "ID"
      },
      "id": 2139,
      "name": "Ujungtebu",
      "postcode": "42164",
      "lat": -6.2588897,
      "lng": 105.9993672
    },
    {
      "suburb": {
        "id": 204,
        "name": "Ciomas",
        "lat": -6.2528456,
        "lng": 106.0287512
      },
      "city": {
        "id": 17,
        "name": "Serang, Kab.",
        "lat": -6.1397339,
        "lng": 106.040506
      },
      "province": {
        "id": 3,
        "name": "Banten",
        "lat": -6.4058172,
        "lng": 106.0640179
      },
      "country": {
        "id": 228,
        "name": "INDONESIA",
        "code": "ID"
      },
      "id": 2140,
      "name": "Sukadana",
      "postcode": "42164",
      "lat": -6.2089844,
      "lng": 106.0375673
    },
    {
      "suburb": {
        "id": 204,
        "name": "Ciomas",
        "lat": -6.2528456,
        "lng": 106.0287512
      },
      "city": {
        "id": 17,
        "name": "Serang, Kab.",
        "lat": -6.1397339,
        "lng": 106.040506
      },
      "province": {
        "id": 3,
        "name": "Banten",
        "lat": -6.4058172,
        "lng": 106.0640179
      },
      "country": {
        "id": 228,
        "name": "INDONESIA",
        "code": "ID"
      },
      "id": 2141,
      "name": "Sukarena",
      "postcode": "42164",
      "lat": -6.2443288,
      "lng": 106.0552006
    },
    {
      "suburb": {
        "id": 204,
        "name": "Ciomas",
        "lat": -6.2528456,
        "lng": 106.0287512
      },
      "city": {
        "id": 17,
        "name": "Serang, Kab.",
        "lat": -6.1397339,
        "lng": 106.040506
      },
      "province": {
        "id": 3,
        "name": "Banten",
        "lat": -6.4058172,
        "lng": 106.0640179
      },
      "country": {
        "id": 228,
        "name": "INDONESIA",
        "code": "ID"
      },
      "id": 2142,
      "name": "Siketug",
      "postcode": "42164",
      "lat": -6.2410244,
      "lng": 105.9964291
    },
    {
      "suburb": {
        "id": 204,
        "name": "Ciomas",
        "lat": -6.2528456,
        "lng": 106.0287512
      },
      "city": {
        "id": 17,
        "name": "Serang, Kab.",
        "lat": -6.1397339,
        "lng": 106.040506
      },
      "province": {
        "id": 3,
        "name": "Banten",
        "lat": -6.4058172,
        "lng": 106.0640179
      },
      "country": {
        "id": 228,
        "name": "INDONESIA",
        "code": "ID"
      },
      "id": 2143,
      "name": "Sukabares",
      "postcode": "42164",
      "lat": -6.2231281,
      "lng": 106.0360979
    },
    {
      "suburb": {
        "id": 204,
        "name": "Ciomas",
        "lat": -6.2528456,
        "lng": 106.0287512
      },
      "city": {
        "id": 17,
        "name": "Serang, Kab.",
        "lat": -6.1397339,
        "lng": 106.040506
      },
      "province": {
        "id": 3,
        "name": "Banten",
        "lat": -6.4058172,
        "lng": 106.0640179
      },
      "country": {
        "id": 228,
        "name": "INDONESIA",
        "code": "ID"
      },
      "id": 2144,
      "name": "Panyaungan Jaya",
      "postcode": "42164",
      "lat": -6.2346199,
      "lng": 106.0375673
    },
    {
      "suburb": {
        "id": 204,
        "name": "Ciomas",
        "lat": -6.2528456,
        "lng": 106.0287512
      },
      "city": {
        "id": 17,
        "name": "Serang, Kab.",
        "lat": -6.1397339,
        "lng": 106.040506
      },
      "province": {
        "id": 3,
        "name": "Banten",
        "lat": -6.4058172,
        "lng": 106.0640179
      },
      "country": {
        "id": 228,
        "name": "INDONESIA",
        "code": "ID"
      },
      "id": 2145,
      "name": "Pondok Kahuru",
      "postcode": "42164",
      "lat": -6.2247285,
      "lng": 106.0258126
    },
    {
      "suburb": {
        "id": 204,
        "name": "Ciomas",
        "lat": -6.2528456,
        "lng": 106.0287512
      },
      "city": {
        "id": 17,
        "name": "Serang, Kab.",
        "lat": -6.1397339,
        "lng": 106.040506
      },
      "province": {
        "id": 3,
        "name": "Banten",
        "lat": -6.4058172,
        "lng": 106.0640179
      },
      "country": {
        "id": 228,
        "name": "INDONESIA",
        "code": "ID"
      },
      "id": 2146,
      "name": "Citaman",
      "postcode": "42164",
      "lat": -6.2450599,
      "lng": 106.0316898
    },
    {
      "suburb": {
        "id": 204,
        "name": "Ciomas",
        "lat": -6.2528456,
        "lng": 106.0287512
      },
      "city": {
        "id": 17,
        "name": "Serang, Kab.",
        "lat": -6.1397339,
        "lng": 106.040506
      },
      "province": {
        "id": 3,
        "name": "Banten",
        "lat": -6.4058172,
        "lng": 106.0640179
      },
      "country": {
        "id": 228,
        "name": "INDONESIA",
        "code": "ID"
      },
      "id": 2147,
      "name": "Lebak",
      "postcode": "42164",
      "lat": -6.235349,
      "lng": 106.0140586
    },
    {
      "suburb": {
        "id": 200,
        "name": "Padarincang",
        "lat": -6.2139945,
        "lng": 105.9582372
      },
      "city": {
        "id": 17,
        "name": "Serang, Kab.",
        "lat": -6.1397339,
        "lng": 106.040506
      },
      "province": {
        "id": 3,
        "name": "Banten",
        "lat": -6.4058172,
        "lng": 106.0640179
      },
      "country": {
        "id": 228,
        "name": "INDONESIA",
        "code": "ID"
      },
      "id": 2148,
      "name": "Ciomas",
      "postcode": "42168",
      "lat": -6.2081114,
      "lng": 106.0243433
    },
    {
      "suburb": {
        "id": 204,
        "name": "Ciomas",
        "lat": -6.2528456,
        "lng": 106.0287512
      },
      "city": {
        "id": 17,
        "name": "Serang, Kab.",
        "lat": -6.1397339,
        "lng": 106.040506
      },
      "province": {
        "id": 3,
        "name": "Banten",
        "lat": -6.4058172,
        "lng": 106.0640179
      },
      "country": {
        "id": 228,
        "name": "INDONESIA",
        "code": "ID"
      },
      "id": 2149,
      "name": "Cisitu",
      "postcode": "42164",
      "lat": -6.2556849,
      "lng": 106.0199355
    },
    {
      "suburb": {
        "id": 205,
        "name": "Pabuaran",
        "lat": -6.1944454,
        "lng": 106.0934117
      },
      "city": {
        "id": 17,
        "name": "Serang, Kab.",
        "lat": -6.1397339,
        "lng": 106.040506
      },
      "province": {
        "id": 3,
        "name": "Banten",
        "lat": -6.4058172,
        "lng": 106.0640179
      },
      "country": {
        "id": 228,
        "name": "INDONESIA",
        "code": "ID"
      },
      "id": 2150,
      "name": "Tanjungsari",
      "postcode": "42163",
      "lat": -6.2236354,
      "lng": 106.0610787
    },
    {
      "suburb": {
        "id": 204,
        "name": "Ciomas",
        "lat": -6.2528456,
        "lng": 106.0287512
      },
      "city": {
        "id": 17,
        "name": "Serang, Kab.",
        "lat": -6.1397339,
        "lng": 106.040506
      },
      "province": {
        "id": 3,
        "name": "Banten",
        "lat": -6.4058172,
        "lng": 106.0640179
      },
      "country": {
        "id": 228,
        "name": "INDONESIA",
        "code": "ID"
      },
      "id": 2151,
      "name": "Cemplang",
      "postcode": "42164",
      "lat": -6.2490914,
      "lng": 106.0669571
    },
    {
      "suburb": {
        "id": 206,
        "name": "Gunungsari",
        "lat": -6.1628683,
        "lng": 106.0375673
      },
      "city": {
        "id": 17,
        "name": "Serang, Kab.",
        "lat": -6.1397339,
        "lng": 106.040506
      },
      "province": {
        "id": 3,
        "name": "Banten",
        "lat": -6.4058172,
        "lng": 106.0640179
      },
      "country": {
        "id": 228,
        "name": "INDONESIA",
        "code": "ID"
      },
      "id": 2152,
      "name": "Sukalaba",
      "postcode": "42163",
      "lat": -6.1484695,
      "lng": 106.0478532
    },
    {
      "suburb": {
        "id": 206,
        "name": "Gunungsari",
        "lat": -6.1628683,
        "lng": 106.0375673
      },
      "city": {
        "id": 17,
        "name": "Serang, Kab.",
        "lat": -6.1397339,
        "lng": 106.040506
      },
      "province": {
        "id": 3,
        "name": "Banten",
        "lat": -6.4058172,
        "lng": 106.0640179
      },
      "country": {
        "id": 228,
        "name": "INDONESIA",
        "code": "ID"
      },
      "id": 2153,
      "name": "Tamiang",
      "postcode": "42169",
      "lat": -6.146604,
      "lng": 106.0669571
    },
    {
      "suburb": {
        "id": 205,
        "name": "Pabuaran",
        "lat": -6.1944454,
        "lng": 106.0934117
      },
      "city": {
        "id": 17,
        "name": "Serang, Kab.",
        "lat": -6.1397339,
        "lng": 106.040506
      },
      "province": {
        "id": 3,
        "name": "Banten",
        "lat": -6.4058172,
        "lng": 106.0640179
      },
      "country": {
        "id": 228,
        "name": "INDONESIA",
        "code": "ID"
      },
      "id": 2154,
      "name": "Talaga Warna",
      "postcode": "42163",
      "lat": -6.1944454,
      "lng": 106.0934117
    },
    {
      "suburb": {
        "id": 205,
        "name": "Pabuaran",
        "lat": -6.1944454,
        "lng": 106.0934117
      },
      "city": {
        "id": 17,
        "name": "Serang, Kab.",
        "lat": -6.1397339,
        "lng": 106.040506
      },
      "province": {
        "id": 3,
        "name": "Banten",
        "lat": -6.4058172,
        "lng": 106.0640179
      },
      "country": {
        "id": 228,
        "name": "INDONESIA",
        "code": "ID"
      },
      "id": 2155,
      "name": "Sindangheula",
      "postcode": "42163",
      "lat": -6.1808202,
      "lng": 106.1198699
    },
    {
      "suburb": {
        "id": 205,
        "name": "Pabuaran",
        "lat": -6.1944454,
        "lng": 106.0934117
      },
      "city": {
        "id": 17,
        "name": "Serang, Kab.",
        "lat": -6.1397339,
        "lng": 106.040506
      },
      "province": {
        "id": 3,
        "name": "Banten",
        "lat": -6.4058172,
        "lng": 106.0640179
      },
      "country": {
        "id": 228,
        "name": "INDONESIA",
        "code": "ID"
      },
      "id": 2156,
      "name": "Sindangsari",
      "postcode": "42163",
      "lat": -6.1933524,
      "lng": 106.1286901
    },
    {
      "suburb": {
        "id": 205,
        "name": "Pabuaran",
        "lat": -6.1944454,
        "lng": 106.0934117
      },
      "city": {
        "id": 17,
        "name": "Serang, Kab.",
        "lat": -6.1397339,
        "lng": 106.040506
      },
      "province": {
        "id": 3,
        "name": "Banten",
        "lat": -6.4058172,
        "lng": 106.0640179
      },
      "country": {
        "id": 228,
        "name": "INDONESIA",
        "code": "ID"
      },
      "id": 2157,
      "name": "Pabuaran",
      "postcode": "42163",
      "lat": -6.2075289,
      "lng": 106.0845931
    },
    {
      "suburb": {
        "id": 205,
        "name": "Pabuaran",
        "lat": -6.1944454,
        "lng": 106.0934117
      },
      "city": {
        "id": 17,
        "name": "Serang, Kab.",
        "lat": -6.1397339,
        "lng": 106.040506
      },
      "province": {
        "id": 3,
        "name": "Banten",
        "lat": -6.4058172,
        "lng": 106.0640179
      },
      "country": {
        "id": 228,
        "name": "INDONESIA",
        "code": "ID"
      },
      "id": 2158,
      "name": "Pancanegara",
      "postcode": "42163",
      "lat": -6.1841993,
      "lng": 106.0934117
    },
    {
      "suburb": {
        "id": 205,
        "name": "Pabuaran",
        "lat": -6.1944454,
        "lng": 106.0934117
      },
      "city": {
        "id": 17,
        "name": "Serang, Kab.",
        "lat": -6.1397339,
        "lng": 106.040506
      },
      "province": {
        "id": 3,
        "name": "Banten",
        "lat": -6.4058172,
        "lng": 106.0640179
      },
      "country": {
        "id": 228,
        "name": "INDONESIA",
        "code": "ID"
      },
      "id": 2159,
      "name": "Pasanggrahan",
      "postcode": "42163",
      "lat": -6.2016236,
      "lng": 106.0684267
    },
    {
      "suburb": {
        "id": 206,
        "name": "Gunungsari",
        "lat": -6.1628683,
        "lng": 106.0375673
      },
      "city": {
        "id": 17,
        "name": "Serang, Kab.",
        "lat": -6.1397339,
        "lng": 106.040506
      },
      "province": {
        "id": 3,
        "name": "Banten",
        "lat": -6.4058172,
        "lng": 106.0640179
      },
      "country": {
        "id": 228,
        "name": "INDONESIA",
        "code": "ID"
      },
      "id": 2160,
      "name": "Luwuk",
      "postcode": "42169",
      "lat": -6.1279206,
      "lng": 106.0081819
    },
    {
      "suburb": {
        "id": 205,
        "name": "Pabuaran",
        "lat": -6.1944454,
        "lng": 106.0934117
      },
      "city": {
        "id": 17,
        "name": "Serang, Kab.",
        "lat": -6.1397339,
        "lng": 106.040506
      },
      "province": {
        "id": 3,
        "name": "Banten",
        "lat": -6.4058172,
        "lng": 106.0640179
      },
      "country": {
        "id": 228,
        "name": "INDONESIA",
        "code": "ID"
      },
      "id": 2161,
      "name": "Kadubeureum",
      "postcode": "42163",
      "lat": -6.2033138,
      "lng": 106.0552006
    },
    {
      "suburb": {
        "id": 206,
        "name": "Gunungsari",
        "lat": -6.1628683,
        "lng": 106.0375673
      },
      "city": {
        "id": 17,
        "name": "Serang, Kab.",
        "lat": -6.1397339,
        "lng": 106.040506
      },
      "province": {
        "id": 3,
        "name": "Banten",
        "lat": -6.4058172,
        "lng": 106.0640179
      },
      "country": {
        "id": 228,
        "name": "INDONESIA",
        "code": "ID"
      },
      "id": 2162,
      "name": "Gunungsari",
      "postcode": "42169",
      "lat": -6.1628683,
      "lng": 106.0375673
    },
    {
      "suburb": {
        "id": 206,
        "name": "Gunungsari",
        "lat": -6.1628683,
        "lng": 106.0375673
      },
      "city": {
        "id": 17,
        "name": "Serang, Kab.",
        "lat": -6.1397339,
        "lng": 106.040506
      },
      "province": {
        "id": 3,
        "name": "Banten",
        "lat": -6.4058172,
        "lng": 106.0640179
      },
      "country": {
        "id": 228,
        "name": "INDONESIA",
        "code": "ID"
      },