{
  "metadata": {
    "path": "/v3/location/areas?limit=1000&page=41",
    "http_status_code": 200,
    "http_status": "OK",
    "timestamp": 1647336851
  },
  "data": [
    {
      "suburb": {
        "id": 3466,
        "name": "Bandar Mataram",
        "lat": -4.5974884,
        "lng": 105.4536718
      },
      "city": {
        "id": 207,
        "name": "Lampung Tengah",
        "lat": -4.8008086,
        "lng": 105.3131185
      },
      "province": {
        "id": 18,
        "name": "Lampung",
        "lat": -4.5585849,
        "lng": 105.4068079
      },
      "country": {
        "id": 228,
        "name": "INDONESIA",
        "code": "ID"
      },
      "id": 40016,
      "name": "Mataram Jaya",
      "postcode": "34169",
      "lat": -4.7217947,
      "lng": 105.4829681
    },
    {
      "suburb": {
        "id": 3466,
        "name": "Bandar Mataram",
        "lat": -4.5974884,
        "lng": 105.4536718
      },
      "city": {
        "id": 207,
        "name": "Lampung Tengah",
        "lat": -4.8008086,
        "lng": 105.3131185
      },
      "province": {
        "id": 18,
        "name": "Lampung",
        "lat": -4.5585849,
        "lng": 105.4068079
      },
      "country": {
        "id": 228,
        "name": "INDONESIA",
        "code": "ID"
      },
      "id": 40017,
      "name": "Jati Datar Mataram",
      "postcode": "34169",
      "lat": -4.7436816,
      "lng": 105.4009508
    },
    {
      "suburb": {
        "id": 3467,
        "name": "Bumi Nabung",
        "lat": -4.6850548,
        "lng": 105.5591615
      },
      "city": {
        "id": 207,
        "name": "Lampung Tengah",
        "lat": -4.8008086,
        "lng": 105.3131185
      },
      "province": {
        "id": 18,
        "name": "Lampung",
        "lat": -4.5585849,
        "lng": 105.4068079
      },
      "country": {
        "id": 228,
        "name": "INDONESIA",
        "code": "ID"
      },
      "id": 40018,
      "name": "Sri Kencana (Kencono)",
      "postcode": "34168",
      "lat": -4.7196572,
      "lng": 105.5767493
    },
    {
      "suburb": {
        "id": 3467,
        "name": "Bumi Nabung",
        "lat": -4.6850548,
        "lng": 105.5591615
      },
      "city": {
        "id": 207,
        "name": "Lampung Tengah",
        "lat": -4.8008086,
        "lng": 105.3131185
      },
      "province": {
        "id": 18,
        "name": "Lampung",
        "lat": -4.5585849,
        "lng": 105.4068079
      },
      "country": {
        "id": 228,
        "name": "INDONESIA",
        "code": "ID"
      },
      "id": 40019,
      "name": "Bumi Nabung Timur",
      "postcode": "34168",
      "lat": -4.6870887,
      "lng": 105.5796808
    },
    {
      "suburb": {
        "id": 3467,
        "name": "Bumi Nabung",
        "lat": -4.6850548,
        "lng": 105.5591615
      },
      "city": {
        "id": 207,
        "name": "Lampung Tengah",
        "lat": -4.8008086,
        "lng": 105.3131185
      },
      "province": {
        "id": 18,
        "name": "Lampung",
        "lat": -4.5585849,
        "lng": 105.4068079
      },
      "country": {
        "id": 228,
        "name": "INDONESIA",
        "code": "ID"
      },
      "id": 40020,
      "name": "Bumi Nabung Utara",
      "postcode": "34168",
      "lat": -4.6596693,
      "lng": 105.5767493
    },
    {
      "suburb": {
        "id": 3467,
        "name": "Bumi Nabung",
        "lat": -4.6850548,
        "lng": 105.5591615
      },
      "city": {
        "id": 207,
        "name": "Lampung Tengah",
        "lat": -4.8008086,
        "lng": 105.3131185
      },
      "province": {
        "id": 18,
        "name": "Lampung",
        "lat": -4.5585849,
        "lng": 105.4068079
      },
      "country": {
        "id": 228,
        "name": "INDONESIA",
        "code": "ID"
      },
      "id": 40021,
      "name": "Bumi Nabung Selatan",
      "postcode": "34168",
      "lat": -4.7209947,
      "lng": 105.5181302
    },
    {
      "suburb": {
        "id": 3467,
        "name": "Bumi Nabung",
        "lat": -4.6850548,
        "lng": 105.5591615
      },
      "city": {
        "id": 207,
        "name": "Lampung Tengah",
        "lat": -4.8008086,
        "lng": 105.3131185
      },
      "province": {
        "id": 18,
        "name": "Lampung",
        "lat": -4.5585849,
        "lng": 105.4068079
      },
      "country": {
        "id": 228,
        "name": "INDONESIA",
        "code": "ID"
      },
      "id": 40022,
      "name": "Bumi Nabung Baru",
      "postcode": "34168",
      "lat": -4.710456,
      "lng": 105.5415755
    },
    {
      "suburb": {
        "id": 3467,
        "name": "Bumi Nabung",
        "lat": -4.6850548,
        "lng": 105.5591615
      },
      "city": {
        "id": 207,
        "name": "Lampung Tengah",
        "lat": -4.8008086,
        "lng": 105.3131185
      },
      "province": {
        "id": 18,
        "name": "Lampung",
        "lat": -4.5585849,
        "lng": 105.4068079
      },
      "country": {
        "id": 228,
        "name": "INDONESIA",
        "code": "ID"
      },
      "id": 40023,
      "name": "Bumi Nabung Ilir",
      "postcode": "34168",
      "lat": -4.6601982,
      "lng": 105.5532993
    },
    {
      "suburb": {
        "id": 3468,
        "name": "Terusan Nunyai",
        "lat": -4.7021663,
        "lng": 105.2428853
      },
      "city": {
        "id": 207,
        "name": "Lampung Tengah",
        "lat": -4.8008086,
        "lng": 105.3131185
      },
      "province": {
        "id": 18,
        "name": "Lampung",
        "lat": -4.5585849,
        "lng": 105.4068079
      },
      "country": {
        "id": 228,
        "name": "INDONESIA",
        "code": "ID"
      },
      "id": 40024,
      "name": "Tanjung Anom",
      "postcode": "34167",
      "lat": -4.7666415,
      "lng": 105.2721456
    },
    {
      "suburb": {
        "id": 3468,
        "name": "Terusan Nunyai",
        "lat": -4.7021663,
        "lng": 105.2428853
      },
      "city": {
        "id": 207,
        "name": "Lampung Tengah",
        "lat": -4.8008086,
        "lng": 105.3131185
      },
      "province": {
        "id": 18,
        "name": "Lampung",
        "lat": -4.5585849,
        "lng": 105.4068079
      },
      "country": {
        "id": 228,
        "name": "INDONESIA",
        "code": "ID"
      },
      "id": 40025,
      "name": "Gunung Batin Udik",
      "postcode": "34167",
      "lat": -4.7129644,
      "lng": 105.2077798
    },
    {
      "suburb": {
        "id": 3468,
        "name": "Terusan Nunyai",
        "lat": -4.7021663,
        "lng": 105.2428853
      },
      "city": {
        "id": 207,
        "name": "Lampung Tengah",
        "lat": -4.8008086,
        "lng": 105.3131185
      },
      "province": {
        "id": 18,
        "name": "Lampung",
        "lat": -4.5585849,
        "lng": 105.4068079
      },
      "country": {
        "id": 228,
        "name": "INDONESIA",
        "code": "ID"
      },
      "id": 40026,
      "name": "Gunung Batin Ilir",
      "postcode": "34167",
      "lat": -4.6364671,
      "lng": 105.2721456
    },
    {
      "suburb": {
        "id": 3468,
        "name": "Terusan Nunyai",
        "lat": -4.7021663,
        "lng": 105.2428853
      },
      "city": {
        "id": 207,
        "name": "Lampung Tengah",
        "lat": -4.8008086,
        "lng": 105.3131185
      },
      "province": {
        "id": 18,
        "name": "Lampung",
        "lat": -4.5585849,
        "lng": 105.4068079
      },
      "country": {
        "id": 228,
        "name": "INDONESIA",
        "code": "ID"
      },
      "id": 40027,
      "name": "Gunung Agung",
      "postcode": "34167",
      "lat": -4.7535778,
      "lng": 105.1843801
    },
    {
      "suburb": {
        "id": 3468,
        "name": "Terusan Nunyai",
        "lat": -4.7021663,
        "lng": 105.2428853
      },
      "city": {
        "id": 207,
        "name": "Lampung Tengah",
        "lat": -4.8008086,
        "lng": 105.3131185
      },
      "province": {
        "id": 18,
        "name": "Lampung",
        "lat": -4.5585849,
        "lng": 105.4068079
      },
      "country": {
        "id": 228,
        "name": "INDONESIA",
        "code": "ID"
      },
      "id": 40028,
      "name": "Gunung Batin Baru",
      "postcode": "34167",
      "lat": -4.6723893,
      "lng": 105.2311827
    },
    {
      "suburb": {
        "id": 3468,
        "name": "Terusan Nunyai",
        "lat": -4.7021663,
        "lng": 105.2428853
      },
      "city": {
        "id": 207,
        "name": "Lampung Tengah",
        "lat": -4.8008086,
        "lng": 105.3131185
      },
      "province": {
        "id": 18,
        "name": "Lampung",
        "lat": -4.5585849,
        "lng": 105.4068079
      },
      "country": {
        "id": 228,
        "name": "INDONESIA",
        "code": "ID"
      },
      "id": 40029,
      "name": "Bandar Sakti",
      "postcode": "34167",
      "lat": -4.7872278,
      "lng": 105.248737
    },
    {
      "suburb": {
        "id": 3468,
        "name": "Terusan Nunyai",
        "lat": -4.7021663,
        "lng": 105.2428853
      },
      "city": {
        "id": 207,
        "name": "Lampung Tengah",
        "lat": -4.8008086,
        "lng": 105.3131185
      },
      "province": {
        "id": 18,
        "name": "Lampung",
        "lat": -4.5585849,
        "lng": 105.4068079
      },
      "country": {
        "id": 228,
        "name": "INDONESIA",
        "code": "ID"
      },
      "id": 40030,
      "name": "Bandar Agung",
      "postcode": "34167",
      "lat": -4.7704033,
      "lng": 105.2165555
    },
    {
      "suburb": {
        "id": 3469,
        "name": "Seputih Agung",
        "lat": -4.945248,
        "lng": 105.1492869
      },
      "city": {
        "id": 207,
        "name": "Lampung Tengah",
        "lat": -4.8008086,
        "lng": 105.3131185
      },
      "province": {
        "id": 18,
        "name": "Lampung",
        "lat": -4.5585849,
        "lng": 105.4068079
      },
      "country": {
        "id": 228,
        "name": "INDONESIA",
        "code": "ID"
      },
      "id": 40031,
      "name": "Selusuban",
      "postcode": "34166",
      "lat": -4.9414364,
      "lng": 105.096661
    },
    {
      "suburb": {
        "id": 3469,
        "name": "Seputih Agung",
        "lat": -4.945248,
        "lng": 105.1492869
      },
      "city": {
        "id": 207,
        "name": "Lampung Tengah",
        "lat": -4.8008086,
        "lng": 105.3131185
      },
      "province": {
        "id": 18,
        "name": "Lampung",
        "lat": -4.5585849,
        "lng": 105.4068079
      },
      "country": {
        "id": 228,
        "name": "INDONESIA",
        "code": "ID"
      },
      "id": 40032,
      "name": "Simpang Agung",
      "postcode": "34166",
      "lat": -4.9498718,
      "lng": 105.1668326
    },
    {
      "suburb": {
        "id": 3469,
        "name": "Seputih Agung",
        "lat": -4.945248,
        "lng": 105.1492869
      },
      "city": {
        "id": 207,
        "name": "Lampung Tengah",
        "lat": -4.8008086,
        "lng": 105.3131185
      },
      "province": {
        "id": 18,
        "name": "Lampung",
        "lat": -4.5585849,
        "lng": 105.4068079
      },
      "country": {
        "id": 228,
        "name": "INDONESIA",
        "code": "ID"
      },
      "id": 40033,
      "name": "Muji Rahayu",
      "postcode": "34166",
      "lat": -4.9109778,
      "lng": 105.1083542
    },
    {
      "suburb": {
        "id": 3469,
        "name": "Seputih Agung",
        "lat": -4.945248,
        "lng": 105.1492869
      },
      "city": {
        "id": 207,
        "name": "Lampung Tengah",
        "lat": -4.8008086,
        "lng": 105.3131185
      },
      "province": {
        "id": 18,
        "name": "Lampung",
        "lat": -4.5585849,
        "lng": 105.4068079
      },
      "country": {
        "id": 228,
        "name": "INDONESIA",
        "code": "ID"
      },
      "id": 40034,
      "name": "Harapan Rejo",
      "postcode": "34166",
      "lat": -4.981169,
      "lng": 105.1200482
    },
    {
      "suburb": {
        "id": 3469,
        "name": "Seputih Agung",
        "lat": -4.945248,
        "lng": 105.1492869
      },
      "city": {
        "id": 207,
        "name": "Lampung Tengah",
        "lat": -4.8008086,
        "lng": 105.3131185
      },
      "province": {
        "id": 18,
        "name": "Lampung",
        "lat": -4.5585849,
        "lng": 105.4068079
      },
      "country": {
        "id": 228,
        "name": "INDONESIA",
        "code": "ID"
      },
      "id": 40035,
      "name": "Gayau Sakti",
      "postcode": "34166",
      "lat": -4.9104388,
      "lng": 105.1317431
    },
    {
      "suburb": {
        "id": 3469,
        "name": "Seputih Agung",
        "lat": -4.945248,
        "lng": 105.1492869
      },
      "city": {
        "id": 207,
        "name": "Lampung Tengah",
        "lat": -4.8008086,
        "lng": 105.3131185
      },
      "province": {
        "id": 18,
        "name": "Lampung",
        "lat": -4.5585849,
        "lng": 105.4068079
      },
      "country": {
        "id": 228,
        "name": "INDONESIA",
        "code": "ID"
      },
      "id": 40036,
      "name": "Fajar Asri",
      "postcode": "34166",
      "lat": -4.9408946,
      "lng": 105.1200482
    },
    {
      "suburb": {
        "id": 3469,
        "name": "Seputih Agung",
        "lat": -4.945248,
        "lng": 105.1492869
      },
      "city": {
        "id": 207,
        "name": "Lampung Tengah",
        "lat": -4.8008086,
        "lng": 105.3131185
      },
      "province": {
        "id": 18,
        "name": "Lampung",
        "lat": -4.5585849,
        "lng": 105.4068079
      },
      "country": {
        "id": 228,
        "name": "INDONESIA",
        "code": "ID"
      },
      "id": 40037,
      "name": "Endang Rejo",
      "postcode": "34166",
      "lat": -4.9604831,
      "lng": 105.1434387
    },
    {
      "suburb": {
        "id": 3469,
        "name": "Seputih Agung",
        "lat": -4.945248,
        "lng": 105.1492869
      },
      "city": {
        "id": 207,
        "name": "Lampung Tengah",
        "lat": -4.8008086,
        "lng": 105.3131185
      },
      "province": {
        "id": 18,
        "name": "Lampung",
        "lat": -4.5585849,
        "lng": 105.4068079
      },
      "country": {
        "id": 228,
        "name": "INDONESIA",
        "code": "ID"
      },
      "id": 40038,
      "name": "Dono Arum",
      "postcode": "34166",
      "lat": -4.9403518,
      "lng": 105.1434387
    },
    {
      "suburb": {
        "id": 3470,
        "name": "Seputih Mataram",
        "lat": -4.8203358,
        "lng": 105.336536
      },
      "city": {
        "id": 207,
        "name": "Lampung Tengah",
        "lat": -4.8008086,
        "lng": 105.3131185
      },
      "province": {
        "id": 18,
        "name": "Lampung",
        "lat": -4.5585849,
        "lng": 105.4068079
      },
      "country": {
        "id": 228,
        "name": "INDONESIA",
        "code": "ID"
      },
      "id": 40039,
      "name": "Wirata Agung Mataram",
      "postcode": "34164",
      "lat": -4.7748063,
      "lng": 105.3541013
    },
    {
      "suburb": {
        "id": 3469,
        "name": "Seputih Agung",
        "lat": -4.945248,
        "lng": 105.1492869
      },
      "city": {
        "id": 207,
        "name": "Lampung Tengah",
        "lat": -4.8008086,
        "lng": 105.3131185
      },
      "province": {
        "id": 18,
        "name": "Lampung",
        "lat": -4.5585849,
        "lng": 105.4068079
      },
      "country": {
        "id": 228,
        "name": "INDONESIA",
        "code": "ID"
      },
      "id": 40040,
      "name": "Bumi Kencana",
      "postcode": "34166",
      "lat": -4.926892,
      "lng": 105.1814554
    },
    {
      "suburb": {
        "id": 3470,
        "name": "Seputih Mataram",
        "lat": -4.8203358,
        "lng": 105.336536
      },
      "city": {
        "id": 207,
        "name": "Lampung Tengah",
        "lat": -4.8008086,
        "lng": 105.3131185
      },
      "province": {
        "id": 18,
        "name": "Lampung",
        "lat": -4.5585849,
        "lng": 105.4068079
      },
      "country": {
        "id": 228,
        "name": "INDONESIA",
        "code": "ID"
      },
      "id": 40041,
      "name": "Utama Jaya Mataram",
      "postcode": "34164",
      "lat": -4.8178948,
      "lng": 105.3336087
    },
    {
      "suburb": {
        "id": 3470,
        "name": "Seputih Mataram",
        "lat": -4.8203358,
        "lng": 105.336536
      },
      "city": {
        "id": 207,
        "name": "Lampung Tengah",
        "lat": -4.8008086,
        "lng": 105.3131185
      },
      "province": {
        "id": 18,
        "name": "Lampung",
        "lat": -4.5585849,
        "lng": 105.4068079
      },
      "country": {
        "id": 228,
        "name": "INDONESIA",
        "code": "ID"
      },
      "id": 40042,
      "name": "Varia Agung",
      "postcode": "34164",
      "lat": -4.8021774,
      "lng": 105.3628846
    },
    {
      "suburb": {
        "id": 3470,
        "name": "Seputih Mataram",
        "lat": -4.8203358,
        "lng": 105.336536
      },
      "city": {
        "id": 207,
        "name": "Lampung Tengah",
        "lat": -4.8008086,
        "lng": 105.3131185
      },
      "province": {
        "id": 18,
        "name": "Lampung",
        "lat": -4.5585849,
        "lng": 105.4068079
      },
      "country": {
        "id": 228,
        "name": "INDONESIA",
        "code": "ID"
      },
      "id": 40043,
      "name": "Sumber Agung Mataram",
      "postcode": "34164",
      "lat": -4.8249485,
      "lng": 105.3541013
    },
    {
      "suburb": {
        "id": 3470,
        "name": "Seputih Mataram",
        "lat": -4.8203358,
        "lng": 105.336536
      },
      "city": {
        "id": 207,
        "name": "Lampung Tengah",
        "lat": -4.8008086,
        "lng": 105.3131185
      },
      "province": {
        "id": 18,
        "name": "Lampung",
        "lat": -4.5585849,
        "lng": 105.4068079
      },
      "country": {
        "id": 228,
        "name": "INDONESIA",
        "code": "ID"
      },
      "id": 40044,
      "name": "Trimulyo Mataram",
      "postcode": "34164",
      "lat": -4.8056902,
      "lng": 105.3189726
    },
    {
      "suburb": {
        "id": 3470,
        "name": "Seputih Mataram",
        "lat": -4.8203358,
        "lng": 105.336536
      },
      "city": {
        "id": 207,
        "name": "Lampung Tengah",
        "lat": -4.8008086,
        "lng": 105.3131185
      },
      "province": {
        "id": 18,
        "name": "Lampung",
        "lat": -4.5585849,
        "lng": 105.4068079
      },
      "country": {
        "id": 228,
        "name": "INDONESIA",
        "code": "ID"
      },
      "id": 40045,
      "name": "Rejosari Mataram",
      "postcode": "34164",
      "lat": -4.8478662,
      "lng": 105.3394635
    },
    {
      "suburb": {
        "id": 3470,
        "name": "Seputih Mataram",
        "lat": -4.8203358,
        "lng": 105.336536
      },
      "city": {
        "id": 207,
        "name": "Lampung Tengah",
        "lat": -4.8008086,
        "lng": 105.3131185
      },
      "province": {
        "id": 18,
        "name": "Lampung",
        "lat": -4.5585849,
        "lng": 105.4068079
      },
      "country": {
        "id": 228,
        "name": "INDONESIA",
        "code": "ID"
      },
      "id": 40046,
      "name": "Subing Karya",
      "postcode": "34164",
      "lat": -4.7913453,
      "lng": 105.3980224
    },
    {
      "suburb": {
        "id": 3470,
        "name": "Seputih Mataram",
        "lat": -4.8203358,
        "lng": 105.336536
      },
      "city": {
        "id": 207,
        "name": "Lampung Tengah",
        "lat": -4.8008086,
        "lng": 105.3131185
      },
      "province": {
        "id": 18,
        "name": "Lampung",
        "lat": -4.5585849,
        "lng": 105.4068079
      },
      "country": {
        "id": 228,
        "name": "INDONESIA",
        "code": "ID"
      },
      "id": 40047,
      "name": "Fajar Mataram",
      "postcode": "34164",
      "lat": -4.8561394,
      "lng": 105.3072646
    },
    {
      "suburb": {
        "id": 3470,
        "name": "Seputih Mataram",
        "lat": -4.8203358,
        "lng": 105.336536
      },
      "city": {
        "id": 207,
        "name": "Lampung Tengah",
        "lat": -4.8008086,
        "lng": 105.3131185
      },
      "province": {
        "id": 18,
        "name": "Lampung",
        "lat": -4.5585849,
        "lng": 105.4068079
      },
      "country": {
        "id": 228,
        "name": "INDONESIA",
        "code": "ID"
      },
      "id": 40048,
      "name": "Qurnia Mataram",
      "postcode": "34164",
      "lat": -4.8334846,
      "lng": 105.3101915
    },
    {
      "suburb": {
        "id": 3470,
        "name": "Seputih Mataram",
        "lat": -4.8203358,
        "lng": 105.336536
      },
      "city": {
        "id": 207,
        "name": "Lampung Tengah",
        "lat": -4.8008086,
        "lng": 105.3131185
      },
      "province": {
        "id": 18,
        "name": "Lampung",
        "lat": -4.5585849,
        "lng": 105.4068079
      },
      "country": {
        "id": 228,
        "name": "INDONESIA",
        "code": "ID"
      },
      "id": 40049,
      "name": "Bumi Setia Mataram",
      "postcode": "34164",
      "lat": -4.7742724,
      "lng": 105.3775245
    },
    {
      "suburb": {
        "id": 3470,
        "name": "Seputih Mataram",
        "lat": -4.8203358,
        "lng": 105.336536
      },
      "city": {
        "id": 207,
        "name": "Lampung Tengah",
        "lat": -4.8008086,
        "lng": 105.3131185
      },
      "province": {
        "id": 18,
        "name": "Lampung",
        "lat": -4.5585849,
        "lng": 105.4068079
      },
      "country": {
        "id": 228,
        "name": "INDONESIA",
        "code": "ID"
      },
      "id": 40050,
      "name": "Dharma Agung Mataram",
      "postcode": "34164",
      "lat": -4.7447436,
      "lng": 105.3541013
    },
    {
      "suburb": {
        "id": 3471,
        "name": "Terbanggi Besar",
        "lat": -4.8626449,
        "lng": 105.2428853
      },
      "city": {
        "id": 207,
        "name": "Lampung Tengah",
        "lat": -4.8008086,
        "lng": 105.3131185
      },
      "province": {
        "id": 18,
        "name": "Lampung",
        "lat": -4.5585849,
        "lng": 105.4068079
      },
      "country": {
        "id": 228,
        "name": "INDONESIA",
        "code": "ID"
      },
      "id": 40051,
      "name": "Yukum Jaya",
      "postcode": "34163",
      "lat": -4.9186011,
      "lng": 105.2136302
    },
    {
      "suburb": {
        "id": 3470,
        "name": "Seputih Mataram",
        "lat": -4.8203358,
        "lng": 105.336536
      },
      "city": {
        "id": 207,
        "name": "Lampung Tengah",
        "lat": -4.8008086,
        "lng": 105.3131185
      },
      "province": {
        "id": 18,
        "name": "Lampung",
        "lat": -4.5585849,
        "lng": 105.4068079
      },
      "country": {
        "id": 228,
        "name": "INDONESIA",
        "code": "ID"
      },
      "id": 40052,
      "name": "Banjar Agung Mataram",
      "postcode": "34164",
      "lat": -4.7564028,
      "lng": 105.3921656
    },
    {
      "suburb": {
        "id": 3471,
        "name": "Terbanggi Besar",
        "lat": -4.8626449,
        "lng": 105.2428853
      },
      "city": {
        "id": 207,
        "name": "Lampung Tengah",
        "lat": -4.8008086,
        "lng": 105.3131185
      },
      "province": {
        "id": 18,
        "name": "Lampung",
        "lat": -4.5585849,
        "lng": 105.4068079
      },
      "country": {
        "id": 228,
        "name": "INDONESIA",
        "code": "ID"
      },
      "id": 40053,
      "name": "Ono Harjo",
      "postcode": "34163",
      "lat": -4.8739175,
      "lng": 105.2984842
    },
    {
      "suburb": {
        "id": 3471,
        "name": "Terbanggi Besar",
        "lat": -4.8626449,
        "lng": 105.2428853
      },
      "city": {
        "id": 207,
        "name": "Lampung Tengah",
        "lat": -4.8008086,
        "lng": 105.3131185
      },
      "province": {
        "id": 18,
        "name": "Lampung",
        "lat": -4.5585849,
        "lng": 105.4068079
      },
      "country": {
        "id": 228,
        "name": "INDONESIA",
        "code": "ID"
      },
      "id": 40054,
      "name": "Poncowati",
      "postcode": "34163",
      "lat": -4.8990325,
      "lng": 105.1902297
    },
    {
      "suburb": {
        "id": 3471,
        "name": "Terbanggi Besar",
        "lat": -4.8626449,
        "lng": 105.2428853
      },
      "city": {
        "id": 207,
        "name": "Lampung Tengah",
        "lat": -4.8008086,
        "lng": 105.3131185
      },
      "province": {
        "id": 18,
        "name": "Lampung",
        "lat": -4.5585849,
        "lng": 105.4068079
      },
      "country": {
        "id": 228,
        "name": "INDONESIA",
        "code": "ID"
      },
      "id": 40055,
      "name": "Terbanggi Besar",
      "postcode": "34163",
      "lat": -4.8637206,
      "lng": 105.1960795
    },
    {
      "suburb": {
        "id": 3471,
        "name": "Terbanggi Besar",
        "lat": -4.8626449,
        "lng": 105.2428853
      },
      "city": {
        "id": 207,
        "name": "Lampung Tengah",
        "lat": -4.8008086,
        "lng": 105.3131185
      },
      "province": {
        "id": 18,
        "name": "Lampung",
        "lat": -4.5585849,
        "lng": 105.4068079
      },
      "country": {
        "id": 228,
        "name": "INDONESIA",
        "code": "ID"
      },
      "id": 40056,
      "name": "Nambah Dadi",
      "postcode": "34163",
      "lat": -4.8919744,
      "lng": 105.2779983
    },
    {
      "suburb": {
        "id": 3471,
        "name": "Terbanggi Besar",
        "lat": -4.8626449,
        "lng": 105.2428853
      },
      "city": {
        "id": 207,
        "name": "Lampung Tengah",
        "lat": -4.8008086,
        "lng": 105.3131185
      },
      "province": {
        "id": 18,
        "name": "Lampung",
        "lat": -4.5585849,
        "lng": 105.4068079
      },
      "country": {
        "id": 228,
        "name": "INDONESIA",
        "code": "ID"
      },
      "id": 40057,
      "name": "Karang Endah",
      "postcode": "34163",
      "lat": -4.918057,
      "lng": 105.2370339
    },
    {
      "suburb": {
        "id": 3471,
        "name": "Terbanggi Besar",
        "lat": -4.8626449,
        "lng": 105.2428853
      },
      "city": {
        "id": 207,
        "name": "Lampung Tengah",
        "lat": -4.8008086,
        "lng": 105.3131185
      },
      "province": {
        "id": 18,
        "name": "Lampung",
        "lat": -4.5585849,
        "lng": 105.4068079
      },
      "country": {
        "id": 228,
        "name": "INDONESIA",
        "code": "ID"
      },
      "id": 40058,
      "name": "Indra Putra Subing",
      "postcode": "34163",
      "lat": -4.9376248,
      "lng": 105.2604409
    },
    {
      "suburb": {
        "id": 3471,
        "name": "Terbanggi Besar",
        "lat": -4.8626449,
        "lng": 105.2428853
      },
      "city": {
        "id": 207,
        "name": "Lampung Tengah",
        "lat": -4.8008086,
        "lng": 105.3131185
      },
      "province": {
        "id": 18,
        "name": "Lampung",
        "lat": -4.5585849,
        "lng": 105.4068079
      },
      "country": {
        "id": 228,
        "name": "INDONESIA",
        "code": "ID"
      },
      "id": 40059,
      "name": "Bandar Jaya Timur",
      "postcode": "34163",
      "lat": -4.9464691,
      "lng": 105.2048546
    },
    {
      "suburb": {
        "id": 3471,
        "name": "Terbanggi Besar",
        "lat": -4.8626449,
        "lng": 105.2428853
      },
      "city": {
        "id": 207,
        "name": "Lampung Tengah",
        "lat": -4.8008086,
        "lng": 105.3131185
      },
      "province": {
        "id": 18,
        "name": "Lampung",
        "lat": -4.5585849,
        "lng": 105.4068079
      },
      "country": {
        "id": 228,
        "name": "INDONESIA",
        "code": "ID"
      },
      "id": 40060,
      "name": "Bandar Jaya Barat",
      "postcode": "34163",
      "lat": -4.9384453,
      "lng": 105.2253316
    },
    {
      "suburb": {
        "id": 3471,
        "name": "Terbanggi Besar",
        "lat": -4.8626449,
        "lng": 105.2428853
      },
      "city": {
        "id": 207,
        "name": "Lampung Tengah",
        "lat": -4.8008086,
        "lng": 105.3131185
      },
      "province": {
        "id": 18,
        "name": "Lampung",
        "lat": -4.5585849,
        "lng": 105.4068079
      },
      "country": {
        "id": 228,
        "name": "INDONESIA",
        "code": "ID"
      },
      "id": 40061,
      "name": "Adi Jaya",
      "postcode": "34163",
      "lat": -4.9493262,
      "lng": 105.1902297
    },
    {
      "suburb": {
        "id": 3472,
        "name": "Bekri",
        "lat": -5.0967049,
        "lng": 105.1375908
      },
      "city": {
        "id": 207,
        "name": "Lampung Tengah",
        "lat": -4.8008086,
        "lng": 105.3131185
      },
      "province": {
        "id": 18,
        "name": "Lampung",
        "lat": -4.5585849,
        "lng": 105.4068079
      },
      "country": {
        "id": 228,
        "name": "INDONESIA",
        "code": "ID"
      },
      "id": 40062,
      "name": "Sinar Banten/Bekri",
      "postcode": "34162",
      "lat": -5.0718958,
      "lng": 105.1200482
    },
    {
      "suburb": {
        "id": 3472,
        "name": "Bekri",
        "lat": -5.0967049,
        "lng": 105.1375908
      },
      "city": {
        "id": 207,
        "name": "Lampung Tengah",
        "lat": -4.8008086,
        "lng": 105.3131185
      },
      "province": {
        "id": 18,
        "name": "Lampung",
        "lat": -4.5585849,
        "lng": 105.4068079
      },
      "country": {
        "id": 228,
        "name": "INDONESIA",
        "code": "ID"
      },
      "id": 40063,
      "name": "Kesumadadi",
      "postcode": "34162",
      "lat": -5.1114251,
      "lng": 105.1551352
    },
    {
      "suburb": {
        "id": 3472,
        "name": "Bekri",
        "lat": -5.0967049,
        "lng": 105.1375908
      },
      "city": {
        "id": 207,
        "name": "Lampung Tengah",
        "lat": -4.8008086,
        "lng": 105.3131185
      },
      "province": {
        "id": 18,
        "name": "Lampung",
        "lat": -4.5585849,
        "lng": 105.4068079
      },
      "country": {
        "id": 228,
        "name": "INDONESIA",
        "code": "ID"
      },
      "id": 40064,
      "name": "Rengas",
      "postcode": "34162",
      "lat": -5.1313364,
      "lng": 105.1668326
    },
    {
      "suburb": {
        "id": 3472,
        "name": "Bekri",
        "lat": -5.0967049,
        "lng": 105.1375908
      },
      "city": {
        "id": 207,
        "name": "Lampung Tengah",
        "lat": -4.8008086,
        "lng": 105.3131185
      },
      "province": {
        "id": 18,
        "name": "Lampung",
        "lat": -4.5585849,
        "lng": 105.4068079
      },
      "country": {
        "id": 228,
        "name": "INDONESIA",
        "code": "ID"
      },
      "id": 40065,
      "name": "Kedatuan",
      "postcode": "34162",
      "lat": -5.1504958,
      "lng": 105.1054308
    },
    {
      "suburb": {
        "id": 3472,
        "name": "Bekri",
        "lat": -5.0967049,
        "lng": 105.1375908
      },
      "city": {
        "id": 207,
        "name": "Lampung Tengah",
        "lat": -4.8008086,
        "lng": 105.3131185
      },
      "province": {
        "id": 18,
        "name": "Lampung",
        "lat": -4.5585849,
        "lng": 105.4068079
      },
      "country": {
        "id": 228,
        "name": "INDONESIA",
        "code": "ID"
      },
      "id": 40066,
      "name": "Kesuma Jaya",
      "postcode": "34162",
      "lat": -5.07106,
      "lng": 105.1551352
    },
    {
      "suburb": {
        "id": 3472,
        "name": "Bekri",
        "lat": -5.0967049,
        "lng": 105.1375908
      },
      "city": {
        "id": 207,
        "name": "Lampung Tengah",
        "lat": -4.8008086,
        "lng": 105.3131185
      },
      "province": {
        "id": 18,
        "name": "Lampung",
        "lat": -4.5585849,
        "lng": 105.4068079
      },
      "country": {
        "id": 228,
        "name": "INDONESIA",
        "code": "ID"
      },
      "id": 40067,
      "name": "Binjai Ngagung (Agung)",
      "postcode": "34162",
      "lat": -5.1422835,
      "lng": 105.1317431
    },
    {
      "suburb": {
        "id": 3472,
        "name": "Bekri",
        "lat": -5.0967049,
        "lng": 105.1375908
      },
      "city": {
        "id": 207,
        "name": "Lampung Tengah",
        "lat": -4.8008086,
        "lng": 105.3131185
      },
      "province": {
        "id": 18,
        "name": "Lampung",
        "lat": -4.5585849,
        "lng": 105.4068079
      },
      "country": {
        "id": 228,
        "name": "INDONESIA",
        "code": "ID"
      },
      "id": 40068,
      "name": "Goras Jaya",
      "postcode": "34162",
      "lat": -5.1119869,
      "lng": 105.1317431
    },
    {
      "suburb": {
        "id": 3473,
        "name": "Gunung Sugih",
        "lat": -4.9942171,
        "lng": 105.2077798
      },
      "city": {
        "id": 207,
        "name": "Lampung Tengah",
        "lat": -4.8008086,
        "lng": 105.3131185
      },
      "province": {
        "id": 18,
        "name": "Lampung",
        "lat": -4.5585849,
        "lng": 105.4068079
      },
      "country": {
        "id": 228,
        "name": "INDONESIA",
        "code": "ID"
      },
      "id": 40069,
      "name": "Wono Sari",
      "postcode": "34161",
      "lat": -5.0532012,
      "lng": 105.1639082
    },
    {
      "suburb": {
        "id": 3472,
        "name": "Bekri",
        "lat": -5.0967049,
        "lng": 105.1375908
      },
      "city": {
        "id": 207,
        "name": "Lampung Tengah",
        "lat": -4.8008086,
        "lng": 105.3131185
      },
      "province": {
        "id": 18,
        "name": "Lampung",
        "lat": -4.5585849,
        "lng": 105.4068079
      },
      "country": {
        "id": 228,
        "name": "INDONESIA",
        "code": "ID"
      },
      "id": 40070,
      "name": "Bangun Sari",
      "postcode": "34162",
      "lat": -5.0967049,
      "lng": 105.1375908
    },
    {
      "suburb": {
        "id": 3474,
        "name": "Bumi Ratu Nuban",
        "lat": -5.0950209,
        "lng": 105.2077798
      },
      "city": {
        "id": 207,
        "name": "Lampung Tengah",
        "lat": -4.8008086,
        "lng": 105.3131185
      },
      "province": {
        "id": 18,
        "name": "Lampung",
        "lat": -4.5585849,
        "lng": 105.4068079
      },
      "country": {
        "id": 228,
        "name": "INDONESIA",
        "code": "ID"
      },
      "id": 40071,
      "name": "Tulung Kanan",
      "postcode": "34161",
      "lat": -5.0950209,
      "lng": 105.2077798
    },
    {
      "suburb": {
        "id": 3474,
        "name": "Bumi Ratu Nuban",
        "lat": -5.0950209,
        "lng": 105.2077798
      },
      "city": {
        "id": 207,
        "name": "Lampung Tengah",
        "lat": -4.8008086,
        "lng": 105.3131185
      },
      "province": {
        "id": 18,
        "name": "Lampung",
        "lat": -4.5585849,
        "lng": 105.4068079
      },
      "country": {
        "id": 228,
        "name": "INDONESIA",
        "code": "ID"
      },
      "id": 40072,
      "name": "Wates",
      "postcode": "34161",
      "lat": -5.1029408,
      "lng": 105.1931546
    },
    {
      "suburb": {
        "id": 3473,
        "name": "Gunung Sugih",
        "lat": -4.9942171,
        "lng": 105.2077798
      },
      "city": {
        "id": 207,
        "name": "Lampung Tengah",
        "lat": -4.8008086,
        "lng": 105.3131185
      },
      "province": {
        "id": 18,
        "name": "Lampung",
        "lat": -4.5585849,
        "lng": 105.4068079
      },
      "country": {
        "id": 228,
        "name": "INDONESIA",
        "code": "ID"
      },
      "id": 40073,
      "name": "Terbanggi Subing",
      "postcode": "34161",
      "lat": -5.0371055,
      "lng": 105.2048546
    },
    {
      "suburb": {
        "id": 3473,
        "name": "Gunung Sugih",
        "lat": -4.9942171,
        "lng": 105.2077798
      },
      "city": {
        "id": 207,
        "name": "Lampung Tengah",
        "lat": -4.8008086,
        "lng": 105.3131185
      },
      "province": {
        "id": 18,
        "name": "Lampung",
        "lat": -4.5585849,
        "lng": 105.4068079
      },
      "country": {
        "id": 228,
        "name": "INDONESIA",
        "code": "ID"
      },
      "id": 40074,
      "name": "Terbanggi Agung",
      "postcode": "34161",
      "lat": -5.0195392,
      "lng": 105.2019295
    },
    {
      "suburb": {
        "id": 3475,
        "name": "Anak Tuha",
        "lat": -5.0280268,
        "lng": 105.0557415
      },
      "city": {
        "id": 207,
        "name": "Lampung Tengah",
        "lat": -4.8008086,
        "lng": 105.3131185
      },
      "province": {
        "id": 18,
        "name": "Lampung",
        "lat": -4.5585849,
        "lng": 105.4068079
      },
      "country": {
        "id": 228,
        "name": "INDONESIA",
        "code": "ID"
      },
      "id": 40075,
      "name": "Tanjung Harapan",
      "postcode": "34161",
      "lat": -4.9939696,
      "lng": 105.0031457
    },
    {
      "suburb": {
        "id": 3474,
        "name": "Bumi Ratu Nuban",
        "lat": -5.0950209,
        "lng": 105.2077798
      },
      "city": {
        "id": 207,
        "name": "Lampung Tengah",
        "lat": -4.8008086,
        "lng": 105.3131185
      },
      "province": {
        "id": 18,
        "name": "Lampung",
        "lat": -4.5585849,
        "lng": 105.4068079
      },
      "country": {
        "id": 228,
        "name": "INDONESIA",
        "code": "ID"
      },
      "id": 40076,
      "name": "Sukajawa",
      "postcode": "34161",
      "lat": -5.1182217,
      "lng": 105.1873049
    },
    {
      "suburb": {
        "id": 3474,
        "name": "Bumi Ratu Nuban",
        "lat": -5.0950209,
        "lng": 105.2077798
      },
      "city": {
        "id": 207,
        "name": "Lampung Tengah",
        "lat": -4.8008086,
        "lng": 105.3131185
      },
      "province": {
        "id": 18,
        "name": "Lampung",
        "lat": -4.5585849,
        "lng": 105.4068079
      },
      "country": {
        "id": 228,
        "name": "INDONESIA",
        "code": "ID"
      },
      "id": 40077,
      "name": "Sukajadi",
      "postcode": "34161",
      "lat": -5.1201096,
      "lng": 105.2136302
    },
    {
      "suburb": {
        "id": 3474,
        "name": "Bumi Ratu Nuban",
        "lat": -5.0950209,
        "lng": 105.2077798
      },
      "city": {
        "id": 207,
        "name": "Lampung Tengah",
        "lat": -4.8008086,
        "lng": 105.3131185
      },
      "province": {
        "id": 18,
        "name": "Lampung",
        "lat": -4.5585849,
        "lng": 105.4068079
      },
      "country": {
        "id": 228,
        "name": "INDONESIA",
        "code": "ID"
      },
      "id": 40078,
      "name": "Sidokerto",
      "postcode": "34161",
      "lat": -5.1377062,
      "lng": 105.2165555
    },
    {
      "suburb": {
        "id": 3475,
        "name": "Anak Tuha",
        "lat": -5.0280268,
        "lng": 105.0557415
      },
      "city": {
        "id": 207,
        "name": "Lampung Tengah",
        "lat": -4.8008086,
        "lng": 105.3131185
      },
      "province": {
        "id": 18,
        "name": "Lampung",
        "lat": -4.5585849,
        "lng": 105.4068079
      },
      "country": {
        "id": 228,
        "name": "INDONESIA",
        "code": "ID"
      },
      "id": 40079,
      "name": "Sri Katon",
      "postcode": "34161",
      "lat": -5.065785,
      "lng": 105.0586639
    },
    {
      "suburb": {
        "id": 3474,
        "name": "Bumi Ratu Nuban",
        "lat": -5.0950209,
        "lng": 105.2077798
      },
      "city": {
        "id": 207,
        "name": "Lampung Tengah",
        "lat": -4.8008086,
        "lng": 105.3131185
      },
      "province": {
        "id": 18,
        "name": "Lampung",
        "lat": -4.5585849,
        "lng": 105.4068079
      },
      "country": {
        "id": 228,
        "name": "INDONESIA",
        "code": "ID"
      },
      "id": 40080,
      "name": "Sidowaras",
      "postcode": "34161",
      "lat": -5.0616096,
      "lng": 105.2341082
    },
    {
      "suburb": {
        "id": 3473,
        "name": "Gunung Sugih",
        "lat": -4.9942171,
        "lng": 105.2077798
      },
      "city": {
        "id": 207,
        "name": "Lampung Tengah",
        "lat": -4.8008086,
        "lng": 105.3131185
      },
      "province": {
        "id": 18,
        "name": "Lampung",
        "lat": -4.5585849,
        "lng": 105.4068079
      },
      "country": {
        "id": 228,
        "name": "INDONESIA",
        "code": "ID"
      },
      "id": 40081,
      "name": "Putra Buyut",
      "postcode": "34161",
      "lat": -4.9368023,
      "lng": 105.2955575
    },
    {
      "suburb": {
        "id": 3473,
        "name": "Gunung Sugih",
        "lat": -4.9942171,
        "lng": 105.2077798
      },
      "city": {
        "id": 207,
        "name": "Lampung Tengah",
        "lat": -4.8008086,
        "lng": 105.3131185
      },
      "province": {
        "id": 18,
        "name": "Lampung",
        "lat": -4.5585849,
        "lng": 105.4068079
      },
      "country": {
        "id": 228,
        "name": "INDONESIA",
        "code": "ID"
      },
      "id": 40082,
      "name": "Seputih Jaya",
      "postcode": "34161",
      "lat": -4.9667345,
      "lng": 105.1990045
    },
    {
      "suburb": {
        "id": 3475,
        "name": "Anak Tuha",
        "lat": -5.0280268,
        "lng": 105.0557415
      },
      "city": {
        "id": 207,
        "name": "Lampung Tengah",
        "lat": -4.8008086,
        "lng": 105.3131185
      },
      "province": {
        "id": 18,
        "name": "Lampung",
        "lat": -4.5585849,
        "lng": 105.4068079
      },
      "country": {
        "id": 228,
        "name": "INDONESIA",
        "code": "ID"
      },
      "id": 40083,
      "name": "Negara Aji Tua",
      "postcode": "34161",
      "lat": -5.0233963,
      "lng": 105.0382076
    },
    {
      "suburb": {
        "id": 3475,
        "name": "Anak Tuha",
        "lat": -5.0280268,
        "lng": 105.0557415
      },
      "city": {
        "id": 207,
        "name": "Lampung Tengah",
        "lat": -4.8008086,
        "lng": 105.3131185
      },
      "province": {
        "id": 18,
        "name": "Lampung",
        "lat": -4.5585849,
        "lng": 105.4068079
      },
      "country": {
        "id": 228,
        "name": "INDONESIA",
        "code": "ID"
      },
      "id": 40084,
      "name": "Negara Bumi Ilir",
      "postcode": "34161",
      "lat": -4.9996887,
      "lng": 105.0820457
    },
    {
      "suburb": {
        "id": 3475,
        "name": "Anak Tuha",
        "lat": -5.0280268,
        "lng": 105.0557415
      },
      "city": {
        "id": 207,
        "name": "Lampung Tengah",
        "lat": -4.8008086,
        "lng": 105.3131185
      },
      "province": {
        "id": 18,
        "name": "Lampung",
        "lat": -4.5585849,
        "lng": 105.4068079
      },
      "country": {
        "id": 228,
        "name": "INDONESIA",
        "code": "ID"
      },
      "id": 40085,
      "name": "Negara Bumi Udik",
      "postcode": "34161",
      "lat": -4.9909743,
      "lng": 105.0235976
    },
    {
      "suburb": {
        "id": 3475,
        "name": "Anak Tuha",
        "lat": -5.0280268,
        "lng": 105.0557415
      },
      "city": {
        "id": 207,
        "name": "Lampung Tengah",
        "lat": -4.8008086,
        "lng": 105.3131185
      },
      "province": {
        "id": 18,
        "name": "Lampung",
        "lat": -4.5585849,
        "lng": 105.4068079
      },
      "country": {
        "id": 228,
        "name": "INDONESIA",
        "code": "ID"
      },
      "id": 40086,
      "name": "Negara Aji Baru",
      "postcode": "34161",
      "lat": -5.0412517,
      "lng": 105.0294415
    },
    {
      "suburb": {
        "id": 3475,
        "name": "Anak Tuha",
        "lat": -5.0280268,
        "lng": 105.0557415
      },
      "city": {
        "id": 207,
        "name": "Lampung Tengah",
        "lat": -4.8008086,
        "lng": 105.3131185
      },
      "province": {
        "id": 18,
        "name": "Lampung",
        "lat": -4.5585849,
        "lng": 105.4068079
      },
      "country": {
        "id": 228,
        "name": "INDONESIA",
        "code": "ID"
      },
      "id": 40087,
      "name": "Mulyo Haji",
      "postcode": "34161",
      "lat": -5.0421895,
      "lng": 105.096661
    },
    {
      "suburb": {
        "id": 3473,
        "name": "Gunung Sugih",
        "lat": -4.9942171,
        "lng": 105.2077798
      },
      "city": {
        "id": 207,
        "name": "Lampung Tengah",
        "lat": -4.8008086,
        "lng": 105.3131185
      },
      "province": {
        "id": 18,
        "name": "Lampung",
        "lat": -4.5585849,
        "lng": 105.4068079
      },
      "country": {
        "id": 228,
        "name": "INDONESIA",
        "code": "ID"
      },
      "id": 40088,
      "name": "Komering Agung",
      "postcode": "34161",
      "lat": -5.0100168,
      "lng": 105.1785307
    },
    {
      "suburb": {
        "id": 3473,
        "name": "Gunung Sugih",
        "lat": -4.9942171,
        "lng": 105.2077798
      },
      "city": {
        "id": 207,
        "name": "Lampung Tengah",
        "lat": -4.8008086,
        "lng": 105.3131185
      },
      "province": {
        "id": 18,
        "name": "Lampung",
        "lat": -4.5585849,
        "lng": 105.4068079
      },
      "country": {
        "id": 228,
        "name": "INDONESIA",
        "code": "ID"
      },
      "id": 40089,
      "name": "Komering Putih",
      "postcode": "34161",
      "lat": -5.0004931,
      "lng": 105.1551352
    },
    {
      "suburb": {
        "id": 3475,
        "name": "Anak Tuha",
        "lat": -5.0280268,
        "lng": 105.0557415
      },
      "city": {
        "id": 207,
        "name": "Lampung Tengah",
        "lat": -4.8008086,
        "lng": 105.3131185
      },
      "province": {
        "id": 18,
        "name": "Lampung",
        "lat": -4.5585849,
        "lng": 105.4068079
      },
      "country": {
        "id": 228,
        "name": "INDONESIA",
        "code": "ID"
      },
      "id": 40090,
      "name": "Haji Pemanggilan",
      "postcode": "34161",
      "lat": -5.0018658,
      "lng": 105.096661
    },
    {
      "suburb": {
        "id": 3475,
        "name": "Anak Tuha",
        "lat": -5.0280268,
        "lng": 105.0557415
      },
      "city": {
        "id": 207,
        "name": "Lampung Tengah",
        "lat": -4.8008086,
        "lng": 105.3131185
      },
      "province": {
        "id": 18,
        "name": "Lampung",
        "lat": -4.5585849,
        "lng": 105.4068079
      },
      "country": {
        "id": 228,
        "name": "INDONESIA",
        "code": "ID"
      },
      "id": 40091,
      "name": "Jaya Sakti",
      "postcode": "34161",
      "lat": -5.0704149,
      "lng": 105.0761999
    },
    {
      "suburb": {
        "id": 3473,
        "name": "Gunung Sugih",
        "lat": -4.9942171,
        "lng": 105.2077798
      },
      "city": {
        "id": 207,
        "name": "Lampung Tengah",
        "lat": -4.8008086,
        "lng": 105.3131185
      },
      "province": {
        "id": 18,
        "name": "Lampung",
        "lat": -4.5585849,
        "lng": 105.4068079
      },
      "country": {
        "id": 228,
        "name": "INDONESIA",
        "code": "ID"
      },
      "id": 40092,
      "name": "Gunung Sugih Raya",
      "postcode": "34161",
      "lat": -4.9786999,
      "lng": 105.2253316
    },
    {
      "suburb": {
        "id": 3473,
        "name": "Gunung Sugih",
        "lat": -4.9942171,
        "lng": 105.2077798
      },
      "city": {
        "id": 207,
        "name": "Lampung Tengah",
        "lat": -4.8008086,
        "lng": 105.3131185
      },
      "province": {
        "id": 18,
        "name": "Lampung",
        "lat": -4.5585849,
        "lng": 105.4068079
      },
      "country": {
        "id": 228,
        "name": "INDONESIA",
        "code": "ID"
      },
      "id": 40093,
      "name": "Gunung Sugih",
      "postcode": "34161",
      "lat": -4.9917683,
      "lng": 105.2048546
    },
    {
      "suburb": {
        "id": 3475,
        "name": "Anak Tuha",
        "lat": -5.0280268,
        "lng": 105.0557415
      },
      "city": {
        "id": 207,
        "name": "Lampung Tengah",
        "lat": -4.8008086,
        "lng": 105.3131185
      },
      "province": {
        "id": 18,
        "name": "Lampung",
        "lat": -4.5585849,
        "lng": 105.4068079
      },
      "country": {
        "id": 228,
        "name": "INDONESIA",
        "code": "ID"
      },
      "id": 40094,
      "name": "Gunung Agung",
      "postcode": "34161",
      "lat": -5.0213542,
      "lng": 105.0177539
    },
    {
      "suburb": {
        "id": 3473,
        "name": "Gunung Sugih",
        "lat": -4.9942171,
        "lng": 105.2077798
      },
      "city": {
        "id": 207,
        "name": "Lampung Tengah",
        "lat": -4.8008086,
        "lng": 105.3131185
      },
      "province": {
        "id": 18,
        "name": "Lampung",
        "lat": -4.5585849,
        "lng": 105.4068079
      },
      "country": {
        "id": 228,
        "name": "INDONESIA",
        "code": "ID"
      },
      "id": 40095,
      "name": "Gunung Sari",
      "postcode": "34161",
      "lat": -5.0113595,
      "lng": 105.2282571
    },
    {
      "suburb": {
        "id": 3473,
        "name": "Gunung Sugih",
        "lat": -4.9942171,
        "lng": 105.2077798
      },
      "city": {
        "id": 207,
        "name": "Lampung Tengah",
        "lat": -4.8008086,
        "lng": 105.3131185
      },
      "province": {
        "id": 18,
        "name": "Lampung",
        "lat": -4.5585849,
        "lng": 105.4068079
      },
      "country": {
        "id": 228,
        "name": "INDONESIA",
        "code": "ID"
      },
      "id": 40096,
      "name": "Fajar Bulan (Pajar Bulan)",
      "postcode": "34161",
      "lat": -5.0010429,
      "lng": 105.1317431
    },
    {
      "suburb": {
        "id": 3473,
        "name": "Gunung Sugih",
        "lat": -4.9942171,
        "lng": 105.2077798
      },
      "city": {
        "id": 207,
        "name": "Lampung Tengah",
        "lat": -4.8008086,
        "lng": 105.3131185
      },
      "province": {
        "id": 18,
        "name": "Lampung",
        "lat": -4.5585849,
        "lng": 105.4068079
      },
      "country": {
        "id": 228,
        "name": "INDONESIA",
        "code": "ID"
      },
      "id": 40097,
      "name": "Buyut Udik",
      "postcode": "34161",
      "lat": -4.9778728,
      "lng": 105.2604409
    },
    {
      "suburb": {
        "id": 3473,
        "name": "Gunung Sugih",
        "lat": -4.9942171,
        "lng": 105.2077798
      },
      "city": {
        "id": 207,
        "name": "Lampung Tengah",
        "lat": -4.8008086,
        "lng": 105.3131185
      },
      "province": {
        "id": 18,
        "name": "Lampung",
        "lat": -4.5585849,
        "lng": 105.4068079
      },
      "country": {
        "id": 228,
        "name": "INDONESIA",
        "code": "ID"
      },
      "id": 40098,
      "name": "Buyut Utara",
      "postcode": "34161",
      "lat": -4.9141114,
      "lng": 105.2984842
    },
    {
      "suburb": {
        "id": 3473,
        "name": "Gunung Sugih",
        "lat": -4.9942171,
        "lng": 105.2077798
      },
      "city": {
        "id": 207,
        "name": "Lampung Tengah",
        "lat": -4.8008086,
        "lng": 105.3131185
      },
      "province": {
        "id": 18,
        "name": "Lampung",
        "lat": -4.5585849,
        "lng": 105.4068079
      },
      "country": {
        "id": 228,
        "name": "INDONESIA",
        "code": "ID"
      },
      "id": 40099,
      "name": "Buyut Ilir",
      "postcode": "34161",
      "lat": -4.9672566,
      "lng": 105.2838511
    },
    {
      "suburb": {
        "id": 3474,
        "name": "Bumi Ratu Nuban",
        "lat": -5.0950209,
        "lng": 105.2077798
      },
      "city": {
        "id": 207,
        "name": "Lampung Tengah",
        "lat": -4.8008086,
        "lng": 105.3131185
      },
      "province": {
        "id": 18,
        "name": "Lampung",
        "lat": -4.5585849,
        "lng": 105.4068079
      },
      "country": {
        "id": 228,
        "name": "INDONESIA",
        "code": "ID"
      },
      "id": 40100,
      "name": "Bumiratu",
      "postcode": "34161",
      "lat": -5.080309,
      "lng": 105.1902297
    },
    {
      "suburb": {
        "id": 3474,
        "name": "Bumi Ratu Nuban",
        "lat": -5.0950209,
        "lng": 105.2077798
      },
      "city": {
        "id": 207,
        "name": "Lampung Tengah",
        "lat": -4.8008086,
        "lng": 105.3131185
      },
      "province": {
        "id": 18,
        "name": "Lampung",
        "lat": -4.5585849,
        "lng": 105.4068079
      },
      "country": {
        "id": 228,
        "name": "INDONESIA",
        "code": "ID"
      },
      "id": 40101,
      "name": "Bumirahayu",
      "postcode": "34161",
      "lat": -5.071693,
      "lng": 105.2341082
    },
    {
      "suburb": {
        "id": 3474,
        "name": "Bumi Ratu Nuban",
        "lat": -5.0950209,
        "lng": 105.2077798
      },
      "city": {
        "id": 207,
        "name": "Lampung Tengah",
        "lat": -4.8008086,
        "lng": 105.3131185
      },
      "province": {
        "id": 18,
        "name": "Lampung",
        "lat": -4.5585849,
        "lng": 105.4068079
      },
      "country": {
        "id": 228,
        "name": "INDONESIA",
        "code": "ID"
      },
      "id": 40102,
      "name": "Bumiraharjo",
      "postcode": "34161",
      "lat": -5.0895544,
      "lng": 105.2253316
    },
    {
      "suburb": {
        "id": 3475,
        "name": "Anak Tuha",
        "lat": -5.0280268,
        "lng": 105.0557415
      },
      "city": {
        "id": 207,
        "name": "Lampung Tengah",
        "lat": -4.8008086,
        "lng": 105.3131185
      },
      "province": {
        "id": 18,
        "name": "Lampung",
        "lat": -4.5585849,
        "lng": 105.4068079
      },
      "country": {
        "id": 228,
        "name": "INDONESIA",
        "code": "ID"
      },
      "id": 40103,
      "name": "Bumi Jaya",
      "postcode": "34161",
      "lat": -5.075044,
      "lng": 105.0937378
    },
    {
      "suburb": {
        "id": 3475,
        "name": "Anak Tuha",
        "lat": -5.0280268,
        "lng": 105.0557415
      },
      "city": {
        "id": 207,
        "name": "Lampung Tengah",
        "lat": -4.8008086,
        "lng": 105.3131185
      },
      "province": {
        "id": 18,
        "name": "Lampung",
        "lat": -4.5585849,
        "lng": 105.4068079
      },
      "country": {
        "id": 228,
        "name": "INDONESIA",
        "code": "ID"
      },
      "id": 40104,
      "name": "Bumi Aji",
      "postcode": "34161",
      "lat": -4.9577569,
      "lng": 105.044052
    },
    {
      "suburb": {
        "id": 3474,
        "name": "Bumi Ratu Nuban",
        "lat": -5.0950209,
        "lng": 105.2077798
      },
      "city": {
        "id": 207,
        "name": "Lampung Tengah",
        "lat": -4.8008086,
        "lng": 105.3131185
      },
      "province": {
        "id": 18,
        "name": "Lampung",
        "lat": -4.5585849,
        "lng": 105.4068079
      },
      "country": {
        "id": 228,
        "name": "INDONESIA",
        "code": "ID"
      },
      "id": 40105,
      "name": "Bulusari",
      "postcode": "34161",
      "lat": -5.0497755,
      "lng": 105.2019295
    },
    {
      "suburb": {
        "id": 3473,
        "name": "Gunung Sugih",
        "lat": -4.9942171,
        "lng": 105.2077798
      },
      "city": {
        "id": 207,
        "name": "Lampung Tengah",
        "lat": -4.8008086,
        "lng": 105.3131185
      },
      "province": {
        "id": 18,
        "name": "Lampung",
        "lat": -4.5585849,
        "lng": 105.4068079
      },
      "country": {
        "id": 228,
        "name": "INDONESIA",
        "code": "ID"
      },
      "id": 40106,
      "name": "Bangun Rejo",
      "postcode": "34161",
      "lat": -4.9692888,
      "lng": 105.3043378
    },
    {
      "suburb": {
        "id": 3476,
        "name": "Bandar Surabaya",
        "lat": -4.6915735,
        "lng": 105.7116464
      },
      "city": {
        "id": 207,
        "name": "Lampung Tengah",
        "lat": -4.8008086,
        "lng": 105.3131185
      },
      "province": {
        "id": 18,
        "name": "Lampung",
        "lat": -4.5585849,
        "lng": 105.4068079
      },
      "country": {
        "id": 228,
        "name": "INDONESIA",
        "code": "ID"
      },
      "id": 40107,
      "name": "Surabaya Ilir",
      "postcode": "34159",
      "lat": -4.6813134,
      "lng": 105.7233814
    },
    {
      "suburb": {
        "id": 3476,
        "name": "Bandar Surabaya",
        "lat": -4.6915735,
        "lng": 105.7116464
      },
      "city": {
        "id": 207,
        "name": "Lampung Tengah",
        "lat": -4.8008086,
        "lng": 105.3131185
      },
      "province": {
        "id": 18,
        "name": "Lampung",
        "lat": -4.5585849,
        "lng": 105.4068079
      },
      "country": {
        "id": 228,
        "name": "INDONESIA",
        "code": "ID"
      },
      "id": 40108,
      "name": "Surabaya Baru",
      "postcode": "34159",
      "lat": -4.7258803,
      "lng": 105.7409852
    },
    {
      "suburb": {
        "id": 3476,
        "name": "Bandar Surabaya",
        "lat": -4.6915735,
        "lng": 105.7116464
      },
      "city": {
        "id": 207,
        "name": "Lampung Tengah",
        "lat": -4.8008086,
        "lng": 105.3131185
      },
      "province": {
        "id": 18,
        "name": "Lampung",
        "lat": -4.5585849,
        "lng": 105.4068079
      },
      "country": {
        "id": 228,
        "name": "INDONESIA",
        "code": "ID"
      },
      "id": 40109,
      "name": "Sumber Agung",
      "postcode": "34159",
      "lat": -4.6674173,
      "lng": 105.7850022
    },
    {
      "suburb": {
        "id": 3476,
        "name": "Bandar Surabaya",
        "lat": -4.6915735,
        "lng": 105.7116464
      },
      "city": {
        "id": 207,
        "name": "Lampung Tengah",
        "lat": -4.8008086,
        "lng": 105.3131185
      },
      "province": {
        "id": 18,
        "name": "Lampung",
        "lat": -4.5585849,
        "lng": 105.4068079
      },
      "country": {
        "id": 228,
        "name": "INDONESIA",
        "code": "ID"
      },
      "id": 40110,
      "name": "Subang Jaya",
      "postcode": "34159",
      "lat": -4.6567451,
      "lng": 105.7057792
    },
    {
      "suburb": {
        "id": 3476,
        "name": "Bandar Surabaya",
        "lat": -4.6915735,
        "lng": 105.7116464
      },
      "city": {
        "id": 207,
        "name": "Lampung Tengah",
        "lat": -4.8008086,
        "lng": 105.3131185
      },
      "province": {
        "id": 18,
        "name": "Lampung",
        "lat": -4.5585849,
        "lng": 105.4068079
      },
      "country": {
        "id": 228,
        "name": "INDONESIA",
        "code": "ID"
      },
      "id": 40111,
      "name": "Sido Dadi",
      "postcode": "34159",
      "lat": -4.6845555,
      "lng": 105.7996769
    },
    {
      "suburb": {
        "id": 3476,
        "name": "Bandar Surabaya",
        "lat": -4.6915735,
        "lng": 105.7116464
      },
      "city": {
        "id": 207,
        "name": "Lampung Tengah",
        "lat": -4.8008086,
        "lng": 105.3131185
      },
      "province": {
        "id": 18,
        "name": "Lampung",
        "lat": -4.5585849,
        "lng": 105.4068079
      },
      "country": {
        "id": 228,
        "name": "INDONESIA",
        "code": "ID"
      },
      "id": 40112,
      "name": "Raja Wali",
      "postcode": "34159",
      "lat": -4.72183,
      "lng": 105.6999122
    },
    {
      "suburb": {
        "id": 3476,
        "name": "Bandar Surabaya",
        "lat": -4.6915735,
        "lng": 105.7116464
      },
      "city": {
        "id": 207,
        "name": "Lampung Tengah",
        "lat": -4.8008086,
        "lng": 105.3131185
      },
      "province": {
        "id": 18,
        "name": "Lampung",
        "lat": -4.5585849,
        "lng": 105.4068079
      },
      "country": {
        "id": 228,
        "name": "INDONESIA",
        "code": "ID"
      },
      "id": 40113,
      "name": "Gaya Baru Lima",
      "postcode": "34159",
      "lat": -4.6676465,
      "lng": 105.6891578
    },
    {
      "suburb": {
        "id": 3476,
        "name": "Bandar Surabaya",
        "lat": -4.6915735,
        "lng": 105.7116464
      },
      "city": {
        "id": 207,
        "name": "Lampung Tengah",
        "lat": -4.8008086,
        "lng": 105.3131185
      },
      "province": {
        "id": 18,
        "name": "Lampung",
        "lat": -4.5585849,
        "lng": 105.4068079
      },
      "country": {
        "id": 228,
        "name": "INDONESIA",
        "code": "ID"
      },
      "id": 40114,
      "name": "Cempaka Putih",
      "postcode": "34159",
      "lat": -4.7247921,
      "lng": 105.7879371
    },
    {
      "suburb": {
        "id": 3476,
        "name": "Bandar Surabaya",
        "lat": -4.6915735,
        "lng": 105.7116464
      },
      "city": {
        "id": 207,
        "name": "Lampung Tengah",
        "lat": -4.8008086,
        "lng": 105.3131185
      },
      "province": {
        "id": 18,
        "name": "Lampung",
        "lat": -4.5585849,
        "lng": 105.4068079
      },
      "country": {
        "id": 228,
        "name": "INDONESIA",
        "code": "ID"
      },
      "id": 40115,
      "name": "Cabang",
      "postcode": "34159",
      "lat": -4.6448898,
      "lng": 105.7879371
    },
    {
      "suburb": {
        "id": 3476,
        "name": "Bandar Surabaya",
        "lat": -4.6915735,
        "lng": 105.7116464
      },
      "city": {
        "id": 207,
        "name": "Lampung Tengah",
        "lat": -4.8008086,
        "lng": 105.3131185
      },
      "province": {
        "id": 18,
        "name": "Lampung",
        "lat": -4.5585849,
        "lng": 105.4068079
      },
      "country": {
        "id": 228,
        "name": "INDONESIA",
        "code": "ID"
      },
      "id": 40116,
      "name": "Beringin Jaya",
      "postcode": "34159",
      "lat": -4.6953556,
      "lng": 105.7644596
    },
    {
      "suburb": {
        "id": 3477,
        "name": "Seputih Surabaya",
        "lat": -4.682922,
        "lng": 105.652983
      },
      "city": {
        "id": 207,
        "name": "Lampung Tengah",
        "lat": -4.8008086,
        "lng": 105.3131185
      },
      "province": {
        "id": 18,
        "name": "Lampung",
        "lat": -4.5585849,
        "lng": 105.4068079
      },
      "country": {
        "id": 228,
        "name": "INDONESIA",
        "code": "ID"
      },
      "id": 40117,
      "name": "Sumber Katon",
      "postcode": "34158",
      "lat": -4.7188521,
      "lng": 105.6119301
    },
    {
      "suburb": {
        "id": 3477,
        "name": "Seputih Surabaya",
        "lat": -4.682922,
        "lng": 105.652983
      },
      "city": {
        "id": 207,
        "name": "Lampung Tengah",
        "lat": -4.8008086,
        "lng": 105.3131185
      },
      "province": {
        "id": 18,
        "name": "Lampung",
        "lat": -4.5585849,
        "lng": 105.4068079
      },
      "country": {
        "id": 228,
        "name": "INDONESIA",
        "code": "ID"
      },
      "id": 40118,
      "name": "Sri Mulya Jaya",
      "postcode": "34158",
      "lat": -4.6378385,
      "lng": 105.6588485
    },
    {
      "suburb": {
        "id": 3477,
        "name": "Seputih Surabaya",
        "lat": -4.682922,
        "lng": 105.652983
      },
      "city": {
        "id": 207,
        "name": "Lampung Tengah",
        "lat": -4.8008086,
        "lng": 105.3131185
      },
      "province": {
        "id": 18,
        "name": "Lampung",
        "lat": -4.5585849,
        "lng": 105.4068079
      },
      "country": {
        "id": 228,
        "name": "INDONESIA",
        "code": "ID"
      },
      "id": 40119,
      "name": "Sri Katon",
      "postcode": "34158",
      "lat": -4.7011507,
      "lng": 105.6207263
    },
    {
      "suburb": {
        "id": 3477,
        "name": "Seputih Surabaya",
        "lat": -4.682922,
        "lng": 105.652983
      },
      "city": {
        "id": 207,
        "name": "Lampung Tengah",
        "lat": -4.8008086,
        "lng": 105.3131185
      },
      "province": {
        "id": 18,
        "name": "Lampung",
        "lat": -4.5585849,
        "lng": 105.4068079
      },
      "country": {
        "id": 228,
        "name": "INDONESIA",
        "code": "ID"
      },
      "id": 40120,
      "name": "Rawa Betik",
      "postcode": "34158",
      "lat": -4.7375081,
      "lng": 105.6705801
    },
    {
      "suburb": {
        "id": 3477,
        "name": "Seputih Surabaya",
        "lat": -4.682922,
        "lng": 105.652983
      },
      "city": {
        "id": 207,
        "name": "Lampung Tengah",
        "lat": -4.8008086,
        "lng": 105.3131185
      },
      "province": {
        "id": 18,
        "name": "Lampung",
        "lat": -4.5585849,
        "lng": 105.4068079
      },
      "country": {
        "id": 228,
        "name": "INDONESIA",
        "code": "ID"
      },
      "id": 40121,
      "name": "Mataram Ilir",
      "postcode": "34158",
      "lat": -4.6440227,
      "lng": 105.6060661
    },
    {
      "suburb": {
        "id": 3477,
        "name": "Seputih Surabaya",
        "lat": -4.682922,
        "lng": 105.652983
      },
      "city": {
        "id": 207,
        "name": "Lampung Tengah",
        "lat": -4.8008086,
        "lng": 105.3131185
      },
      "province": {
        "id": 18,
        "name": "Lampung",
        "lat": -4.5585849,
        "lng": 105.4068079
      },
      "country": {
        "id": 228,
        "name": "INDONESIA",
        "code": "ID"
      },
      "id": 40122,
      "name": "Kenanga Sari",
      "postcode": "34158",
      "lat": -4.6472924,
      "lng": 105.6823124
    },
    {
      "suburb": {
        "id": 3477,
        "name": "Seputih Surabaya",
        "lat": -4.682922,
        "lng": 105.652983
      },
      "city": {
        "id": 207,
        "name": "Lampung Tengah",
        "lat": -4.8008086,
        "lng": 105.3131185
      },
      "province": {
        "id": 18,
        "name": "Lampung",
        "lat": -4.5585849,
        "lng": 105.4068079
      },
      "country": {
        "id": 228,
        "name": "INDONESIA",
        "code": "ID"
      },
      "id": 40123,
      "name": "Gaya Baru Tujuh",
      "postcode": "34158",
      "lat": -4.682374,
      "lng": 105.6221924
    },
    {
      "suburb": {
        "id": 3477,
        "name": "Seputih Surabaya",
        "lat": -4.682922,
        "lng": 105.652983
      },
      "city": {
        "id": 207,
        "name": "Lampung Tengah",
        "lat": -4.8008086,
        "lng": 105.3131185
      },
      "province": {
        "id": 18,
        "name": "Lampung",
        "lat": -4.5585849,
        "lng": 105.4068079
      },
      "country": {
        "id": 228,
        "name": "INDONESIA",
        "code": "ID"
      },
      "id": 40124,
      "name": "Gaya Baru Tiga",
      "postcode": "34158",
      "lat": -4.6779118,
      "lng": 105.6703693
    },
    {
      "suburb": {
        "id": 3477,
        "name": "Seputih Surabaya",
        "lat": -4.682922,
        "lng": 105.652983
      },
      "city": {
        "id": 207,
        "name": "Lampung Tengah",
        "lat": -4.8008086,
        "lng": 105.3131185
      },
      "province": {
        "id": 18,
        "name": "Lampung",
        "lat": -4.5585849,
        "lng": 105.4068079
      },
      "country": {
        "id": 228,
        "name": "INDONESIA",
        "code": "ID"
      },
      "id": 40125,
      "name": "Gaya Baru Satu",
      "postcode": "34158",
      "lat": -4.6904845,
      "lng": 105.6500504
    },
    {
      "suburb": {
        "id": 3477,
        "name": "Seputih Surabaya",
        "lat": -4.682922,
        "lng": 105.652983
      },
      "city": {
        "id": 207,
        "name": "Lampung Tengah",
        "lat": -4.8008086,
        "lng": 105.3131185
      },
      "province": {
        "id": 18,
        "name": "Lampung",
        "lat": -4.5585849,
        "lng": 105.4068079
      },
      "country": {
        "id": 228,
        "name": "INDONESIA",
        "code": "ID"
      },
      "id": 40126,
      "name": "Gaya Baru Enam",
      "postcode": "34158",
      "lat": -4.7057476,
      "lng": 105.6383202
    },
    {
      "suburb": {
        "id": 3477,
        "name": "Seputih Surabaya",
        "lat": -4.682922,
        "lng": 105.652983
      },
      "city": {
        "id": 207,
        "name": "Lampung Tengah",
        "lat": -4.8008086,
        "lng": 105.3131185
      },
      "province": {
        "id": 18,
        "name": "Lampung",
        "lat": -4.5585849,
        "lng": 105.4068079
      },
      "country": {
        "id": 228,
        "name": "INDONESIA",
        "code": "ID"
      },
      "id": 40127,
      "name": "Gaya Baru Empat",
      "postcode": "34158",
      "lat": -4.7077769,
      "lng": 105.6588485
    },
    {
      "suburb": {
        "id": 3477,
        "name": "Seputih Surabaya",
        "lat": -4.682922,
        "lng": 105.652983
      },
      "city": {
        "id": 207,
        "name": "Lampung Tengah",
        "lat": -4.8008086,
        "lng": 105.3131185
      },
      "province": {
        "id": 18,
        "name": "Lampung",
        "lat": -4.5585849,
        "lng": 105.4068079
      },
      "country": {
        "id": 228,
        "name": "INDONESIA",
        "code": "ID"
      },
      "id": 40128,
      "name": "Gaya Baru Delapan",
      "postcode": "34158",
      "lat": -4.7283161,
      "lng": 105.6353878
    },
    {
      "suburb": {
        "id": 3477,
        "name": "Seputih Surabaya",
        "lat": -4.682922,
        "lng": 105.652983
      },
      "city": {
        "id": 207,
        "name": "Lampung Tengah",
        "lat": -4.8008086,
        "lng": 105.3131185
      },
      "province": {
        "id": 18,
        "name": "Lampung",
        "lat": -4.5585849,
        "lng": 105.4068079
      },
      "country": {
        "id": 228,
        "name": "INDONESIA",
        "code": "ID"
      },
      "id": 40129,
      "name": "Gaya Baru Dua",
      "postcode": "34158",
      "lat": -4.6780466,
      "lng": 105.6703943
    },
    {
      "suburb": {
        "id": 3478,
        "name": "Rumbia",
        "lat": -4.7645575,
        "lng": 105.5826123
      },
      "city": {
        "id": 207,
        "name": "Lampung Tengah",
        "lat": -4.8008086,
        "lng": 105.3131185
      },
      "province": {
        "id": 18,
        "name": "Lampung",
        "lat": -4.5585849,
        "lng": 105.4068079
      },
      "country": {
        "id": 228,
        "name": "INDONESIA",
        "code": "ID"
      },
      "id": 40130,
      "name": "Teluk Dalem Ilir",
      "postcode": "34157",
      "lat": -4.7718591,
      "lng": 105.4829681
    },
    {
      "suburb": {
        "id": 3478,
        "name": "Rumbia",
        "lat": -4.7645575,
        "lng": 105.5826123
      },
      "city": {
        "id": 207,
        "name": "Lampung Tengah",
        "lat": -4.8008086,
        "lng": 105.3131185
      },
      "province": {
        "id": 18,
        "name": "Lampung",
        "lat": -4.5585849,
        "lng": 105.4068079
      },
      "country": {
        "id": 228,
        "name": "INDONESIA",
        "code": "ID"
      },
      "id": 40131,
      "name": "Rukti Basuki",
      "postcode": "34157",
      "lat": -4.7705108,
      "lng": 105.5415755
    },
    {
      "suburb": {
        "id": 3478,
        "name": "Rumbia",
        "lat": -4.7645575,
        "lng": 105.5826123
      },
      "city": {
        "id": 207,
        "name": "Lampung Tengah",
        "lat": -4.8008086,
        "lng": 105.3131185
      },
      "province": {
        "id": 18,
        "name": "Lampung",
        "lat": -4.5585849,
        "lng": 105.4068079
      },
      "country": {
        "id": 228,
        "name": "INDONESIA",
        "code": "ID"
      },
      "id": 40132,
      "name": "Restu Buana",
      "postcode": "34157",
      "lat": -4.7491368,
      "lng": 105.6002024
    },
    {
      "suburb": {
        "id": 3478,
        "name": "Rumbia",
        "lat": -4.7645575,
        "lng": 105.5826123
      },
      "city": {
        "id": 207,
        "name": "Lampung Tengah",
        "lat": -4.8008086,
        "lng": 105.3131185
      },
      "province": {
        "id": 18,
        "name": "Lampung",
        "lat": -4.5585849,
        "lng": 105.4068079
      },
      "country": {
        "id": 228,
        "name": "INDONESIA",
        "code": "ID"
      },
      "id": 40133,
      "name": "Restu Baru",
      "postcode": "34157",
      "lat": -4.7573868,
      "lng": 105.5679552
    },
    {
      "suburb": {
        "id": 3478,
        "name": "Rumbia",
        "lat": -4.7645575,
        "lng": 105.5826123
      },
      "city": {
        "id": 207,
        "name": "Lampung Tengah",
        "lat": -4.8008086,
        "lng": 105.3131185
      },
      "province": {
        "id": 18,
        "name": "Lampung",
        "lat": -4.5585849,
        "lng": 105.4068079
      },
      "country": {
        "id": 228,
        "name": "INDONESIA",
        "code": "ID"
      },
      "id": 40134,
      "name": "Reno Basuki",
      "postcode": "34157",
      "lat": -4.7402062,
      "lng": 105.5532993
    },
    {
      "suburb": {
        "id": 3478,
        "name": "Rumbia",
        "lat": -4.7645575,
        "lng": 105.5826123
      },
      "city": {
        "id": 207,
        "name": "Lampung Tengah",
        "lat": -4.8008086,
        "lng": 105.3131185
      },
      "province": {
        "id": 18,
        "name": "Lampung",
        "lat": -4.5585849,
        "lng": 105.4068079
      },
      "country": {
        "id": 228,
        "name": "INDONESIA",
        "code": "ID"
      },
      "id": 40135,
      "name": "Rekso Binangun",
      "postcode": "34157",
      "lat": -4.7484526,
      "lng": 105.5210607
    },
    {
      "suburb": {
        "id": 3479,
        "name": "Putra Rumbia",
        "lat": -4.8246627,
        "lng": 105.5826123
      },
      "city": {
        "id": 207,
        "name": "Lampung Tengah",
        "lat": -4.8008086,
        "lng": 105.3131185
      },
      "province": {
        "id": 18,
        "name": "Lampung",
        "lat": -4.5585849,
        "lng": 105.4068079
      },
      "country": {
        "id": 228,
        "name": "INDONESIA",
        "code": "ID"
      },
      "id": 40136,
      "name": "Rantau Jaya makmur",
      "postcode": "34157",
      "lat": -4.7983815,
      "lng": 105.6353878
    },
    {
      "suburb": {
        "id": 3479,
        "name": "Putra Rumbia",
        "lat": -4.8246627,
        "lng": 105.5826123
      },
      "city": {
        "id": 207,
        "name": "Lampung Tengah",
        "lat": -4.8008086,
        "lng": 105.3131185
      },
      "province": {
        "id": 18,
        "name": "Lampung",
        "lat": -4.5585849,
        "lng": 105.4068079
      },
      "country": {
        "id": 228,
        "name": "INDONESIA",
        "code": "ID"
      },
      "id": 40137,
      "name": "Rantau Jaya Ilir",
      "postcode": "34157",
      "lat": -4.8468753,
      "lng": 105.5972706
    },
    {
      "suburb": {
        "id": 3479,
        "name": "Putra Rumbia",
        "lat": -4.8246627,
        "lng": 105.5826123
      },
      "city": {
        "id": 207,
        "name": "Lampung Tengah",
        "lat": -4.8008086,
        "lng": 105.3131185
      },
      "province": {
        "id": 18,
        "name": "Lampung",
        "lat": -4.5585849,
        "lng": 105.4068079
      },
      "country": {
        "id": 228,
        "name": "INDONESIA",
        "code": "ID"
      },
      "id": 40138,
      "name": "Rantau Jaya Baru",
      "postcode": "34157",
      "lat": -4.8189662,
      "lng": 105.6119301
    },
    {
      "suburb": {
        "id": 3479,
        "name": "Putra Rumbia",
        "lat": -4.8246627,
        "lng": 105.5826123
      },
      "city": {
        "id": 207,
        "name": "Lampung Tengah",
        "lat": -4.8008086,
        "lng": 105.3131185
      },
      "province": {
        "id": 18,
        "name": "Lampung",
        "lat": -4.5585849,
        "lng": 105.4068079
      },
      "country": {
        "id": 228,
        "name": "INDONESIA",
        "code": "ID"
      },
      "id": 40139,
      "name": "Mranggi Jaya",
      "postcode": "34157",
      "lat": -4.8246627,
      "lng": 105.5826123
    },
    {
      "suburb": {
        "id": 3479,
        "name": "Putra Rumbia",
        "lat": -4.8246627,
        "lng": 105.5826123
      },
      "city": {
        "id": 207,
        "name": "Lampung Tengah",
        "lat": -4.8008086,
        "lng": 105.3131185
      },
      "province": {
        "id": 18,
        "name": "Lampung",
        "lat": -4.5585849,
        "lng": 105.4068079
      },
      "country": {
        "id": 228,
        "name": "INDONESIA",
        "code": "ID"
      },
      "id": 40140,
      "name": "Mekar Jaya",
      "postcode": "34157",
      "lat": -4.8371245,
      "lng": 105.5855438
    },
    {
      "suburb": {
        "id": 3479,
        "name": "Putra Rumbia",
        "lat": -4.8246627,
        "lng": 105.5826123
      },
      "city": {
        "id": 207,
        "name": "Lampung Tengah",
        "lat": -4.8008086,
        "lng": 105.3131185
      },
      "province": {
        "id": 18,
        "name": "Lampung",
        "lat": -4.5585849,
        "lng": 105.4068079
      },
      "country": {
        "id": 228,
        "name": "INDONESIA",
        "code": "ID"
      },
      "id": 40141,
      "name": "Joharan",
      "postcode": "34157",
      "lat": -4.8601692,
      "lng": 105.5650239
    },
    {
      "suburb": {
        "id": 3478,
        "name": "Rumbia",
        "lat": -4.7645575,
        "lng": 105.5826123
      },
      "city": {
        "id": 207,
        "name": "Lampung Tengah",
        "lat": -4.8008086,
        "lng": 105.3131185
      },
      "province": {
        "id": 18,
        "name": "Lampung",
        "lat": -4.5585849,
        "lng": 105.4068079
      },
      "country": {
        "id": 228,
        "name": "INDONESIA",
        "code": "ID"
      },
      "id": 40142,
      "name": "Binakarya Putra",
      "postcode": "34157",
      "lat": -4.7891847,
      "lng": 105.6002024
    },
    {
      "suburb": {
        "id": 3479,
        "name": "Putra Rumbia",
        "lat": -4.8246627,
        "lng": 105.5826123
      },
      "city": {
        "id": 207,
        "name": "Lampung Tengah",
        "lat": -4.8008086,
        "lng": 105.3131185
      },
      "province": {
        "id": 18,
        "name": "Lampung",
        "lat": -4.5585849,
        "lng": 105.4068079
      },
      "country": {
        "id": 228,
        "name": "INDONESIA",
        "code": "ID"
      },
      "id": 40143,
      "name": "Binakarya Baru",
      "postcode": "34157",
      "lat": -4.8300858,
      "lng": 105.5650239
    },
    {
      "suburb": {
        "id": 3479,
        "name": "Putra Rumbia",
        "lat": -4.8246627,
        "lng": 105.5826123
      },
      "city": {
        "id": 207,
        "name": "Lampung Tengah",
        "lat": -4.8008086,
        "lng": 105.3131185
      },
      "province": {
        "id": 18,
        "name": "Lampung",
        "lat": -4.5585849,
        "lng": 105.4068079
      },
      "country": {
        "id": 228,
        "name": "INDONESIA",
        "code": "ID"
      },
      "id": 40144,
      "name": "Bina Karya Utama",
      "postcode": "34157",
      "lat": -4.8170775,
      "lng": 105.5855438
    },
    {
      "suburb": {
        "id": 3479,
        "name": "Putra Rumbia",
        "lat": -4.8246627,
        "lng": 105.5826123
      },
      "city": {
        "id": 207,
        "name": "Lampung Tengah",
        "lat": -4.8008086,
        "lng": 105.3131185
      },
      "province": {
        "id": 18,
        "name": "Lampung",
        "lat": -4.5585849,
        "lng": 105.4068079
      },
      "country": {
        "id": 228,
        "name": "INDONESIA",
        "code": "ID"
      },
      "id": 40145,
      "name": "Bina Karya Sakti",
      "postcode": "34157",
      "lat": -4.8426872,
      "lng": 105.5620927
    },
    {
      "suburb": {
        "id": 3479,
        "name": "Putra Rumbia",
        "lat": -4.8246627,
        "lng": 105.5826123
      },
      "city": {
        "id": 207,
        "name": "Lampung Tengah",
        "lat": -4.8008086,
        "lng": 105.3131185
      },
      "province": {
        "id": 18,
        "name": "Lampung",
        "lat": -4.5585849,
        "lng": 105.4068079
      },
      "country": {
        "id": 228,
        "name": "INDONESIA",
        "code": "ID"
      },
      "id": 40146,
      "name": "Bina Karya Jaya",
      "postcode": "34157",
      "lat": -4.8002916,
      "lng": 105.5532993
    },
    {
      "suburb": {
        "id": 3478,
        "name": "Rumbia",
        "lat": -4.7645575,
        "lng": 105.5826123
      },
      "city": {
        "id": 207,
        "name": "Lampung Tengah",
        "lat": -4.8008086,
        "lng": 105.3131185
      },
      "province": {
        "id": 18,
        "name": "Lampung",
        "lat": -4.5585849,
        "lng": 105.4068079
      },
      "country": {
        "id": 228,
        "name": "INDONESIA",
        "code": "ID"
      },
      "id": 40147,
      "name": "Bina Karya Buana",
      "postcode": "34157",
      "lat": -4.7629295,
      "lng": 105.652983
    },
    {
      "suburb": {
        "id": 3480,
        "name": "Seputih Banyak",
        "lat": -4.866974,
        "lng": 105.488828
      },
      "city": {
        "id": 207,
        "name": "Lampung Tengah",
        "lat": -4.8008086,
        "lng": 105.3131185
      },
      "province": {
        "id": 18,
        "name": "Lampung",
        "lat": -4.5585849,
        "lng": 105.4068079
      },
      "country": {
        "id": 228,
        "name": "INDONESIA",
        "code": "ID"
      },
      "id": 40148,
      "name": "Tanjungkerajan",
      "postcode": "34156",
      "lat": -4.8458313,
      "lng": 105.4273093
    },
    {
      "suburb": {
        "id": 3480,
        "name": "Seputih Banyak",
        "lat": -4.866974,
        "lng": 105.488828
      },
      "city": {
        "id": 207,
        "name": "Lampung Tengah",
        "lat": -4.8008086,
        "lng": 105.3131185
      },
      "province": {
        "id": 18,
        "name": "Lampung",
        "lat": -4.5585849,
        "lng": 105.4068079
      },
      "country": {
        "id": 228,
        "name": "INDONESIA",
        "code": "ID"
      },
      "id": 40149,
      "name": "Tanjung Harapan",
      "postcode": "34156",
      "lat": -4.85288,
      "lng": 105.4478131
    },
    {
      "suburb": {
        "id": 3480,
        "name": "Seputih Banyak",
        "lat": -4.866974,
        "lng": 105.488828
      },
      "city": {
        "id": 207,
        "name": "Lampung Tengah",
        "lat": -4.8008086,
        "lng": 105.3131185
      },
      "province": {
        "id": 18,
        "name": "Lampung",
        "lat": -4.5585849,
        "lng": 105.4068079
      },
      "country": {
        "id": 228,
        "name": "INDONESIA",
        "code": "ID"
      },
      "id": 40150,
      "name": "Swastika Buana",
      "postcode": "34156",
      "lat": -4.7913571,
      "lng": 105.5064087
    },
    {
      "suburb": {
        "id": 3480,
        "name": "Seputih Banyak",
        "lat": -4.866974,
        "lng": 105.488828
      },
      "city": {
        "id": 207,
        "name": "Lampung Tengah",
        "lat": -4.8008086,
        "lng": 105.3131185
      },
      "province": {
        "id": 18,
        "name": "Lampung",
        "lat": -4.5585849,
        "lng": 105.4068079
      },
      "country": {
        "id": 228,
        "name": "INDONESIA",
        "code": "ID"
      },
      "id": 40151,
      "name": "Sumber Fajar",
      "postcode": "34156",
      "lat": -4.8809615,
      "lng": 105.4273093
    },
    {
      "suburb": {
        "id": 3480,
        "name": "Seputih Banyak",
        "lat": -4.866974,
        "lng": 105.488828
      },
      "city": {
        "id": 207,
        "name": "Lampung Tengah",
        "lat": -4.8008086,
        "lng": 105.3131185
      },
      "province": {
        "id": 18,
        "name": "Lampung",
        "lat": -4.5585849,
        "lng": 105.4068079
      },
      "country": {
        "id": 228,
        "name": "INDONESIA",
        "code": "ID"
      },
      "id": 40152,
      "name": "Sumber Baru",
      "postcode": "34156",
      "lat": -4.8623678,
      "lng": 105.471249
    },
    {
      "suburb": {
        "id": 3480,
        "name": "Seputih Banyak",
        "lat": -4.866974,
        "lng": 105.488828
      },
      "city": {
        "id": 207,
        "name": "Lampung Tengah",
        "lat": -4.8008086,
        "lng": 105.3131185
      },
      "province": {
        "id": 18,
        "name": "Lampung",
        "lat": -4.5585849,
        "lng": 105.4068079
      },
      "country": {
        "id": 228,
        "name": "INDONESIA",
        "code": "ID"
      },
      "id": 40153,
      "name": "Sumber Bahagia",
      "postcode": "34156",
      "lat": -4.8608843,
      "lng": 105.4273093
    },
    {
      "suburb": {
        "id": 3480,
        "name": "Seputih Banyak",
        "lat": -4.866974,
        "lng": 105.488828
      },
      "city": {
        "id": 207,
        "name": "Lampung Tengah",
        "lat": -4.8008086,
        "lng": 105.3131185
      },
      "province": {
        "id": 18,
        "name": "Lampung",
        "lat": -4.5585849,
        "lng": 105.4068079
      },
      "country": {
        "id": 228,
        "name": "INDONESIA",
        "code": "ID"
      },
      "id": 40154,
      "name": "Sri Basuki",
      "postcode": "34156",
      "lat": -4.8227854,
      "lng": 105.4478131
    },
    {
      "suburb": {
        "id": 3480,
        "name": "Seputih Banyak",
        "lat": -4.866974,
        "lng": 105.488828
      },
      "city": {
        "id": 207,
        "name": "Lampung Tengah",
        "lat": -4.8008086,
        "lng": 105.3131185
      },
      "province": {
        "id": 18,
        "name": "Lampung",
        "lat": -4.5585849,
        "lng": 105.4068079
      },
      "country": {
        "id": 228,
        "name": "INDONESIA",
        "code": "ID"
      },
      "id": 40155,
      "name": "Siswa Bangun",
      "postcode": "34156",
      "lat": -4.8718544,
      "lng": 105.494688
    },
    {
      "suburb": {
        "id": 3480,
        "name": "Seputih Banyak",
        "lat": -4.866974,
        "lng": 105.488828
      },
      "city": {
        "id": 207,
        "name": "Lampung Tengah",
        "lat": -4.8008086,
        "lng": 105.3131185
      },
      "province": {
        "id": 18,
        "name": "Lampung",
        "lat": -4.5585849,
        "lng": 105.4068079
      },
      "country": {
        "id": 228,
        "name": "INDONESIA",
        "code": "ID"
      },
      "id": 40156,
      "name": "Setia Bumi",
      "postcode": "34156",
      "lat": -4.8829915,
      "lng": 105.4478131
    },
    {
      "suburb": {
        "id": 3480,
        "name": "Seputih Banyak",
        "lat": -4.866974,
        "lng": 105.488828
      },
      "city": {
        "id": 207,
        "name": "Lampung Tengah",
        "lat": -4.8008086,
        "lng": 105.3131185
      },
      "province": {
        "id": 18,
        "name": "Lampung",
        "lat": -4.5585849,
        "lng": 105.4068079
      },
      "country": {
        "id": 228,
        "name": "INDONESIA",
        "code": "ID"
      },
      "id": 40157,
      "name": "Setia Bakti",
      "postcode": "34156",
      "lat": -4.8214264,
      "lng": 105.5064087
    },
    {
      "suburb": {
        "id": 3480,
        "name": "Seputih Banyak",
        "lat": -4.866974,
        "lng": 105.488828
      },
      "city": {
        "id": 207,
        "name": "Lampung Tengah",
        "lat": -4.8008086,
        "lng": 105.3131185
      },
      "province": {
        "id": 18,
        "name": "Lampung",
        "lat": -4.5585849,
        "lng": 105.4068079
      },
      "country": {
        "id": 228,
        "name": "INDONESIA",
        "code": "ID"
      },
      "id": 40158,
      "name": "Sari Bakti",
      "postcode": "34156",
      "lat": -4.8462393,
      "lng": 105.4097365
    },
    {
      "suburb": {
        "id": 3480,
        "name": "Seputih Banyak",
        "lat": -4.866974,
        "lng": 105.488828
      },
      "city": {
        "id": 207,
        "name": "Lampung Tengah",
        "lat": -4.8008086,
        "lng": 105.3131185
      },
      "province": {
        "id": 18,
        "name": "Lampung",
        "lat": -4.5585849,
        "lng": 105.4068079
      },
      "country": {
        "id": 228,
        "name": "INDONESIA",
        "code": "ID"
      },
      "id": 40159,
      "name": "Sanggar Buana",
      "postcode": "34156",
      "lat": -4.8713041,
      "lng": 105.5181302
    },
    {
      "suburb": {
        "id": 3480,
        "name": "Seputih Banyak",
        "lat": -4.866974,
        "lng": 105.488828
      },
      "city": {
        "id": 207,
        "name": "Lampung Tengah",
        "lat": -4.8008086,
        "lng": 105.3131185
      },
      "province": {
        "id": 18,
        "name": "Lampung",
        "lat": -4.5585849,
        "lng": 105.4068079
      },
      "country": {
        "id": 228,
        "name": "INDONESIA",
        "code": "ID"
      },
      "id": 40160,
      "name": "Sakti Buana",
      "postcode": "34156",
      "lat": -4.8409345,
      "lng": 105.5298525
    },
    {
      "suburb": {
        "id": 3481,
        "name": "Seputih Raman",
        "lat": -4.8897939,
        "lng": 105.3716684
      },
      "city": {
        "id": 207,
        "name": "Lampung Tengah",
        "lat": -4.8008086,
        "lng": 105.3131185
      },
      "province": {
        "id": 18,
        "name": "Lampung",
        "lat": -4.5585849,
        "lng": 105.4068079
      },
      "country": {
        "id": 228,
        "name": "INDONESIA",
        "code": "ID"
      },
      "id": 40161,
      "name": "Rukti Harjo",
      "postcode": "34155",
      "lat": -4.9025565,
      "lng": 105.3628846
    },
    {
      "suburb": {
        "id": 3481,
        "name": "Seputih Raman",
        "lat": -4.8897939,
        "lng": 105.3716684
      },
      "city": {
        "id": 207,
        "name": "Lampung Tengah",
        "lat": -4.8008086,
        "lng": 105.3131185
      },
      "province": {
        "id": 18,
        "name": "Lampung",
        "lat": -4.5585849,
        "lng": 105.4068079
      },
      "country": {
        "id": 228,
        "name": "INDONESIA",
        "code": "ID"
      },
      "id": 40162,
      "name": "Rukti Endah",
      "postcode": "34155",
      "lat": -4.9544297,
      "lng": 105.4009508
    },
    {
      "suburb": {
        "id": 3481,
        "name": "Seputih Raman",
        "lat": -4.8897939,
        "lng": 105.3716684
      },
      "city": {
        "id": 207,
        "name": "Lampung Tengah",
        "lat": -4.8008086,
        "lng": 105.3131185
      },
      "province": {
        "id": 18,
        "name": "Lampung",
        "lat": -4.5585849,
        "lng": 105.4068079
      },
      "country": {
        "id": 228,
        "name": "INDONESIA",
        "code": "ID"
      },
      "id": 40163,
      "name": "Rejo Basuki",
      "postcode": "34155",
      "lat": -4.9460337,
      "lng": 105.3306814
    },
    {
      "suburb": {
        "id": 3481,
        "name": "Seputih Raman",
        "lat": -4.8897939,
        "lng": 105.3716684
      },
      "city": {
        "id": 207,
        "name": "Lampung Tengah",
        "lat": -4.8008086,
        "lng": 105.3131185
      },
      "province": {
        "id": 18,
        "name": "Lampung",
        "lat": -4.5585849,
        "lng": 105.4068079
      },
      "country": {
        "id": 228,
        "name": "INDONESIA",
        "code": "ID"
      },
      "id": 40164,
      "name": "Rejo Asri",
      "postcode": "34155",
      "lat": -4.9529549,
      "lng": 105.357029
    },
    {
      "suburb": {
        "id": 3481,
        "name": "Seputih Raman",
        "lat": -4.8897939,
        "lng": 105.3716684
      },
      "city": {
        "id": 207,
        "name": "Lampung Tengah",
        "lat": -4.8008086,
        "lng": 105.3131185
      },
      "province": {
        "id": 18,
        "name": "Lampung",
        "lat": -4.5585849,
        "lng": 105.4068079
      },
      "country": {
        "id": 228,
        "name": "INDONESIA",
        "code": "ID"
      },
      "id": 40165,
      "name": "Ramayana",
      "postcode": "34155",
      "lat": -4.8857266,
      "lng": 105.3306814
    },
    {
      "suburb": {
        "id": 3481,
        "name": "Seputih Raman",
        "lat": -4.8897939,
        "lng": 105.3716684
      },
      "city": {
        "id": 207,
        "name": "Lampung Tengah",
        "lat": -4.8008086,
        "lng": 105.3131185
      },
      "province": {
        "id": 18,
        "name": "Lampung",
        "lat": -4.5585849,
        "lng": 105.4068079
      },
      "country": {
        "id": 228,
        "name": "INDONESIA",
        "code": "ID"
      },
      "id": 40166,
      "name": "Ratna Khaton",
      "postcode": "34155",
      "lat": -4.9234792,
      "lng": 105.3277541
    },
    {
      "suburb": {
        "id": 3481,
        "name": "Seputih Raman",
        "lat": -4.8897939,
        "lng": 105.3716684
      },
      "city": {
        "id": 207,
        "name": "Lampung Tengah",
        "lat": -4.8008086,
        "lng": 105.3131185
      },
      "province": {
        "id": 18,
        "name": "Lampung",
        "lat": -4.5585849,
        "lng": 105.4068079
      },
      "country": {
        "id": 228,
        "name": "INDONESIA",
        "code": "ID"
      },
      "id": 40167,
      "name": "Rama Oetama (Utama)",
      "postcode": "34155",
      "lat": -4.8938569,
      "lng": 105.4126652
    },
    {
      "suburb": {
        "id": 3481,
        "name": "Seputih Raman",
        "lat": -4.8897939,
        "lng": 105.3716684
      },
      "city": {
        "id": 207,
        "name": "Lampung Tengah",
        "lat": -4.8008086,
        "lng": 105.3131185
      },
      "province": {
        "id": 18,
        "name": "Lampung",
        "lat": -4.5585849,
        "lng": 105.4068079
      },
      "country": {
        "id": 228,
        "name": "INDONESIA",
        "code": "ID"
      },
      "id": 40168,
      "name": "Rama Nirwana",
      "postcode": "34155",
      "lat": -4.8566833,
      "lng": 105.3921656
    },
    {
      "suburb": {
        "id": 3481,
        "name": "Seputih Raman",
        "lat": -4.8897939,
        "lng": 105.3716684
      },
      "city": {
        "id": 207,
        "name": "Lampung Tengah",
        "lat": -4.8008086,
        "lng": 105.3131185
      },
      "province": {
        "id": 18,
        "name": "Lampung",
        "lat": -4.5585849,
        "lng": 105.4068079
      },
      "country": {
        "id": 228,
        "name": "INDONESIA",
        "code": "ID"
      },
      "id": 40169,
      "name": "Rama Murti",
      "postcode": "34155",
      "lat": -4.8645523,
      "lng": 105.3775245
    },
    {
      "suburb": {
        "id": 3481,
        "name": "Seputih Raman",
        "lat": -4.8897939,
        "lng": 105.3716684
      },
      "city": {
        "id": 207,
        "name": "Lampung Tengah",
        "lat": -4.8008086,
        "lng": 105.3131185
      },
      "province": {
        "id": 18,
        "name": "Lampung",
        "lat": -4.5585849,
        "lng": 105.4068079
      },
      "country": {
        "id": 228,
        "name": "INDONESIA",
        "code": "ID"
      },
      "id": 40170,
      "name": "Rama Kelandungan",
      "postcode": "34155",
      "lat": -4.8650962,
      "lng": 105.3541013
    },
    {
      "suburb": {
        "id": 3481,
        "name": "Seputih Raman",
        "lat": -4.8897939,
        "lng": 105.3716684
      },
      "city": {
        "id": 207,
        "name": "Lampung Tengah",
        "lat": -4.8008086,
        "lng": 105.3131185
      },
      "province": {
        "id": 18,
        "name": "Lampung",
        "lat": -4.5585849,
        "lng": 105.4068079
      },
      "country": {
        "id": 228,
        "name": "INDONESIA",
        "code": "ID"
      },
      "id": 40171,
      "name": "Rama Indera",
      "postcode": "34155",
      "lat": -4.9155975,
      "lng": 105.3423909
    },
    {
      "suburb": {
        "id": 3481,
        "name": "Seputih Raman",
        "lat": -4.8897939,
        "lng": 105.3716684
      },
      "city": {
        "id": 207,
        "name": "Lampung Tengah",
        "lat": -4.8008086,
        "lng": 105.3131185
      },
      "province": {
        "id": 18,
        "name": "Lampung",
        "lat": -4.5585849,
        "lng": 105.4068079
      },
      "country": {
        "id": 228,
        "name": "INDONESIA",
        "code": "ID"
      },
      "id": 40172,
      "name": "Rama Gunawan",
      "postcode": "34155",
      "lat": -4.9144986,
      "lng": 105.3892372
    },
    {
      "suburb": {
        "id": 3481,
        "name": "Seputih Raman",
        "lat": -4.8897939,
        "lng": 105.3716684
      },
      "city": {
        "id": 207,
        "name": "Lampung Tengah",
        "lat": -4.8008086,
        "lng": 105.3131185
      },
      "province": {
        "id": 18,
        "name": "Lampung",
        "lat": -4.5585849,
        "lng": 105.4068079
      },
      "country": {
        "id": 228,
        "name": "INDONESIA",
        "code": "ID"
      },
      "id": 40173,
      "name": "Rama Dewa",
      "postcode": "34155",
      "lat": -4.9351513,
      "lng": 105.3658125
    },
    {
      "suburb": {
        "id": 3481,
        "name": "Seputih Raman",
        "lat": -4.8897939,
        "lng": 105.3716684
      },
      "city": {
        "id": 207,
        "name": "Lampung Tengah",
        "lat": -4.8008086,
        "lng": 105.3131185
      },